rating,latitude,longitude,restaurant_name,address,inspection_type,inspection_date,result,name,county,city,postcode,suburb,lon,lat,approved_date,neighborhood,type
,,,,9 Hanover Place,,2026-04-13 00:00:00,Bait applied,Gourmet Cafe,Kings County,New York,11201.0,Brooklyn,-73.982276,40.688898,2026-04-20,Downtown Brooklyn-DUMBO-Boerum Hill,Breakfast;Sandwich;Salad
,,,,4168 Broadway,,2026-04-13 00:00:00,Bait applied,IHOP,New York County,New York,10033.0,Manhattan,-73.937823,40.847519,2026-04-16,Washington Heights (South),Breakfast;Pancake
,,,,170 East 110th Street,,2026-04-13 00:00:00,Rat Activity,Aloaf Cafe,New York County,New York,10029.0,Manhattan,-73.943524,40.794318,2026-04-15,East Harlem (South),Bakery
,,,,2108 2nd Avenue,,2026-04-13 00:00:00,Bait applied,Ollin,New York County,New York,10035.0,Manhattan,-73.941037,40.792207,2026-04-16,East Harlem (South),
,40.748609,-73.8934,Rosui Ghor,"72 37th Ave, Jackson Heights, NY 11372, USA",Compliance,2026-03-05 09:22:00,Rat Activity,,,,,,,,,,
4.4,40.747386,-73.893391,Karachi Kabab Boiz (KKB) Storefront,"72-08 Broadway, Jackson Heights, NY 11372, USA",Compliance,2026-03-05 08:14:00,Rat Activity,,,,,,,,,,
3.0,40.680895,-73.977291,Sfi Grill & Deli,"Brooklyn, NY 11217, USA",Initial,2026-03-04 14:45:00,Failed for Other R,,,,,,,,,,
4.9,40.785926,-73.976602,Florentin,"480 Amsterdam Ave, New York, NY 10024, USA",Compliance,2026-03-04 14:35:06,Failed for Rat Act,,,,,,,,,,
4.3,40.702192,-73.920344,Caraotas,"162 Irving Ave, Brooklyn, NY 11237, USA",Compliance,2026-03-04 14:22:48,Rat Activity,,,,,,,,,,
4.1,40.68303,-73.922893,Dream House,"194 Ralph Ave, Brooklyn, NY 11233, USA",Treatments,2026-03-04 13:47:00,Bait applied,,,,,,,,,,
4.5,40.700658,-73.921225,Knickerbocker Bagel,"367 Knickerbocker Ave, Brooklyn, NY 11237, USA",Compliance,2026-03-04 13:25:48,Rat Activity,,,,,,,,,,
4.2,40.77201,-73.955404,Ollie’s To Go: Upper East Side,"307 E 77th St, New York, NY 10075, USA",Compliance,2026-03-04 13:22:03,Rat Activity,,,,,,,,,,
5.0,40.711704,-73.994409,Bolzot,"55 Market St, New York, NY 10002, USA",Initial,2026-03-04 12:31:56,Failed for Other R,,,,,,,,,,
5.0,40.684546,-73.944572,Rodo Foods,"420 Putnam Ave, Brooklyn, NY 11216, USA",Compliance,2026-03-04 12:31:55,Rat Activity,,,,,,,,,,
4.3,40.829593,-73.947798,Mire Star Restaurant,"3640 Broadway, New York, NY 10031, USA",Compliance,2026-03-04 12:25:01,Failed for Rat Act,,,,,,,,,,
5.0,40.711704,-73.994409,Bolzot,"55 Market St, New York, NY 10002, USA",Initial,2026-03-04 12:23:45,Rat Activity,,,,,,,,,,
5.0,40.711704,-73.994409,Bolzot,"55 Market St, New York, NY 10002, USA",Initial,2026-03-04 12:16:00,Rat Activity,,,,,,,,,,
5.0,40.858677,-73.905129,SBK Gourmet,"30 W 183rd St, Bronx, NY 10453, USA",Initial,2026-03-04 12:13:59,Failed for Rat Act,,,,,,,,,,
4.3,40.7119,-73.994552,Happy Medium,"49 Market St, New York, NY 10002, USA",Initial,2026-03-04 12:12:34,Rat Activity,,,,,,,,,,
1.0,40.687764,-73.95494,Golden Hing,"1082 Bedford Ave, Brooklyn, NY 11216, USA",Compliance,2026-03-04 12:12:00,Rat Activity,,,,,,,,,,
1.0,40.687764,-73.95494,Golden Hing,"1082 Bedford Ave, Brooklyn, NY 11216, USA",Compliance,2026-03-04 12:12:00,Rat Activity,,,,,,,,,,
4.3,40.712238,-73.994226,Bánh by Lauren,"42 Market St, New York, NY 10002, USA",Initial,2026-03-04 12:08:59,Rat Activity,,,,,,,,,,
5.0,40.858677,-73.905129,SBK Gourmet,"30 W 183rd St, Bronx, NY 10453, USA",Initial,2026-03-04 12:07:59,Rat Activity,,,,,,,,,,
4.3,40.858751,-73.903413,Elsa La Reina Del Chicharron,"1 E 183rd St, Bronx, NY 10453, USA",Initial,2026-03-04 11:50:59,Failed for Other R,,,,,,,,,,
4.5,40.756101,-73.966032,Kealoha Sushi & Poke Bowl,"330 E 53rd St, New York, NY 10022, USA",Treatments,2026-03-04 11:45:50,Bait applied,,,,,,,,,,
,40.721894,-73.988208,Bar Bryan night,"182 Orchard St, New York, NY 10002, USA",Treatments,2026-03-04 11:39:18,Bait applied,,,,,,,,,,
,40.766922,-73.986124,Crafted burgers NYC,"858 9th Ave, New York, NY 10019, USA",Initial,2026-03-04 11:38:00,Rat Activity,,,,,,,,,,
,40.766922,-73.986124,Crafted burgers NYC,"858 9th Ave, New York, NY 10019, USA",Initial,2026-03-04 11:38:00,Rat Activity,,,,,,,,,,
3.7,40.717434,-73.997277,Yuan Zai Bing,"104 Mott St, New York, NY 10013, USA",Initial,2026-03-04 11:37:11,Failed for Other R,,,,,,,,,,
4.4,40.712436,-73.994027,Golden Diner,"123 Madison St, New York, NY 10002, USA",Initial,2026-03-04 11:36:00,Rat Activity,,,,,,,,,,
3.9,40.676115,-74.000604,Dunkin',"289 Hamilton Ave, Brooklyn, NY 11231, USA",Initial,2026-03-04 11:35:00,Failed for Rat Act,,,,,,,,,,
4.2,40.736985,-73.865227,Yummy Kitchen,"95-17 57th Ave, Elmhurst, NY 11373, USA",Treatments,2026-03-04 11:34:16,Bait applied,,,,,,,,,,
4.7,40.795941,-73.934748,Azalea Café,"409 E 116th St, New York, NY 10029, USA",Stoppage,2026-03-04 11:31:00,Stoppage done,,,,,,,,,,
4.0,40.806943,-73.918145,El Jaguar,"536 E 138th St, Bronx, NY 10454, USA",Compliance,2026-03-04 11:26:11,Rat Activity,,,,,,,,,,
4.9,40.690626,-73.933758,Good Times Deli & Grill,"857 Greene Ave, Brooklyn, NY 11221, USA",Initial,2026-03-04 11:26:00,Failed for Rat Act,,,,,,,,,,
4.8,40.742092,-74.000594,Da Andrea Chelsea,"160 8th Ave, New York, NY 10011, USA",Compliance,2026-03-04 11:25:37,Rat Activity,,,,,,,,,,
4.2,40.82611,-73.950383,LA VIAGRA,"3536 Broadway, New York, NY 10031, USA",Compliance,2026-03-04 11:22:01,Failed for Rat Act,,,,,,,,,,
4.3,40.712739,-73.994309,Phở Gà Vàng,"30 Market St, New York, NY 10002, USA",Initial,2026-03-04 11:20:19,Failed for Rat Act,,,,,,,,,,
4.4,40.798518,-73.933858,Santiago’s Garden,"2337 1st Ave, New York, NY 10035, USA",Stoppage,2026-03-04 11:18:00,Stoppage done,,,,,,,,,,
4.6,40.772097,-73.95445,Xi'an Famous Foods 西安名吃 | Upper East Side 78th&2nd,"328 E 78th St, New York, NY 10075, USA",Compliance,2026-03-04 11:08:03,Rat Activity,,,,,,,,,,
4.3,40.712739,-73.994309,Phở Gà Vàng,"30 Market St, New York, NY 10002, USA",Initial,2026-03-04 11:07:11,Failed for Other R,,,,,,,,,,
4.4,40.767288,-73.98473,Stop By Café,"342 W 57th St, New York, NY 10019, USA",Initial,2026-03-04 11:05:28,Rat Activity,,,,,,,,,,
4.4,40.85708,-73.886018,M&G II,"2472 Arthur Ave, Bronx, NY 10458, USA",Initial,2026-03-04 11:03:59,Failed for Other R,,,,,,,,,,
4.4,40.802516,-73.938498,Teamworkon3 Juice,"2007 Lexington Avenue store Store, 2011 Lexington Ave, New York, NY 10035, USA",Stoppage,2026-03-04 11:00:00,Stoppage done,,,,,,,,,,
4.4,40.85708,-73.886018,M&G II,"2472 Arthur Ave, Bronx, NY 10458, USA",Initial,2026-03-04 10:54:59,Failed for Other R,,,,,,,,,,
5.0,40.753748,-73.91412,Teles Taqueria El Mas Sabroso,"48-01 Northern Blvd, Long Island City, NY 11101, USA",Compliance,2026-03-04 10:48:00,Failed for Other R,,,,,,,,,,
4.7,40.679427,-73.938628,Den of Splendor,"42 Albany Ave, Brooklyn, NY 11213, USA",Treatments,2026-03-04 10:46:38,Bait applied,,,,,,,,,,
3.9,40.73841,-73.982538,Pick A Bagel on 23rd street,"210 E 23rd St, New York, NY 10010, USA",Treatments,2026-03-04 10:45:08,Bait applied,,,,,,,,,,
4.1,40.833746,-73.926866,Don Sazón Restaurante,"1048 Woodycrest Ave, Bronx, NY 10452, USA",Compliance,2026-03-04 10:44:07,Rat Activity,,,,,,,,,,
4.7,40.804639,-73.951185,The Monkey Cup,"1965 Adam Clayton Powell Jr Blvd, New York, NY 10026, USA",Treatments,2026-03-04 10:30:09,Bait applied,,,,,,,,,,
4.8,40.68059,-73.974388,Tacos del Barrio,"67 1/2 6th Ave, Brooklyn, NY 11217, USA",Initial,2026-03-04 10:30:00,Failed for Rat Act,,,,,,,,,,
4.8,40.68059,-73.974388,Tacos del Barrio,"67 1/2 6th Ave, Brooklyn, NY 11217, USA",Initial,2026-03-04 10:30:00,Failed for Rat Act,,,,,,,,,,
4.6,40.772097,-73.95445,Xi'an Famous Foods 西安名吃 | Upper East Side 78th&2nd,"328 E 78th St, New York, NY 10075, USA",Compliance,2026-03-04 10:29:03,Rat Activity,,,,,,,,,,
4.6,40.830733,-73.899423,MERRY CANDY BAR LLC,"777 E 169th St, Bronx, NY 10456, USA",Initial,2026-03-04 10:28:09,Rat Activity,,,,,,,,,,
4.8,40.856881,-73.887881,Stop One Mini Market,"566 E 188th St, Bronx, NY 10458, USA",Initial,2026-03-04 10:23:59,Failed for Other R,,,,,,,,,,
4.6,40.847218,-73.938372,Manolo Tapas,"4165 Broadway, New York, NY 10033, USA",Treatments,2026-03-04 10:10:25,Bait applied,,,,,,,,,,
4.6,40.667289,-73.980802,Java Joe Coffee Tea & Spice Merchant,"414 8th St, Brooklyn, NY 11215, USA",Compliance,2026-03-04 10:10:03,Rat Activity,,,,,,,,,,
3.6,40.796989,-73.969706,Aamber Indian Vegan,"2636a Broadway, New York, NY 10025, USA",Stoppage,2026-03-04 10:09:00,Stoppage done,,,,,,,,,,
4.6,40.800158,-73.952297,El Valle 46 Restaurante,"46 St Nicholas Ave, New York, NY 10026, USA",Stoppage,2026-03-04 09:56:00,Stoppage done,,,,,,,,,,
4.9,40.772286,-73.955049,Ed’s Elbow Room,"308 E 78th St, New York, NY 10075, USA",Compliance,2026-03-04 09:55:03,Failed for Rat Act,,,,,,,,,,
4.9,40.772286,-73.955049,Ed’s Elbow Room,"308 E 78th St, New York, NY 10075, USA",Compliance,2026-03-04 09:55:03,Failed for Rat Act,,,,,,,,,,
,40.720851,-74.000487,Ny24,"Grand St, New York, NY 10013, USA",Compliance,2026-03-04 09:53:37,Rat Activity,,,,,,,,,,
4.5,40.726465,-73.989447,LÀ LÁ Bakeshop NYC,"73 2nd Ave, New York, NY 10003, USA",Compliance,2026-03-04 09:49:32,Rat Activity,,,,,,,,,,
4.6,40.685979,-73.920972,Twin Grills,"865 Hancock St, Brooklyn, NY 11233, USA",Treatments,2026-03-04 09:47:52,Monitoring visit,,,,,,,,,,
3.9,40.846381,-73.892875,La Bella Rosa Bakery Inc,"605 E Tremont Ave, Bronx, NY 10457, USA",Initial,2026-03-04 09:41:00,Failed for Other R,,,,,,,,,,
2.9,40.765393,-73.984161,Subway,"925 8th Ave, New York, NY 10019, USA",Initial,2026-03-04 09:39:00,Rat Activity,,,,,,,,,,
4.1,40.694829,-73.95301,Anaiah,"744 Myrtle Ave, Brooklyn, NY 11205, USA",Initial,2026-03-04 09:37:00,Rat Activity,,,,,,,,,,
4.9,40.772286,-73.955049,Ed’s Elbow Room,"308 E 78th St, New York, NY 10075, USA",Compliance,2026-03-04 09:32:03,Rat Activity,,,,,,,,,,
4.9,40.772286,-73.955049,Ed’s Elbow Room,"308 E 78th St, New York, NY 10075, USA",Compliance,2026-03-04 09:32:03,Rat Activity,,,,,,,,,,
,40.879248,-73.872091,Val.eeefreshfood,"3510 Decatur Ave, Bronx, NY 10467, USA",Treatments,2026-03-04 09:24:00,Bait applied,,,,,,,,,,
5.0,40.799575,-73.944246,Salimata,"62 E 116th St, New York, NY 10029, USA",Initial,2026-03-04 09:20:15,Failed for Rat Act,,,,,,,,,,
5.0,40.799575,-73.944246,Salimata,"62 E 116th St, New York, NY 10029, USA",Initial,2026-03-04 09:20:15,Failed for Rat Act,,,,,,,,,,
3.9,40.810252,-73.953189,OMEGA BAKERY & CAFE,"279 St Nicholas Ave, New York, NY 10027, USA",Stoppage,2026-03-04 09:12:00,Stoppage done,,,,,,,,,,
5.0,40.799575,-73.944246,Salimata,"62 E 116th St, New York, NY 10029, USA",Compliance,2026-03-04 09:07:15,Failed for Rat Act,,,,,,,,,,
5.0,40.799575,-73.944246,Salimata,"62 E 116th St, New York, NY 10029, USA",Compliance,2026-03-04 09:07:15,Failed for Rat Act,,,,,,,,,,
4.9,40.772286,-73.955049,Ed’s Elbow Room,"308 E 78th St, New York, NY 10075, USA",Compliance,2026-03-04 09:06:03,Rat Activity,,,,,,,,,,
4.9,40.772286,-73.955049,Ed’s Elbow Room,"308 E 78th St, New York, NY 10075, USA",Compliance,2026-03-04 09:06:03,Rat Activity,,,,,,,,,,
,40.850474,-73.903881,Anyi,"227 E 178th St, Bronx, NY 10457, USA",Initial,2026-03-04 09:00:00,Failed for Other R,,,,,,,,,,
4.3,40.772299,-73.955236,Anand,"304 E 78th St, New York, NY 10075, USA",Compliance,2026-03-04 08:55:03,Rat Activity,,,,,,,,,,
4.3,40.772299,-73.955236,Anand,"304 E 78th St, New York, NY 10075, USA",Compliance,2026-03-04 08:41:03,Failed for Rat Act,,,,,,,,,,
4.6,40.762848,-73.919843,Hutch Astoria,"35-07 31st Ave, Astoria, NY 11106, USA",Initial,2026-03-04 08:41:00,Rat Activity,,,,,,,,,,
4.7,40.746732,-73.947604,Traze,"21-03 45th Rd, Long Island City, NY 11101, USA",Compliance,2026-03-04 08:06:00,Rat Activity,,,,,,,,,,
3.6,40.832853,-73.942323,New Luck Garden,"1954 Amsterdam Ave, New York, NY 10032, USA",Treatments,2026-03-03 14:05:12,Bait applied,,,,,,,,,,
5.0,40.818616,-73.939419,Especiallymade_ByB,"117 W 141st St, New York, NY 10030, USA",Compliance,2026-03-03 13:09:08,Rat Activity,,,,,,,,,,
4.1,40.745009,-73.99157,Gregorys Coffee,"775 6th Ave, New York, NY 10001, USA",Treatments,2026-03-03 13:00:50,Bait applied,,,,,,,,,,
,40.753767,-73.990762,Contact Us — PUFFS,"237 W 37th St 2nd Floor, New York, NY 10018, USA",Treatments,2026-03-03 12:30:50,Bait applied,,,,,,,,,,
,40.834301,-73.912315,Statue of Liberty,"1256 College Ave, Bronx, NY 10456, USA",Compliance,2026-03-03 12:25:16,Rat Activity,,,,,,,,,,
3.8,40.726152,-73.989716,La Vera Pizza,"67 2nd Ave, New York, NY 10003, USA",Compliance,2026-03-03 12:24:06,Rat Activity,,,,,,,,,,
,40.728335,-73.988132,Rey Taco,"125 2nd Ave #13, New York, NY 10003, USA",Compliance,2026-03-03 12:00:31,Rat Activity,,,,,,,,,,
,40.833534,-73.941346,Plantega (NY1 Gourmet Deli),"1981 Amsterdam Ave, New York, NY 10032, USA",Treatments,2026-03-03 12:00:08,Bait applied,,,,,,,,,,
4.7,40.777795,-73.979123,Playa Bowls,"105 W 72nd St, New York, NY 10023, USA",Treatments,2026-03-03 11:42:47,Bait applied,,,,,,,,,,
4.2,40.759775,-73.804341,BLEU GOLF,"42-16 162nd St, Flushing, NY 11358, USA",Initial,2026-03-03 11:40:11,Failed for Other R,,,,,,,,,,
4.0,40.84819,-73.938017,Tu Cachapa 🇻🇪,"4195 Broadway, New York, NY 10033, USA",Treatments,2026-03-03 11:30:45,Bait applied,,,,,,,,,,
4.3,40.830284,-73.947388,New Deli 1,"3660 Broadway, New York, NY 10031, USA",Initial,2026-03-03 11:29:05,Rat Activity,,,,,,,,,,
4.1,40.777963,-73.979708,Legend 72,"127 W 72nd St, New York, NY 10023, USA",Treatments,2026-03-03 11:27:03,Bait applied,,,,,,,,,,
4.3,40.830498,-73.947187,Amanecer Restaurant And Lounge,"3666 Broadway, New York, NY 10031, USA",Initial,2026-03-03 11:25:05,Rat Activity,,,,,,,,,,
4.1,40.722058,-73.850618,Austin Street Bar & Grill (formerly Rotana Cafe & Grill),"68-60 Austin St Store 3, Forest Hills, NY 11375, USA",Initial,2026-03-03 11:22:12,Failed for Rat Act,,,,,,,,,,
4.1,40.722058,-73.850618,Austin Street Bar & Grill (formerly Rotana Cafe & Grill),"68-60 Austin St Store 3, Forest Hills, NY 11375, USA",Initial,2026-03-03 11:22:12,Failed for Rat Act,,,,,,,,,,
4.4,40.723988,-73.980179,TOKUYAMATCHA & ONIGIRAZU BAR- E 6th St.,"627 E 6th St, New York, NY 10009, USA",Initial,2026-03-03 11:10:11,Rat Activity,,,,,,,,,,
4.7,40.776723,-73.97973,Solid State Coffee,"104 W 71st St, New York, NY 10023, USA",Treatments,2026-03-03 10:58:11,Bait applied,,,,,,,,,,
4.4,40.805758,-73.954179,PATISSERIE DES AMBASSADES,"2190 Frederick Douglass Blvd, New York, NY 10026, USA",Compliance,2026-03-03 10:58:00,Failed for Rat Act,,,,,,,,,,
4.6,40.80044,-73.966129,Yoyo Chicken Amsterdam Ave,"934 Amsterdam Ave, New York, NY 10025, USA",Compliance,2026-03-03 10:52:57,Failed for Rat Act,,,,,,,,,,
4.6,40.80044,-73.966129,Yoyo Chicken Amsterdam Ave,"934 Amsterdam Ave, New York, NY 10025, USA",Compliance,2026-03-03 10:52:57,Failed for Rat Act,,,,,,,,,,
3.7,40.650446,-74.004445,Mis Angelitos Bakery,"4003 5th Ave, Brooklyn, NY 11232, USA",Treatments,2026-03-03 10:31:00,Bait applied,,,,,,,,,,
4.4,40.89095,-73.850206,The Chic Bistro,"938 E 233rd St, Bronx, NY 10466, USA",Initial,2026-03-03 10:30:08,Failed for Other R,,,,,,,,,,
2.9,40.652378,-74.006069,Domino's Pizza,"3901 4th Ave, Brooklyn, NY 11232, USA",Treatments,2026-03-03 10:17:00,Bait applied,,,,,,,,,,
4.6,40.829288,-73.944876,"Uptown Squeeze | Healthy Fresh Juice, Smoothie & Salad in Manhattan, NYC","1844 Amsterdam Ave, New York, NY 10031, USA",Initial,2026-03-03 10:13:05,Rat Activity,,,,,,,,,,
4.1,40.651421,-73.962782,Caton Deli & Luncheonette,"1818 Caton Ave, Brooklyn, NY 11226, USA",Initial,2026-03-03 10:11:30,Failed for Other R,,,,,,,,,,
4.2,40.703771,-73.941514,La Cocina II,"100 Moore St, Brooklyn, NY 11206, USA",Treatments,2026-03-03 09:52:38,Bait applied,,,,,,,,,,
2.7,40.848826,-73.932855,Caridad,"554 W 181st St, New York, NY 10033, USA",Treatments,2026-03-03 09:40:24,Bait applied,,,,,,,,,,
5.0,40.822013,-73.950219,Oasis Jimma Juice Bar,"1620 Amsterdam Ave, New York, NY 10031, USA",Compliance,2026-03-03 09:37:34,Failed for Rat Act,,,,,,,,,,
4.1,40.694829,-73.95301,Anaiah,"744 Myrtle Ave, Brooklyn, NY 11205, USA",Initial,2026-03-03 09:36:00,Rat Activity,,,,,,,,,,
4.1,40.694829,-73.95301,Anaiah,"744 Myrtle Ave, Brooklyn, NY 11205, USA",Initial,2026-03-03 09:26:00,Failed for Other R,,,,,,,,,,
2.7,40.848826,-73.932855,Caridad,"554 W 181st St, New York, NY 10033, USA",Treatments,2026-03-03 09:22:51,Bait applied,,,,,,,,,,
5.0,40.695467,-73.95365,Bergers To Impress,"114 Sandford St, Brooklyn, NY 11205, USA",Initial,2026-03-03 09:20:00,Failed for Other R,,,,,,,,,,
3.6,40.821657,-73.950515,Campus Deli & Grill,"1606 Amsterdam Ave, New York, NY 10031, USA",Compliance,2026-03-03 09:15:34,Failed for Rat Act,,,,,,,,,,
4.1,40.681302,-73.955868,Crown Fried Chicken & Pizza,"1147 Fulton St, Brooklyn, NY 11238, USA",Initial,2026-03-03 08:51:07,Rat Activity,,,,,,,,,,
5.0,40.695467,-73.95365,Bergers To Impress,"114 Sandford St, Brooklyn, NY 11205, USA",Initial,2026-03-03 08:44:24,Failed for Other R,,,,,,,,,,
4.7,40.645262,-73.970202,Werkstatt,"509 Coney Island Ave, Brooklyn, NY 11218, USA",Initial,2026-03-03 08:29:15,Rat Activity,,,,,,,,,,
3.8,40.862348,-73.893736,Baskin-Robbins,"321 E Kingsbridge Rd, Bronx, NY 10458, USA",Initial,2026-03-03 08:00:00,Failed for Rat Act,,,,,,,,,,
3.8,40.862348,-73.893736,Baskin-Robbins,"321 E Kingsbridge Rd, Bronx, NY 10458, USA",Initial,2026-03-03 08:00:00,Failed for Rat Act,,,,,,,,,,
4.1,40.826211,-73.917809,PG Pizza,"904 Morris Ave, Bronx, NY 10451, USA",Compliance,2026-03-02 14:53:47,Failed for Rat Act,,,,,,,,,,
4.7,40.702294,-73.919701,Honore Club,"173 Irving Ave, Brooklyn, NY 11237, USA",Compliance,2026-03-02 14:53:07,Rat Activity,,,,,,,,,,
4.4,40.8252,-73.916583,Katelyn Food Center,"3201 Park Ave, Bronx, NY 10451, USA",Compliance,2026-03-02 14:28:47,Rat Activity,,,,,,,,,,
5.0,40.68117,-73.928091,Upstairs at Eric's,"218 Bainbridge St., Brooklyn, NY 11233, USA",Compliance,2026-03-02 14:25:00,Rat Activity,,,,,,,,,,
4.5,40.683893,-73.929437,Trad Room,"266 Malcolm X Blvd, Brooklyn, NY 11233, USA",Compliance,2026-03-02 13:40:00,Rat Activity,,,,,,,,,,
2.7,40.644934,-74.010205,TACOS EL SABOR DE MI TIERRA,"sunset park, 50 y 51st5 Ave, Brooklyn, NY 11220, USA",Treatments,2026-03-02 13:34:00,Bait applied,,,,,,,,,,
3.9,40.77472,-73.950597,Le Pain Quotidien,"1592 1st Ave, New York, NY 10028, USA",Initial,2026-03-02 13:25:48,Failed for Other R,,,,,,,,,,
4.6,40.702615,-73.917189,Ops,"346 Himrod St, Brooklyn, NY 11237, USA",Compliance,2026-03-02 13:25:07,Rat Activity,,,,,,,,,,
4.4,40.853991,-73.887167,Shila Bar & Grill,"629 Crescent Ave, Bronx, NY 10458, USA",Compliance,2026-03-02 13:22:01,Failed for Other R,,,,,,,,,,
4.8,40.842095,-73.924665,Guerrero’s Pizzeria,"1381 Ogden Ave, Bronx, NY 10452, USA",Treatments,2026-03-02 13:19:00,Bait applied,,,,,,,,,,
4.2,40.857159,-73.890909,Fiesta Lounge and Restaurant,"4640 Third Ave, Bronx, NY 10458, USA",Compliance,2026-03-02 13:01:01,Failed for Other R,,,,,,,,,,
4.2,40.775782,-73.952303,Dulce Vida Latin Bistro,"309 E 83rd St, New York, NY 10028, USA",Initial,2026-03-02 13:00:48,Failed for Rat Act,,,,,,,,,,
,40.76237,-73.959146,WestMunster Ventures LLC,"406 E 64th St, New York, NY 10065, USA",Compliance,2026-03-02 12:51:00,Failed for Rat Act,,,,,,,,,,
,40.76237,-73.959146,WestMunster Ventures LLC,"406 E 64th St, New York, NY 10065, USA",Compliance,2026-03-02 12:51:00,Failed for Rat Act,,,,,,,,,,
5.0,40.843652,-73.934064,Bartolobritura,"174 Amsterdam Ave, New York, NY 10033, USA",Treatments,2026-03-02 12:45:10,Bait applied,,,,,,,,,,
3.7,40.701963,-73.915946,La Gualacena,"178 Wyckoff Ave, Brooklyn, NY 11237, USA",Compliance,2026-03-02 12:36:07,Rat Activity,,,,,,,,,,
4.1,40.841586,-73.935892,El Nuevo Taino,"2228 Amsterdam Ave, New York, NY 10032, USA",Treatments,2026-03-02 12:30:52,Bait applied,,,,,,,,,,
4.1,40.88046,-73.883608,Happy Dragon,"3388 Jerome Ave, Bronx, NY 10467, USA",Treatments,2026-03-02 12:20:55,Bait applied,,,,,,,,,,
4.5,40.839327,-73.9147,Big Cheese Pizza,"157 E 170th St, Bronx, NY 10452, USA",Compliance,2026-03-02 12:12:00,Rat Activity,,,,,,,,,,
4.5,40.839327,-73.9147,Big Cheese Pizza,"157 E 170th St, Bronx, NY 10452, USA",Compliance,2026-03-02 12:12:00,Rat Activity,,,,,,,,,,
3.0,40.836909,-73.938871,Yummy Grill,"2089 Amsterdam Ave, New York, NY 10032, USA",Treatments,2026-03-02 12:05:36,Bait applied,,,,,,,,,,
3.0,40.836909,-73.938871,Yummy Grill,"2089 Amsterdam Ave, New York, NY 10032, USA",Treatments,2026-03-02 12:05:36,Bait applied,,,,,,,,,,
,40.812744,-73.907989,Niyab87,"540 Concord Ave, Bronx, NY 10455, USA",Initial,2026-03-02 12:03:39,Rat Activity,,,,,,,,,,
4.4,40.749417,-73.888705,Lakeside NYC,"77-05A 37th Ave, Jackson Heights, NY 11372, USA",Initial,2026-03-02 12:00:00,Failed for Other R,,,,,,,,,,
4.7,40.843591,-73.836055,Da Franco & Tony Ristorante,"2815 Middletown Rd, Bronx, NY 10461, USA",Initial,2026-03-02 11:43:47,Failed for Other R,,,,,,,,,,
4.5,40.789873,-73.948342,Frenchy Coffee NYC,"129E E 102nd St, New York, NY 10029, USA",Initial,2026-03-02 11:42:51,Failed for Rat Act,,,,,,,,,,
4.6,40.707802,-73.940338,Stella Di Sicilia Bakery,"217 Montrose Ave, Brooklyn, NY 11206, USA",Initial,2026-03-02 11:41:00,Rat Activity,,,,,,,,,,
4.9,40.838255,-73.93788,Niccolo Pizzeria,"2127 Amsterdam Ave, New York, NY 10032, USA",Treatments,2026-03-02 11:40:13,Bait applied,,,,,,,,,,
4.8,40.839394,-73.914753,Taqueria Muñoz,"155 E 170th St, Bronx, NY 10452, USA",Compliance,2026-03-02 11:38:00,Rat Activity,,,,,,,,,,
4.2,40.805167,-73.966312,The Heights Bar & Grill,"2867 Broadway, New York, NY 10025, USA",Initial,2026-03-02 11:35:00,Rat Activity,,,,,,,,,,
4.8,40.774182,-73.95323,Panineria UES,"322 E 81st St, New York, NY 10028, USA",Initial,2026-03-02 11:31:08,Rat Activity,,,,,,,,,,
2.4,40.787002,-73.975815,New Green Leaf Deli,"518 Amsterdam Ave, New York, NY 10024, USA",Treatments,2026-03-02 11:30:36,Bait applied,,,,,,,,,,
4.3,40.799729,-73.967854,Ben & Jerry's,"2722 Broadway, New York, NY 10025, USA",Initial,2026-03-02 11:30:30,Rat Activity,,,,,,,,,,
4.1,40.70355,-73.942894,Mothers Seafood & More,"59 Graham Ave, Brooklyn, NY 11206, USA",Treatments,2026-03-02 11:29:39,Bait applied,,,,,,,,,,
4.4,40.698033,-73.92452,Oodles,"1298 Myrtle Ave, Brooklyn, NY 11221, USA",Initial,2026-03-02 11:24:08,Rat Activity,,,,,,,,,,
4.6,40.698306,-73.924742,Ahehuete-food truck,"1321 Myrtle Ave, Brooklyn, NY 11221, USA",Initial,2026-03-02 11:23:46,Rat Activity,,,,,,,,,,
4.4,40.773174,-73.957013,Sushi Spot—78 Street,"226 E 78th St, New York, NY 10075, USA",Compliance,2026-03-02 11:20:00,Rat Activity,,,,,,,,,,
4.9,40.684182,-73.978728,Supreme pizza NY,"22 4th Ave, Brooklyn, NY 11217, USA",Initial,2026-03-02 11:16:31,Rat Activity,,,,,,,,,,
5.0,40.777749,-73.953801,Spoonable Spirits,"214 E 85th St, New York, NY 10028, USA",Initial,2026-03-02 11:11:48,Rat Activity,,,,,,,,,,
4.3,40.772299,-73.955236,Anand,"304 E 78th St, New York, NY 10075, USA",Compliance,2026-03-02 11:06:00,Rat Activity,,,,,,,,,,
4.1,40.744244,-73.716877,Cheung Khei,"253-24 Union Tpke, Queens, NY 11004, USA",Initial,2026-03-02 11:05:13,Failed for Other R,,,,,,,,,,
4.2,40.699311,-73.923972,Mi Bella Cholulita,"1386 Dekalb Ave, Brooklyn, NY 11221, USA",Initial,2026-03-02 11:00:34,Rat Activity,,,,,,,,,,
4.3,40.837491,-73.938912,Santo Entierro Mexican Restaurant,"2102 Amsterdam Ave #2, New York, NY 10032, USA",Treatments,2026-03-02 11:00:13,Bait applied,,,,,,,,,,
4.9,40.772286,-73.955049,Ed’s Elbow Room,"308 E 78th St, New York, NY 10075, USA",Compliance,2026-03-02 10:56:00,Rat Activity,,,,,,,,,,
3.0,40.836909,-73.938871,Yummy Grill,"2089 Amsterdam Ave, New York, NY 10032, USA",Treatments,2026-03-02 10:45:11,Bait applied,,,,,,,,,,
3.0,40.836909,-73.938871,Yummy Grill,"2089 Amsterdam Ave, New York, NY 10032, USA",Treatments,2026-03-02 10:45:11,Bait applied,,,,,,,,,,
4.5,40.766576,-73.920303,Nisi Estiatorio,"32-07 30th Ave., Astoria, NY 11102, USA",Treatments,2026-03-02 10:39:50,Bait applied,,,,,,,,,,
4.0,40.699287,-73.923511,Happy Garden,"188 Wilson Ave, Brooklyn, NY 11237, USA",Initial,2026-03-02 10:35:26,Rat Activity,,,,,,,,,,
4.0,40.699287,-73.923511,Happy Garden,"188 Wilson Ave, Brooklyn, NY 11237, USA",Initial,2026-03-02 10:26:42,Failed for Rat Act,,,,,,,,,,
3.7,40.819395,-73.916429,Empanadas Monumental,"681 Melrose Ave, Bronx, NY 10455, USA",Stoppage,2026-03-02 10:26:00,Stoppage done,,,,,,,,,,
4.0,40.699287,-73.923511,Happy Garden,"188 Wilson Ave, Brooklyn, NY 11237, USA",Initial,2026-03-02 10:24:32,Rat Activity,,,,,,,,,,
4.0,40.699287,-73.923511,Happy Garden,"188 Wilson Ave, Brooklyn, NY 11237, USA",Initial,2026-03-02 10:14:30,Failed for Rat Act,,,,,,,,,,
4.9,40.686211,-73.929486,Flat Out Burger,"199 Malcolm X Blvd, Brooklyn, NY 11221, USA",Initial,2026-03-02 09:57:00,Rat Activity,,,,,,,,,,
3.5,40.834298,-73.941248,Tortilleria & Rosticeria El Guerrerence,"2002 Amsterdam Ave, New York, NY 10032, USA",Treatments,2026-03-02 09:55:54,Bait applied,,,,,,,,,,
4.0,40.860547,-73.895017,China City,"308 E 188th St, Bronx, NY 10458, USA",Stoppage,2026-03-02 09:55:00,Stoppage done,,,,,,,,,,
,40.685919,-73.929484,Sa Imong,"209 Malcolm X Blvd Apt 2R, Brooklyn, NY 11221, USA",Initial,2026-03-02 09:48:00,Rat Activity,,,,,,,,,,
3.7,40.833923,-73.941007,Dunkin',"1995 Amsterdam Ave, New York, NY 10032, USA",Treatments,2026-03-02 09:40:00,Bait applied,,,,,,,,,,
,40.641712,-74.006867,Le Tian Restaurant Inc.,"5110 7th Ave, Brooklyn, NY 11220, USA",Treatments,2026-03-02 09:38:00,Bait applied,,,,,,,,,,
,40.641712,-74.006867,Le Tian Restaurant Inc.,"5110 7th Ave, Brooklyn, NY 11220, USA",Treatments,2026-03-02 09:38:00,Bait applied,,,,,,,,,,
,40.641712,-74.006867,Le Tian Restaurant Inc.,"5110 7th Ave, Brooklyn, NY 11220, USA",Treatments,2026-03-02 09:24:00,Bait applied,,,,,,,,,,
,40.641712,-74.006867,Le Tian Restaurant Inc.,"5110 7th Ave, Brooklyn, NY 11220, USA",Treatments,2026-03-02 09:24:00,Bait applied,,,,,,,,,,
4.0,40.694158,-73.961329,Nathan's Famous,"569 Myrtle Ave, Brooklyn, NY 11205, USA",Treatments,2026-03-02 08:49:20,Bait applied,,,,,,,,,,
,40.727519,-73.98275,BABA DONER,"147 Avenue A, New York, NY 10009, USA",Compliance,2026-03-02 08:33:48,Rat Activity,,,,,,,,,,
,40.727519,-73.98275,BABA DONER,"147 Avenue A, New York, NY 10009, USA",Compliance,2026-03-02 08:33:48,Rat Activity,,,,,,,,,,
,40.727519,-73.98275,BABA DONER,"147 Avenue A, New York, NY 10009, USA",Compliance,2026-03-02 08:33:48,Rat Activity,,,,,,,,,,
3.6,40.727425,-73.989948,D:ICE,"223 E 5th St, New York, NY 10003, USA",Compliance,2026-03-02 08:00:00,Rat Activity,,,,,,,,,,
3.6,40.727425,-73.989948,D:ICE,"223 E 5th St, New York, NY 10003, USA",Compliance,2026-03-02 08:00:00,Rat Activity,,,,,,,,,,
4.3,40.828173,-73.920008,Yummy Happy Deli,"201 E 163rd St, Bronx, NY 10451, USA",Compliance,2026-02-27 09:10:50,Failed for Other R,,,,,,,,,,
,40.830537,-73.854518,Blue Agave,"2062 Powell Ave, Bronx, NY 10472, USA",Initial,2026-02-27 08:40:24,Failed for Other R,,,,,,,,,,
4.6,40.829288,-73.944876,"Uptown Squeeze | Healthy Fresh Juice, Smoothie & Salad in Manhattan, NYC","1844 Amsterdam Ave, New York, NY 10031, USA",Treatments,2026-02-26 13:02:50,Bait applied,,,,,,,,,,
4.6,40.826518,-73.950136,Yolanda’s Tamales,"Broadway &, W 145th St, New York, NY 10031, USA",Treatments,2026-02-26 13:00:20,Bait applied,,,,,,,,,,
4.4,40.825956,-73.946881,Village Chicken & Burger,"1739 Amsterdam Ave, New York, NY 10031, USA",Treatments,2026-02-26 12:53:50,Bait applied,,,,,,,,,,
4.4,40.825956,-73.946881,Village Chicken & Burger,"1739 Amsterdam Ave, New York, NY 10031, USA",Treatments,2026-02-26 12:53:50,Bait applied,,,,,,,,,,
4.4,40.825956,-73.946881,Village Chicken & Burger,"1739 Amsterdam Ave, New York, NY 10031, USA",Treatments,2026-02-26 12:48:50,Bait applied,,,,,,,,,,
4.4,40.825956,-73.946881,Village Chicken & Burger,"1739 Amsterdam Ave, New York, NY 10031, USA",Treatments,2026-02-26 12:48:50,Bait applied,,,,,,,,,,
5.0,40.825903,-73.947366,Texas Chicken & burger,"1734 Amsterdam Ave, New York, NY 10031, USA",Treatments,2026-02-26 12:42:50,Bait applied,,,,,,,,,,
5.0,40.825903,-73.947366,Texas Chicken & burger,"1734 Amsterdam Ave, New York, NY 10031, USA",Treatments,2026-02-26 12:37:50,Bait applied,,,,,,,,,,
4.6,40.767832,-73.991588,Playa Bowls,"550 W 54th St, New York, NY 10019, USA",Compliance,2026-02-26 11:54:59,Rat Activity,,,,,,,,,,
4.6,40.854141,-73.886574,Antonio's Trattoria,"2370 Belmont Ave, Bronx, NY 10458, USA",Initial,2026-02-26 11:54:15,Rat Activity,,,,,,,,,,
4.6,40.854141,-73.886574,Antonio's Trattoria,"2370 Belmont Ave, Bronx, NY 10458, USA",Initial,2026-02-26 11:46:15,Failed for Other R,,,,,,,,,,
4.7,40.8246,-73.951449,Lux Bar and Grill,"3480 Broadway, New York, NY 10031, USA",Treatments,2026-02-26 11:20:56,Bait applied,,,,,,,,,,
4.4,40.825148,-73.951065,Malecón Express Restaurant,"3500 Broadway, New York, NY 10031, USA",Treatments,2026-02-26 11:18:00,Bait applied,,,,,,,,,,
5.0,40.763624,-73.99236,Speakeasy the Living Room,"690 10th Ave, New York, NY 10019, USA",Initial,2026-02-26 11:15:59,Failed for Rat Act,,,,,,,,,,
5.0,40.763624,-73.99236,Speakeasy the Living Room,"690 10th Ave, New York, NY 10019, USA",Initial,2026-02-26 11:15:59,Failed for Rat Act,,,,,,,,,,
4.4,40.825148,-73.951065,Malecón Express Restaurant,"3500 Broadway, New York, NY 10031, USA",Treatments,2026-02-26 11:13:00,Bait applied,,,,,,,,,,
4.7,40.8246,-73.951449,Lux Bar and Grill,"3480 Broadway, New York, NY 10031, USA",Treatments,2026-02-26 11:10:25,Bait applied,,,,,,,,,,
4.8,40.730951,-74.000766,D’Albano Food Truck,"137 W 3rd St, New York, NY 10012, USA",Compliance,2026-02-26 10:48:00,Rat Activity,,,,,,,,,,
4.5,40.660079,-73.984237,Giovanni's Brooklyn Eats,"1666 8th Ave, Brooklyn, NY 11215, USA",Initial,2026-02-26 10:45:00,Failed for Rat Act,,,,,,,,,,
4.6,40.829288,-73.944876,"Uptown Squeeze | Healthy Fresh Juice, Smoothie & Salad in Manhattan, NYC","1844 Amsterdam Ave, New York, NY 10031, USA",Treatments,2026-02-26 10:40:37,Bait applied,,,,,,,,,,
,40.803526,-73.952868,Catch 22,"St Nicholas Ave, New York, NY 10026, USA",Stoppage,2026-02-26 10:37:00,Stoppage done,,,,,,,,,,
3.8,40.826171,-73.94356,New Golden Empire,"757 St Nicholas Ave, New York, NY 10031, USA",Treatments,2026-02-26 10:30:04,Bait applied,,,,,,,,,,
3.8,40.826171,-73.94356,New Golden Empire,"757 St Nicholas Ave, New York, NY 10031, USA",Treatments,2026-02-26 10:20:14,Bait applied,,,,,,,,,,
,40.88281,-73.902266,ethan and beyond,"5731 Broadway, Bronx, NY 10463, USA",Initial,2026-02-26 09:00:00,Failed for Other R,,,,,,,,,,
,40.750611,-73.984351,AKRAM SIGNATURE,"16 w 37th St MOHAMED AKRAM, New York, NY 10018, USA",Compliance,2026-02-26 08:43:00,Failed for Other R,,,,,,,,,,
4.3,40.772299,-73.955236,Anand,"304 E 78th St, New York, NY 10075, USA",Initial,2026-02-25 12:09:00,Failed for Other R,,,,,,,,,,
3.3,40.803752,-73.935352,Teriyaki Madness,"203 E 125th St, New York, NY 10035, USA",Initial,2026-02-25 11:34:00,Failed for Other R,,,,,,,,,,
5.0,40.85523,-73.889015,Afro Italiano,"2368 Hoffman St, Bronx, NY 10458, USA",Initial,2026-02-25 11:00:00,Failed for Other R,,,,,,,,,,
5.0,40.85523,-73.889015,Afro Italiano,"2368 Hoffman St, Bronx, NY 10458, USA",Initial,2026-02-25 11:00:00,Failed for Other R,,,,,,,,,,
5.0,40.85523,-73.889015,Afro Italiano,"2368 Hoffman St, Bronx, NY 10458, USA",Initial,2026-02-25 11:00:00,Failed for Other R,,,,,,,,,,
5.0,40.85523,-73.889015,Afro Italiano,"2368 Hoffman St, Bronx, NY 10458, USA",Initial,2026-02-25 11:00:00,Failed for Other R,,,,,,,,,,
5.0,40.85523,-73.889015,Afro Italiano,"2368 Hoffman St, Bronx, NY 10458, USA",Initial,2026-02-25 11:00:00,Failed for Other R,,,,,,,,,,
5.0,40.85523,-73.889015,Afro Italiano,"2368 Hoffman St, Bronx, NY 10458, USA",Initial,2026-02-25 11:00:00,Failed for Other R,,,,,,,,,,
5.0,40.85523,-73.889015,Afro Italiano,"2368 Hoffman St, Bronx, NY 10458, USA",Initial,2026-02-25 11:00:00,Failed for Other R,,,,,,,,,,
5.0,40.85523,-73.889015,Afro Italiano,"2368 Hoffman St, Bronx, NY 10458, USA",Initial,2026-02-25 11:00:00,Failed for Other R,,,,,,,,,,
5.0,40.85523,-73.889015,Afro Italiano,"2368 Hoffman St, Bronx, NY 10458, USA",Initial,2026-02-25 11:00:00,Failed for Other R,,,,,,,,,,
5.0,40.85523,-73.889015,Afro Italiano,"2368 Hoffman St, Bronx, NY 10458, USA",Initial,2026-02-25 11:00:00,Failed for Other R,,,,,,,,,,
4.6,40.708196,-74.004796,Playa Bowls,"50 Fulton St, New York, NY 10038, USA",Initial,2026-02-25 09:00:54,Failed for Rat Act,,,,,,,,,,
4.6,40.708196,-74.004796,Playa Bowls,"50 Fulton St, New York, NY 10038, USA",Initial,2026-02-25 09:00:54,Failed for Rat Act,,,,,,,,,,
3.8,40.814248,-73.936867,Lynx Kitchen,"1 W 137th St, New York, NY 10037, USA",Initial,2026-02-24 12:45:45,Rat Activity,,,,,,,,,,
3.8,40.814248,-73.936867,Lynx Kitchen,"1 W 137th St, New York, NY 10037, USA",Initial,2026-02-24 12:45:45,Rat Activity,,,,,,,,,,
3.8,40.814248,-73.936867,Lynx Kitchen,"1 W 137th St, New York, NY 10037, USA",Initial,2026-02-24 12:45:45,Rat Activity,,,,,,,,,,
3.8,40.814248,-73.936867,Lynx Kitchen,"1 W 137th St, New York, NY 10037, USA",Initial,2026-02-24 12:45:45,Rat Activity,,,,,,,,,,
3.8,40.858229,-73.902707,Que Sabrosura! Restaurant & Bar,"48 E 183rd St, Bronx, NY 10453, USA",Compliance,2026-02-24 11:02:18,Rat Activity,,,,,,,,,,
4.6,40.703127,-73.921876,Amaranto,"887 Hart St, Brooklyn, NY 11237, USA",Initial,2026-02-20 09:04:45,Rat Activity,,,,,,,,,,
4.6,40.829288,-73.944876,"Uptown Squeeze | Healthy Fresh Juice, Smoothie & Salad in Manhattan, NYC","1844 Amsterdam Ave, New York, NY 10031, USA",Treatments,2026-02-19 15:15:36,Bait applied,,,,,,,,,,
4.6,40.829288,-73.944876,"Uptown Squeeze | Healthy Fresh Juice, Smoothie & Salad in Manhattan, NYC","1844 Amsterdam Ave, New York, NY 10031, USA",Treatments,2026-02-19 14:55:41,Bait applied,,,,,,,,,,
4.2,40.699311,-73.923972,Mi Bella Cholulita,"1386 Dekalb Ave, Brooklyn, NY 11221, USA",Initial,2026-02-19 14:16:32,Rat Activity,,,,,,,,,,
4.2,40.699311,-73.923972,Mi Bella Cholulita,"1386 Dekalb Ave, Brooklyn, NY 11221, USA",Initial,2026-02-19 14:10:32,Rat Activity,,,,,,,,,,
3.6,40.699828,-73.923847,Fire House Deli & Grill,"1389 Dekalb Ave #2F, Brooklyn, NY 11237, USA",Initial,2026-02-19 13:59:32,Rat Activity,,,,,,,,,,
4.3,40.700074,-73.924249,The Wheelhouse,"165 Wilson Ave, Brooklyn, NY 11237, USA",Initial,2026-02-19 13:50:32,Rat Activity,,,,,,,,,,
5.0,40.825903,-73.947366,Texas Chicken & burger,"1734 Amsterdam Ave, New York, NY 10031, USA",Treatments,2026-02-19 13:45:17,Bait applied,,,,,,,,,,
4.2,40.825787,-73.948497,Wats On Your Plate,"513 W 145th St, New York, NY 10031, USA",Treatments,2026-02-19 13:32:00,Bait applied,,,,,,,,,,
3.9,40.664439,-73.931137,BK HALAL GRILL,"411 Utica Ave, Brooklyn, NY 11213, USA",Initial,2026-02-19 13:30:38,Failed for Other R,,,,,,,,,,
4.2,40.825787,-73.948497,Wats On Your Plate,"513 W 145th St, New York, NY 10031, USA",Treatments,2026-02-19 13:20:19,Bait applied,,,,,,,,,,
5.0,40.854932,-73.896078,KalonnHealthyMeals,"405 E 182nd St apt 5a, Bronx, NY 10457, USA",Compliance,2026-02-19 12:58:54,Failed for Rat Act,,,,,,,,,,
4.2,40.825787,-73.948497,Wats On Your Plate,"513 W 145th St, New York, NY 10031, USA",Treatments,2026-02-19 12:51:11,Bait applied,,,,,,,,,,
4.9,40.692654,-73.921171,Laziza cafe,"436 Evergreen Ave, Brooklyn, NY 11221, USA",Compliance,2026-02-19 12:40:18,Rat Activity,,,,,,,,,,
4.2,40.825787,-73.948497,Wats On Your Plate,"513 W 145th St, New York, NY 10031, USA",Treatments,2026-02-19 12:35:05,Bait applied,,,,,,,,,,
4.4,40.825148,-73.951065,Malecón Express Restaurant,"3500 Broadway, New York, NY 10031, USA",Treatments,2026-02-19 12:15:04,Bait applied,,,,,,,,,,
4.0,40.841333,-73.936224,Angela's Cake,"2220 Amsterdam Ave, New York, NY 10032, USA",Treatments,2026-02-19 12:10:48,Bait applied,,,,,,,,,,
2.5,40.83958,-73.91644,Urban Flame Steakhouse,"Inside Fresco, 62 E 170th St, Bronx, NY 10452, USA",Compliance,2026-02-19 11:54:00,Rat Activity,,,,,,,,,,
4.4,40.825148,-73.951065,Malecón Express Restaurant,"3500 Broadway, New York, NY 10031, USA",Treatments,2026-02-19 11:52:58,Bait applied,,,,,,,,,,
4.1,40.841586,-73.935892,El Nuevo Taino,"2228 Amsterdam Ave, New York, NY 10032, USA",Treatments,2026-02-19 11:40:48,Bait applied,,,,,,,,,,
3.0,40.857863,-73.901626,Outfield,"106 E 183rd St, Bronx, NY 10453, USA",Compliance,2026-02-19 11:37:53,Failed for Rat Act,,,,,,,,,,
3.0,40.857863,-73.901626,Outfield,"106 E 183rd St, Bronx, NY 10453, USA",Compliance,2026-02-19 11:37:53,Failed for Rat Act,,,,,,,,,,
4.5,40.685142,-73.929639,Pizza Crew,"234 Malcolm X Blvd, Brooklyn, NY 11221, USA",Treatments,2026-02-19 11:31:52,Bait applied,,,,,,,,,,
4.6,40.728482,-73.98799,Eim Khao Mun Kai East Village,"129 2nd Ave, New York, NY 10003, USA",Treatments,2026-02-19 11:24:24,Bait applied,,,,,,,,,,
3.6,40.668007,-73.931016,Jamaican Flavors,"295 Utica Ave, Brooklyn, NY 11213, USA",Compliance,2026-02-19 11:18:40,Failed for Other R,,,,,,,,,,
4.3,40.68549,-73.929794,Crab Bros,"222 Malcolm X Blvd, Brooklyn, NY 11221, USA",Treatments,2026-02-19 11:13:41,Bait applied,,,,,,,,,,
4.3,40.729428,-73.989132,Gem Bing Shop 好吃煎饼,"9 St Marks Pl, New York, NY 10003, USA",Treatments,2026-02-19 11:12:24,Bait applied,,,,,,,,,,
4.3,40.729428,-73.989132,Gem Bing Shop 好吃煎饼,"9 St Marks Pl, New York, NY 10003, USA",Treatments,2026-02-19 11:12:24,Bait applied,,,,,,,,,,
4.3,40.729428,-73.989132,Gem Bing Shop 好吃煎饼,"9 St Marks Pl, New York, NY 10003, USA",Treatments,2026-02-19 11:12:24,Bait applied,,,,,,,,,,
1.0,40.843197,-73.934941,Mi casa,"503 W 173rd St, New York, NY 10032, USA",Treatments,2026-02-19 11:10:48,Bait applied,,,,,,,,,,
4.3,40.731709,-73.989942,Amsterdam Billiards,"110 E 11th St, New York, NY 10003, USA",Initial,2026-02-19 11:08:22,Failed for Other R,,,,,,,,,,
3.7,40.759816,-73.996275,Kafe Mohd Azrol - NYC Outlet,"510 W 42nd St, New York, NY 10036, USA",Initial,2026-02-19 11:05:00,Failed for Rat Act,,,,,,,,,,
3.8,40.731086,-73.989111,Saki,"56 3rd Ave, New York, NY 10003, USA",Treatments,2026-02-19 10:58:24,Bait applied,,,,,,,,,,
4.3,40.724556,-74.005748,Taureau,"558 Broome St, New York, NY 10013, USA",Stoppage,2026-02-19 10:58:00,Stoppage done,,,,,,,,,,
4.3,40.724556,-74.005748,Taureau,"558 Broome St, New York, NY 10013, USA",Stoppage,2026-02-19 10:58:00,Stoppage done,,,,,,,,,,
5.0,40.843652,-73.934064,Bartolobritura,"174 Amsterdam Ave, New York, NY 10033, USA",Treatments,2026-02-19 10:55:48,Bait applied,,,,,,,,,,
,40.685919,-73.929484,Sa Imong,"209 Malcolm X Blvd Apt 2R, Brooklyn, NY 11221, USA",Treatments,2026-02-19 10:55:20,Bait applied,,,,,,,,,,
4.5,40.756101,-73.966032,Kealoha Sushi & Poke Bowl,"330 E 53rd St, New York, NY 10022, USA",Compliance,2026-02-19 10:52:36,Failed for Rat Act,,,,,,,,,,
4.5,40.594224,-73.935674,David's pizza. &Bakery,"3042 Avenue X, Brooklyn, NY 11235, USA",Compliance,2026-02-19 10:50:59,Failed for Other R,,,,,,,,,,
4.0,40.727142,-74.003159,Croft Alley,"210 6th Ave, New York, NY 10014, USA",Stoppage,2026-02-19 10:48:00,Stoppage done,,,,,,,,,,
4.5,40.728842,-74.001644,Dante NYC,"79-81 MacDougal St, New York, NY 10012, USA",Stoppage,2026-02-19 10:43:00,Stoppage done,,,,,,,,,,
3.0,40.836909,-73.938871,Yummy Grill,"2089 Amsterdam Ave, New York, NY 10032, USA",Compliance,2026-02-19 10:40:14,Rat Activity,,,,,,,,,,
3.0,40.836909,-73.938871,Yummy Grill,"2089 Amsterdam Ave, New York, NY 10032, USA",Compliance,2026-02-19 10:40:14,Rat Activity,,,,,,,,,,
4.1,40.666771,-73.931432,Royal Cuisine,"324 Utica Ave, Brooklyn, NY 11213, USA",Initial,2026-02-19 10:40:03,Failed for Other R,,,,,,,,,,
,40.72953,-74.000996,Shawuarma,"97 MacDougal St, New York, NY 10012, USA",Stoppage,2026-02-19 10:37:00,Stoppage done,,,,,,,,,,
,40.72953,-74.000996,Shawuarma,"97 MacDougal St, New York, NY 10012, USA",Stoppage,2026-02-19 10:37:00,Stoppage done,,,,,,,,,,
4.7,40.666415,-73.931202,Steam'r Cafe,"341 Utica Ave, Brooklyn, NY 11213, USA",Initial,2026-02-19 10:35:45,Failed for Other R,,,,,,,,,,
4.3,40.849588,-73.933868,Chick-fil-A,"601 W 181st St, NWQ of 181 St. &, St Nicholas Ave, New York, NY 10033, USA",Treatments,2026-02-19 10:25:48,Bait applied,,,,,,,,,,
4.2,40.667309,-73.931439,Tony's Pizza,"312 Utica Ave, Brooklyn, NY 11213, USA",Initial,2026-02-19 10:24:03,Failed for Rat Act,,,,,,,,,,
4.8,40.666305,-73.931895,The Smoker's Room,"1639 Carroll St, Brooklyn, NY 11213, USA",Initial,2026-02-19 10:21:36,Failed for Other R,,,,,,,,,,
4.9,40.795513,-73.936008,BIG BACK CHICKEN AND GYRO,"2239 1st Ave, New York, NY 10029, USA",Initial,2026-02-19 10:13:00,Rat Activity,,,,,,,,,,
4.3,40.862523,-73.903065,Maria Bonita Bakery Juice Bar,"42 W Fordham Rd, Bronx, NY 10468, USA",Treatments,2026-02-19 10:10:00,Bait applied,,,,,,,,,,
4.1,40.726585,-73.993586,Jac's on Bond,"26 Bond St, New York, NY 10012, USA",Stoppage,2026-02-19 10:07:00,Stoppage done,,,,,,,,,,
3.0,40.795715,-73.935899,Oceloti Diner,"2247 1st Ave, New York, NY 10029, USA",Initial,2026-02-19 10:03:00,Rat Activity,,,,,,,,,,
3.7,40.759816,-73.996275,Kafe Mohd Azrol - NYC Outlet,"510 W 42nd St, New York, NY 10036, USA",Stoppage,2026-02-19 09:58:00,Stoppage done,,,,,,,,,,
4.9,40.855828,-73.92872,Taqueria y paleteria la michuacana,"1630 St Nicholas Ave, New York, NY 10040, USA",Treatments,2026-02-19 09:50:48,Bait applied,,,,,,,,,,
4.0,40.7192,-73.995381,Coffee,"118 Elizabeth St, New York, NY 10013, USA",Stoppage,2026-02-19 09:37:00,Stoppage done,,,,,,,,,,
,40.729396,-73.985359,Buddha Matcha,"512 E 12th St, New York, NY 10009, USA",Treatments,2026-02-19 09:27:24,Bait applied,,,,,,,,,,
4.6,40.739079,-73.993565,SWERVE Fitness Flatiron,"30 W 18th St, New York, NY 10011, USA",Initial,2026-02-19 09:02:00,Failed for Other R,,,,,,,,,,
4.6,40.739079,-73.993565,SWERVE Fitness Flatiron,"30 W 18th St, New York, NY 10011, USA",Initial,2026-02-19 09:02:00,Failed for Other R,,,,,,,,,,
4.8,40.86672,-73.920366,Galicia Tapas,"575 W 207th St, New York, NY 10034, USA",Compliance,2026-02-19 08:58:33,Failed for Rat Act,,,,,,,,,,
4.3,40.753992,-73.968583,Poulette Rotisserie Chicken,"304 E 49th St, New York, NY 10017, USA",Initial,2026-02-19 08:40:36,Failed for Rat Act,,,,,,,,,,
4.3,40.753992,-73.968583,Poulette Rotisserie Chicken,"304 E 49th St, New York, NY 10017, USA",Initial,2026-02-19 08:40:36,Failed for Rat Act,,,,,,,,,,
4.2,40.734142,-74.003068,Empellon Taqueria & Bar,"230 W 4th St, New York, NY 10014, USA",Initial,2026-02-18 15:07:19,Failed for Rat Act,,,,,,,,,,
,40.823007,-73.941524,molay-lay,"2730 Frederick Douglass Blvd, New York, NY 10039, USA",Initial,2026-02-18 13:45:59,Rat Activity,,,,,,,,,,
3.7,40.849853,-73.935799,Tamarindo,"4250 Broadway, New York, NY 10033, USA",Treatments,2026-02-18 13:40:22,Bait applied,,,,,,,,,,
3.3,40.849169,-73.937109,La Gran Parada,"4223 Broadway, New York, NY 10033, USA",Treatments,2026-02-18 13:30:12,Bait applied,,,,,,,,,,
4.3,40.854174,-73.89901,La Loteria Pizzeria,"301 E 181st St, Bronx, NY 10457, USA",Treatments,2026-02-18 12:35:07,Bait applied,,,,,,,,,,
,40.699025,-73.914649,Mangiamo Pizza,"298 Irving Ave, Brooklyn, NY 11237, USA",Compliance,2026-02-18 12:30:31,Rat Activity,,,,,,,,,,
,40.699025,-73.914649,Mangiamo Pizza,"298 Irving Ave, Brooklyn, NY 11237, USA",Compliance,2026-02-18 12:30:31,Rat Activity,,,,,,,,,,
4.1,40.728917,-73.98715,Sly Fox,"140 2nd Ave, New York, NY 10003, USA",Initial,2026-02-18 12:20:32,Failed for Other R,,,,,,,,,,
4.4,40.617958,-73.932031,Oasis Diner,"2132 Flatbush Ave, Brooklyn, NY 11234, USA",Compliance,2026-02-18 12:11:59,Rat Activity,,,,,,,,,,
,40.792674,-73.971572,ביליס הוט דוג,"698 Amsterdam Ave, New York, NY 10025, USA",Compliance,2026-02-18 12:00:30,Failed for Rat Act,,,,,,,,,,
4.1,40.822277,-73.940175,Sabba's Chicken Harlem,"219 W 145th St, New York, NY 10039, USA",Initial,2026-02-18 11:55:59,Rat Activity,,,,,,,,,,
3.7,40.848947,-73.934235,Los Munchies St Nicholas Ave,"1405 St Nicholas Ave, New York, NY 10033, USA",Treatments,2026-02-18 11:55:31,Bait applied,,,,,,,,,,
4.8,40.725839,-73.983485,96 Tears,"110 Avenue A, New York, NY 10009, USA",Initial,2026-02-18 11:53:57,Failed for Other R,,,,,,,,,,
4.1,40.822277,-73.940175,Sabba's Chicken Harlem,"219 W 145th St, New York, NY 10039, USA",Initial,2026-02-18 11:49:59,Rat Activity,,,,,,,,,,
2.7,40.726055,-73.983543,Bread Alone Bakery - Tompkins Square,"Avenue A &, E 7th St, New York, NY 10009, USA",Initial,2026-02-18 11:40:22,Failed for Other R,,,,,,,,,,
4.8,40.726118,-73.983958,Titi's Empanadas,"130 E 7th St floor 2, New York, NY 10009, USA",Initial,2026-02-18 11:35:00,Failed for Other R,,,,,,,,,,
,40.792674,-73.971572,ביליס הוט דוג,"698 Amsterdam Ave, New York, NY 10025, USA",Compliance,2026-02-18 11:30:15,Failed for Rat Act,,,,,,,,,,
4.5,40.729307,-73.988862,MINE Craft Sushi 峰寿司,"15 St Marks Pl, New York, NY 10003, USA",Initial,2026-02-18 11:29:45,Rat Activity,,,,,,,,,,
4.5,40.729307,-73.988862,MINE Craft Sushi 峰寿司,"15 St Marks Pl, New York, NY 10003, USA",Initial,2026-02-18 11:29:45,Rat Activity,,,,,,,,,,
4.7,40.82543,-73.940454,Common Good Harlem,"2801 Frederick Douglass Blvd, New York, NY 10039, USA",Compliance,2026-02-18 11:29:32,Rat Activity,,,,,,,,,,
4.4,40.837577,-73.910187,Barese Pizza,"305 E 170th St, Bronx, NY 10456, USA",Compliance,2026-02-18 11:25:40,Rat Activity,,,,,,,,,,
4.1,40.702338,-73.919777,Santa Ana Deli & Grocery,"171 Irving Ave, Brooklyn, NY 11237, USA",Stoppage,2026-02-18 11:20:00,Stoppage done,,,,,,,,,,
4.8,40.742514,-73.977892,Kips Bay Deli,"545 2nd Ave, New York, NY 10016, USA",Compliance,2026-02-18 11:18:00,Rat Activity,,,,,,,,,,
4.2,40.725833,-73.989444,The Black Ant,"60 2nd Ave, New York, NY 10003, USA",Compliance,2026-02-18 11:11:22,Failed for Rat Act,,,,,,,,,,
4.6,40.726199,-73.984274,The Fragile Flour,"122 E 7th St, New York, NY 10009, USA",Initial,2026-02-18 11:10:46,Failed for Other R,,,,,,,,,,
4.6,40.726199,-73.984274,The Fragile Flour,"122 E 7th St, New York, NY 10009, USA",Initial,2026-02-18 11:10:46,Failed for Other R,,,,,,,,,,
4.3,40.729428,-73.989132,Gem Bing Shop 好吃煎饼,"9 St Marks Pl, New York, NY 10003, USA",Initial,2026-02-18 11:04:54,Rat Activity,,,,,,,,,,
4.3,40.729428,-73.989132,Gem Bing Shop 好吃煎饼,"9 St Marks Pl, New York, NY 10003, USA",Initial,2026-02-18 11:04:54,Rat Activity,,,,,,,,,,
4.3,40.729428,-73.989132,Gem Bing Shop 好吃煎饼,"9 St Marks Pl, New York, NY 10003, USA",Initial,2026-02-18 11:04:54,Rat Activity,,,,,,,,,,
4.6,40.726568,-73.98429,SHINN EAST,"119 E 7th St, New York, NY 10009, USA",Initial,2026-02-18 11:02:13,Rat Activity,,,,,,,,,,
4.3,40.729428,-73.989132,Gem Bing Shop 好吃煎饼,"9 St Marks Pl, New York, NY 10003, USA",Initial,2026-02-18 10:59:42,Rat Activity,,,,,,,,,,
4.3,40.729428,-73.989132,Gem Bing Shop 好吃煎饼,"9 St Marks Pl, New York, NY 10003, USA",Initial,2026-02-18 10:59:42,Rat Activity,,,,,,,,,,
4.3,40.729428,-73.989132,Gem Bing Shop 好吃煎饼,"9 St Marks Pl, New York, NY 10003, USA",Initial,2026-02-18 10:59:42,Rat Activity,,,,,,,,,,
4.6,40.726568,-73.98429,SHINN EAST,"119 E 7th St, New York, NY 10009, USA",Initial,2026-02-18 10:58:43,Rat Activity,,,,,,,,,,
4.4,40.789352,-73.974012,Bodrum,"584 Amsterdam Ave, New York, NY 10024, USA",Initial,2026-02-18 10:55:47,Rat Activity,,,,,,,,,,
4.4,40.701745,-73.923291,Il Bel Paese Pizzeria & Trattoria,"305 Knickerbocker Ave, Brooklyn, NY 11237, USA",Stoppage,2026-02-18 10:55:00,Stoppage done,,,,,,,,,,
1.0,40.726532,-73.985046,RAMEXICO,"102 E 7th St, New York, NY 10009, USA",Initial,2026-02-18 10:50:15,Failed for Other R,,,,,,,,,,
1.0,40.726532,-73.985046,RAMEXICO,"102 E 7th St, New York, NY 10009, USA",Initial,2026-02-18 10:50:15,Failed for Other R,,,,,,,,,,
1.0,40.726532,-73.985046,RAMEXICO,"102 E 7th St, New York, NY 10009, USA",Initial,2026-02-18 10:50:15,Failed for Other R,,,,,,,,,,
1.0,40.726532,-73.985046,RAMEXICO,"102 E 7th St, New York, NY 10009, USA",Initial,2026-02-18 10:50:15,Failed for Other R,,,,,,,,,,
1.0,40.726532,-73.985046,RAMEXICO,"102 E 7th St, New York, NY 10009, USA",Initial,2026-02-18 10:46:09,Failed for Other R,,,,,,,,,,
1.0,40.726532,-73.985046,RAMEXICO,"102 E 7th St, New York, NY 10009, USA",Initial,2026-02-18 10:46:09,Failed for Other R,,,,,,,,,,
1.0,40.726532,-73.985046,RAMEXICO,"102 E 7th St, New York, NY 10009, USA",Initial,2026-02-18 10:46:09,Failed for Other R,,,,,,,,,,
1.0,40.726532,-73.985046,RAMEXICO,"102 E 7th St, New York, NY 10009, USA",Initial,2026-02-18 10:46:09,Failed for Other R,,,,,,,,,,
3.4,40.846589,-73.893471,McDonald's,"599 E Tremont Ave, Bronx, NY 10457, USA",Initial,2026-02-18 10:43:32,Rat Activity,,,,,,,,,,
1.0,40.726532,-73.985046,RAMEXICO,"102 E 7th St, New York, NY 10009, USA",Initial,2026-02-18 10:42:43,Failed for Other R,,,,,,,,,,
1.0,40.726532,-73.985046,RAMEXICO,"102 E 7th St, New York, NY 10009, USA",Initial,2026-02-18 10:42:43,Failed for Other R,,,,,,,,,,
1.0,40.726532,-73.985046,RAMEXICO,"102 E 7th St, New York, NY 10009, USA",Initial,2026-02-18 10:42:43,Failed for Other R,,,,,,,,,,
1.0,40.726532,-73.985046,RAMEXICO,"102 E 7th St, New York, NY 10009, USA",Initial,2026-02-18 10:42:43,Failed for Other R,,,,,,,,,,
2.7,40.848826,-73.932855,Caridad,"554 W 181st St, New York, NY 10033, USA",Treatments,2026-02-18 10:35:04,Bait applied,,,,,,,,,,
3.9,40.73841,-73.982538,Pick A Bagel on 23rd street,"210 E 23rd St, New York, NY 10010, USA",Treatments,2026-02-18 10:32:29,Bait applied,,,,,,,,,,
4.7,40.805038,-73.955184,Levain Bakery,"2167 Frederick Douglass Blvd, New York, NY 10026, USA",Treatments,2026-02-18 10:31:03,Bait applied,,,,,,,,,,
4.6,40.800158,-73.952297,El Valle 46 Restaurante,"46 St Nicholas Ave, New York, NY 10026, USA",Initial,2026-02-18 10:30:35,Failed for Rat Act,,,,,,,,,,
4.3,40.731257,-74.005292,Wild Cherry,"38 Commerce St, New York, NY 10014, USA",Initial,2026-02-18 10:29:19,Failed for Rat Act,,,,,,,,,,
4.0,40.741191,-73.983285,Popeyes Louisiana Kitchen,"75 Lexington Ave, New York, NY 10010, USA",Treatments,2026-02-18 10:25:29,Bait applied,,,,,,,,,,
4.5,40.685142,-73.929639,Pizza Crew,"234 Malcolm X Blvd, Brooklyn, NY 11221, USA",Stoppage,2026-02-18 10:24:00,Stoppage done,,,,,,,,,,
3.9,40.848756,-73.932974,Jarto´e Sazon Restaurant,"554 W 181st St, New York, NY 10033, USA",Treatments,2026-02-18 10:10:38,Bait applied,,,,,,,,,,
3.9,40.848756,-73.932974,Jarto´e Sazon Restaurant,"554 W 181st St, New York, NY 10033, USA",Treatments,2026-02-18 10:10:38,Bait applied,,,,,,,,,,
4.7,40.726406,-73.985956,Tajeen Halal Food Truck,"404 E 6th St, New York, NY 10009, USA",Initial,2026-02-18 10:03:47,Failed for Other R,,,,,,,,,,
4.6,40.820396,-73.939679,Esayi Pizza & Deli,"2461 Adam Clayton Powell Jr Blvd, New York, NY 10030, USA",Stoppage,2026-02-18 09:56:00,Stoppage done,,,,,,,,,,
2.7,40.848826,-73.932855,Caridad,"554 W 181st St, New York, NY 10033, USA",Treatments,2026-02-18 09:50:27,Bait applied,,,,,,,,,,
3.5,40.688405,-73.962668,Stop 1 Deli Gourmet,"320 Lafayette Ave, Brooklyn, NY 11238, USA",Treatments,2026-02-18 09:50:12,Bait applied,,,,,,,,,,
,40.702006,-73.929962,sushi,"259 Melrose St, Brooklyn, NY 11206, USA",Initial,2026-02-18 09:49:40,Rat Activity,,,,,,,,,,
,40.702006,-73.929962,sushi,"259 Melrose St, Brooklyn, NY 11206, USA",Initial,2026-02-18 09:49:40,Rat Activity,,,,,,,,,,
4.5,40.746409,-73.917857,Claret Wine Bar,"46-02 Skillman Ave, Sunnyside, NY 11104, USA",Initial,2026-02-18 09:41:00,Rat Activity,,,,,,,,,,
4.6,40.847218,-73.938372,Manolo Tapas,"4165 Broadway, New York, NY 10033, USA",Treatments,2026-02-18 09:22:15,Bait applied,,,,,,,,,,
4.7,40.702601,-73.933617,Chiangmai Diner & Bar,"942 Flushing Ave, Brooklyn, NY 11206, USA",Initial,2026-02-18 09:21:18,Failed for Other R,,,,,,,,,,
4.7,40.679427,-73.938628,Den of Splendor,"42 Albany Ave, Brooklyn, NY 11213, USA",Initial,2026-02-18 09:16:00,Rat Activity,,,,,,,,,,
,40.707174,-73.789233,Mama's Chicken Corp.,"170-14 Jamaica Ave, Jamaica, NY 11432, USA",Compliance,2026-02-18 09:05:15,Rat Activity,,,,,,,,,,
3.9,40.680591,-73.928754,Stuyvesant Mini Market,"360 Malcolm X Blvd, Brooklyn, NY 11233, USA",Initial,2026-02-18 08:47:00,Failed for Other R,,,,,,,,,,
4.0,40.759456,-73.97388,Blake & Todd,"52 E 53rd St, New York, NY 10022, USA",Initial,2026-02-17 14:28:52,Rat Activity,,,,,,,,,,
3.9,40.804203,-73.955295,Tex's Chicken & Burgers,"2144 Frederick Douglass Blvd, New York, NY 10026, USA",Compliance,2026-02-17 13:30:44,Rat Activity,,,,,,,,,,
3.8,40.6803,-73.949832,Hunter's Spice Grill,"1274 Fulton St, Brooklyn, NY 11216, USA",Compliance,2026-02-17 13:28:39,Rat Activity,,,,,,,,,,
3.8,40.6803,-73.949832,Hunter's Spice Grill,"1274 Fulton St, Brooklyn, NY 11216, USA",Compliance,2026-02-17 13:28:39,Rat Activity,,,,,,,,,,
5.0,40.698837,-73.916822,La Huequita El autentico manabita,"1450 Myrtle Ave, Brooklyn, NY 11237, USA",Treatments,2026-02-17 12:55:35,Bait applied,,,,,,,,,,
5.0,40.698837,-73.916822,La Huequita El autentico manabita,"1450 Myrtle Ave, Brooklyn, NY 11237, USA",Treatments,2026-02-17 12:55:35,Bait applied,,,,,,,,,,
5.0,40.698837,-73.916822,La Huequita El autentico manabita,"1450 Myrtle Ave, Brooklyn, NY 11237, USA",Treatments,2026-02-17 12:55:35,Bait applied,,,,,,,,,,
4.0,40.803358,-73.95465,Joe Tuna,"233 W 115th St, New York, NY 10026, USA",Compliance,2026-02-17 12:50:44,Failed for Rat Act,,,,,,,,,,
3.3,40.848344,-73.938039,Dunkin',"4199 Broadway, New York, NY 10033, USA",Compliance,2026-02-17 12:41:40,Rat Activity,,,,,,,,,,
,40.784612,-73.947048,Gó Deli.Grill,"1869B 2nd Ave, New York, NY 10029, USA",Initial,2026-02-17 12:28:39,Rat Activity,,,,,,,,,,
3.9,40.6953,-73.843205,Hong Kong,"102-59 Jamaica Ave, Richmond Hill, NY 11418, USA",Initial,2026-02-17 12:20:13,Failed for Other R,,,,,,,,,,
4.1,40.767428,-73.911783,Farid Grill,"25-15 Steinway St, Astoria, NY 11103, USA",Initial,2026-02-17 12:11:00,Failed for Rat Act,,,,,,,,,,
,40.731449,-73.991946,One Part Food,"777 Broadway, New York, NY 10003, USA",Initial,2026-02-17 12:10:19,Rat Activity,,,,,,,,,,
4.1,40.760746,-73.962257,Primal Cut Steakhouse,"333 E 60th St, New York, NY 10022, USA",Initial,2026-02-17 12:08:00,Failed for Other R,,,,,,,,,,
4.1,40.760746,-73.962257,Primal Cut Steakhouse,"333 E 60th St, New York, NY 10022, USA",Initial,2026-02-17 12:08:00,Failed for Other R,,,,,,,,,,
3.6,40.802958,-73.95305,Empire 3,"1902 Adam Clayton Powell Jr Blvd, New York, NY 10026, USA",Compliance,2026-02-17 12:03:00,Rat Activity,,,,,,,,,,
4.1,40.803771,-73.953441,M&D Cafe,"215 W 116th St, New York, NY 10026, USA",Compliance,2026-02-17 11:56:00,Rat Activity,,,,,,,,,,
4.7,40.83849,-73.942182,Agave & Maiz,"3915 Broadway, New York, NY 10032, USA",Compliance,2026-02-17 11:50:40,Rat Activity,,,,,,,,,,
4.7,40.83849,-73.942182,Agave & Maiz,"3915 Broadway, New York, NY 10032, USA",Compliance,2026-02-17 11:50:40,Rat Activity,,,,,,,,,,
2.1,40.729133,-73.78091,Breeza Cafe Restaurant,"188-02 Union Tpke, Hollis, NY 11423, USA",Initial,2026-02-17 11:50:17,Failed for Other R,,,,,,,,,,
2.1,40.729133,-73.78091,Breeza Cafe Restaurant,"188-02 Union Tpke, Hollis, NY 11423, USA",Initial,2026-02-17 11:50:17,Failed for Other R,,,,,,,,,,
4.8,40.842095,-73.924665,Guerrero’s Pizzeria,"1381 Ogden Ave, Bronx, NY 10452, USA",Compliance,2026-02-17 11:49:26,Failed for Rat Act,,,,,,,,,,
3.8,40.67765,-73.955177,Sushi Tatsu,"609 Franklin Ave, Brooklyn, NY 11238, USA",Initial,2026-02-17 11:45:44,Rat Activity,,,,,,,,,,
4.9,40.722734,-73.984679,COSMIC CAT COFFEE AND ESPRESSO,"170E E 2nd St, New York, NY 10009, USA",Treatments,2026-02-17 11:42:50,Bait applied,,,,,,,,,,
4.6,40.856533,-73.907386,Grand Express Deli Grocery,"Bronx, NY 10453, USA",Initial,2026-02-17 11:41:21,Failed for Other R,,,,,,,,,,
4.8,40.842095,-73.924665,Guerrero’s Pizzeria,"1381 Ogden Ave, Bronx, NY 10452, USA",Compliance,2026-02-17 11:39:26,Failed for Rat Act,,,,,,,,,,
4.4,40.696992,-73.933678,Little Mo,"1158 Myrtle Ave, Brooklyn, NY 11221, USA",Compliance,2026-02-17 11:32:07,Rat Activity,,,,,,,,,,
4.5,40.727889,-73.981071,High Demand Social Club,"516 E 11th St, New York, NY 10009, USA",Initial,2026-02-17 11:27:44,Failed for Other R,,,,,,,,,,
4.5,40.728055,-73.981252,11th St. Bar,"510 E 11th St, New York, NY 10009, USA",Initial,2026-02-17 11:22:04,Failed for Other R,,,,,,,,,,
4.2,40.732356,-73.984392,The Halal Guys,"307 E 14th St, New York, NY 10003, USA",Initial,2026-02-17 11:17:02,Rat Activity,,,,,,,,,,
4.1,40.70355,-73.942894,Mothers Seafood & More,"59 Graham Ave, Brooklyn, NY 11206, USA",Treatments,2026-02-17 11:00:29,Bait applied,,,,,,,,,,
4.6,40.724503,-73.980209,Sake Bar Satsko,"between Avenue B and C, 202 E 7th St, New York, NY 10009, USA",Treatments,2026-02-17 10:40:50,Bait applied,,,,,,,,,,
4.2,40.668003,-73.931333,Cinnabon,"294 Utica Ave, Brooklyn, NY 11213, USA",Initial,2026-02-17 10:30:09,Failed for Other R,,,,,,,,,,
4.2,40.668003,-73.931333,Cinnabon,"294 Utica Ave, Brooklyn, NY 11213, USA",Initial,2026-02-17 10:30:09,Failed for Other R,,,,,,,,,,
,40.68427,-73.956521,Laurie's Coffee Shop,"422 Franklin Ave, Brooklyn, NY 11238, USA",Initial,2026-02-17 10:22:27,Rat Activity,,,,,,,,,,
4.0,40.84819,-73.938017,Tu Cachapa 🇻🇪,"4195 Broadway, New York, NY 10033, USA",Treatments,2026-02-17 10:05:58,Bait applied,,,,,,,,,,
4.4,40.701745,-73.923291,Il Bel Paese Pizzeria & Trattoria,"305 Knickerbocker Ave, Brooklyn, NY 11237, USA",Treatments,2026-02-17 10:00:28,Bait applied,,,,,,,,,,
4.9,40.70188,-73.92411,Don Fidel's Nieve de Garrafa - Street Mexican Ice Cream,"282 Knickerbocker Ave, Brooklyn, NY 11237, USA",Treatments,2026-02-17 09:42:50,Bait applied,,,,,,,,,,
4.1,40.694008,-73.949236,U Like,"602 Marcy Ave, Brooklyn, NY 11206, USA",Initial,2026-02-17 09:35:31,Rat Activity,,,,,,,,,,
4.4,40.753012,-73.969664,2nd ave Gourmet Deli,"884 2nd Ave, New York, NY 10017, USA",Stoppage,2026-02-17 09:34:00,Stoppage done,,,,,,,,,,
3.8,40.826171,-73.94356,New Golden Empire,"757 St Nicholas Ave, New York, NY 10031, USA",Treatments,2026-02-17 09:33:01,Bait applied,,,,,,,,,,
4.7,40.694533,-73.948884,Falkowitz Cakes And Desserts,"597 Marcy Ave, Brooklyn, NY 11206, USA",Initial,2026-02-17 09:29:06,Failed for Other R,,,,,,,,,,
,40.824324,-73.945424,Zeidy,"W 145th St, New York, NY 10031, USA",Treatments,2026-02-17 09:10:32,Bait applied,,,,,,,,,,
4.0,40.674104,-73.957124,Banhmigos Park Place,"636 Park Pl, Brooklyn, NY 11238, USA",Treatments,2026-02-13 13:47:57,Bait applied,,,,,,,,,,
4.3,40.699466,-73.937584,The House,"29 Locust St, Brooklyn, NY 11206, USA",Initial,2026-02-13 13:37:03,Rat Activity,,,,,,,,,,
4.0,40.794017,-73.94023,Treats By Trice,"2161 2nd Ave, New York, NY 10029, USA",Initial,2026-02-13 13:28:57,Rat Activity,,,,,,,,,,
,40.710554,-73.953435,Dbz Foreign Shop,"176 Borinquen Pl, Brooklyn, NY 11211, USA",Compliance,2026-02-13 13:15:00,Rat Activity,,,,,,,,,,
4.4,40.794239,-73.940053,Teddy's F&B Bar & Grill,"2171 2nd Ave, New York, NY 10029, USA",Initial,2026-02-13 13:08:57,Rat Activity,,,,,,,,,,
3.9,40.794287,-73.939991,Indo Pak Halal,"2173 2nd Ave #2909, New York, NY 10029, USA",Initial,2026-02-13 13:02:57,Rat Activity,,,,,,,,,,
,40.653055,-73.959544,HYDRO Global,"2123 Caton Ave, Brooklyn, NY 11226, USA",Treatments,2026-02-13 13:00:32,Bait applied,,,,,,,,,,
,40.653055,-73.959544,HYDRO Global,"2123 Caton Ave, Brooklyn, NY 11226, USA",Treatments,2026-02-13 13:00:32,Bait applied,,,,,,,,,,
,40.653055,-73.959544,HYDRO Global,"2123 Caton Ave, Brooklyn, NY 11226, USA",Treatments,2026-02-13 13:00:32,Bait applied,,,,,,,,,,
,40.653055,-73.959544,HYDRO Global,"2123 Caton Ave, Brooklyn, NY 11226, USA",Treatments,2026-02-13 13:00:32,Bait applied,,,,,,,,,,
,40.653055,-73.959544,HYDRO Global,"2123 Caton Ave, Brooklyn, NY 11226, USA",Treatments,2026-02-13 13:00:32,Bait applied,,,,,,,,,,
,40.653055,-73.959544,HYDRO Global,"2123 Caton Ave, Brooklyn, NY 11226, USA",Treatments,2026-02-13 13:00:32,Bait applied,,,,,,,,,,
,40.653055,-73.959544,HYDRO Global,"2123 Caton Ave, Brooklyn, NY 11226, USA",Treatments,2026-02-13 13:00:32,Bait applied,,,,,,,,,,
4.3,40.815128,-73.947773,Chez Jacob,"2479 Frederick Douglass Blvd, New York, NY 10027, USA",Treatments,2026-02-13 12:46:23,Bait applied,,,,,,,,,,
3.6,40.832853,-73.942323,New Luck Garden,"1954 Amsterdam Ave, New York, NY 10032, USA",Treatments,2026-02-13 12:36:34,Bait applied,,,,,,,,,,
4.8,40.806015,-73.941683,375º Chicken 'n Fries,"12 E 125th St, New York, NY 10035, USA",Initial,2026-02-13 12:22:30,Failed for Rat Act,,,,,,,,,,
4.2,40.862256,-73.896879,Best Italian Pizza,"2498 Grand Concourse, Bronx, NY 10458, USA",Treatments,2026-02-13 12:15:42,Bait applied,,,,,,,,,,
4.3,40.677658,-73.960656,Hagadda Passover Bakery,"814 Bergen St, Brooklyn, NY 11238, USA",Compliance,2026-02-13 12:10:00,Rat Activity,,,,,,,,,,
4.9,40.838255,-73.93788,Niccolo Pizzeria,"2127 Amsterdam Ave, New York, NY 10032, USA",Treatments,2026-02-13 12:09:20,Bait applied,,,,,,,,,,
4.9,40.734179,-73.955158,Little Armenia Cafe,"1035 Manhattan Ave, Brooklyn, NY 11222, USA",Initial,2026-02-13 12:08:00,Failed for Rat Act,,,,,,,,,,
4.5,40.699766,-73.928486,Rosie Pizza Bar,"128 Central Ave, Brooklyn, NY 11221, USA",Initial,2026-02-13 12:01:03,Rat Activity,,,,,,,,,,
3.9,40.797586,-73.940067,Kahlua’s Cafe,"2117 3rd Ave, New York, NY 10029, USA",Treatments,2026-02-13 12:01:00,Bait applied,,,,,,,,,,
3.9,40.797586,-73.940067,Kahlua’s Cafe,"2117 3rd Ave, New York, NY 10029, USA",Treatments,2026-02-13 12:01:00,Bait applied,,,,,,,,,,
5.0,40.746821,-73.896265,4Burros cafe,"38-09 69th St, Woodside, NY 11377, USA",Initial,2026-02-13 11:23:00,Failed for Rat Act,,,,,,,,,,
5.0,40.746821,-73.896265,4Burros cafe,"38-09 69th St, Woodside, NY 11377, USA",Initial,2026-02-13 11:23:00,Failed for Rat Act,,,,,,,,,,
4.3,40.858692,-73.898665,Meat Market Jazmin Corporation,"2356 Grand Concourse, Bronx, NY 10458, USA",Initial,2026-02-13 11:15:02,Failed for Other R,,,,,,,,,,
4.4,40.874467,-73.887643,Mr.exotiX,"3102 Villa Ave, Bronx, NY 10468, USA",Treatments,2026-02-13 11:05:42,Bait applied,,,,,,,,,,
4.4,40.874467,-73.887643,Mr.exotiX,"3102 Villa Ave, Bronx, NY 10468, USA",Treatments,2026-02-13 11:05:42,Bait applied,,,,,,,,,,
4.9,40.697611,-73.928406,Til Death,"603 Hart St, Brooklyn, NY 11221, USA",Compliance,2026-02-13 11:00:03,Rat Activity,,,,,,,,,,
,40.814226,-73.956106,Blondie’s Divine Desserts,"504 W 126th St, New York, NY 10027, USA",Treatments,2026-02-13 10:50:00,Bait applied,,,,,,,,,,
,40.795085,-73.941734,El Barrio Puff & Paint,"2039 3rd Ave, New York, NY 10029, USA",Initial,2026-02-13 10:46:00,Rat Activity,,,,,,,,,,
4.0,40.668212,-73.931378,Pitkins Fish & Chicken,"288 Utica Ave, Brooklyn, NY 11213, USA",Initial,2026-02-13 10:34:29,Failed for Rat Act,,,,,,,,,,
4.1,40.728948,-73.950182,Falafel House,"230 Calyer St, Brooklyn, NY 11222, USA",Compliance,2026-02-13 10:34:00,Rat Activity,,,,,,,,,,
4.1,40.728948,-73.950182,Falafel House,"230 Calyer St, Brooklyn, NY 11222, USA",Compliance,2026-02-13 10:34:00,Rat Activity,,,,,,,,,,
3.6,40.81387,-73.956159,Jesus Taco,"1346 Amsterdam Ave, New York, NY 10027, USA",Treatments,2026-02-13 10:34:00,Monitoring visit,,,,,,,,,,
3.6,40.81387,-73.956159,Jesus Taco,"1346 Amsterdam Ave, New York, NY 10027, USA",Treatments,2026-02-13 10:34:00,Monitoring visit,,,,,,,,,,
5.0,40.844384,-73.915212,Lee’s Seafood House,"12 W Mount Eden Ave, Bronx, NY 10452, USA",Initial,2026-02-13 10:22:00,Failed for Other R,,,,,,,,,,
3.4,40.640372,-73.994248,Tacos el poblanito MX,"4407 New Utrecht Ave, Brooklyn, NY 11220, USA",Initial,2026-02-13 10:21:01,Rat Activity,,,,,,,,,,
4.5,40.828632,-73.877038,Toco,"1564 Westchester Ave, Bronx, NY 10472, USA",Treatments,2026-02-13 10:20:57,Bait applied,,,,,,,,,,
4.5,40.828632,-73.877038,Toco,"1564 Westchester Ave, Bronx, NY 10472, USA",Treatments,2026-02-13 10:20:57,Bait applied,,,,,,,,,,
3.0,40.836909,-73.938871,Yummy Grill,"2089 Amsterdam Ave, New York, NY 10032, USA",Treatments,2026-02-13 10:20:55,Bait applied,,,,,,,,,,
3.0,40.836909,-73.938871,Yummy Grill,"2089 Amsterdam Ave, New York, NY 10032, USA",Treatments,2026-02-13 10:20:55,Bait applied,,,,,,,,,,
4.9,40.693693,-73.943368,Sweets for the Sweeties,"210 Hart St, Brooklyn, NY 11206, USA",Initial,2026-02-13 10:09:11,Rat Activity,,,,,,,,,,
4.5,40.674607,-73.96703,St John's Natural Food,"323 St Johns Pl, Brooklyn, NY 11238, USA",Treatments,2026-02-13 10:03:24,Bait applied,,,,,,,,,,
3.5,40.834298,-73.941248,Tortilleria & Rosticeria El Guerrerence,"2002 Amsterdam Ave, New York, NY 10032, USA",Treatments,2026-02-13 09:51:43,Bait applied,,,,,,,,,,
3.7,40.833923,-73.941007,Dunkin',"1995 Amsterdam Ave, New York, NY 10032, USA",Treatments,2026-02-13 09:35:22,Bait applied,,,,,,,,,,
4.7,40.67791,-73.949928,OFF THE GRILL,"602 Nostrand Ave, Brooklyn, NY 11216, USA",Initial,2026-02-13 09:24:22,Failed for Other R,,,,,,,,,,
4.0,40.794017,-73.94023,Treats By Trice,"2161 2nd Ave, New York, NY 10029, USA",Initial,2026-02-13 09:21:00,Rat Activity,,,,,,,,,,
,40.833534,-73.941346,Plantega (NY1 Gourmet Deli),"1981 Amsterdam Ave, New York, NY 10032, USA",Treatments,2026-02-13 09:20:53,Bait applied,,,,,,,,,,
3.8,40.796273,-73.937744,Xing Dragon,"305 E 115th St, New York, NY 10029, USA",Initial,2026-02-13 09:20:13,Rat Activity,,,,,,,,,,
4.0,40.68094,-73.928815,Brooklyn Residency,"346 Malcolm X Blvd, Brooklyn, NY 11233, USA",Initial,2026-02-13 09:15:39,Rat Activity,,,,,,,,,,
,40.832552,-73.870133,Granny's Place,"1725 E 172nd St, Bronx, NY 10472, USA",Treatments,2026-02-13 09:10:17,Bait applied,,,,,,,,,,
4.4,40.727099,-73.980088,Ninth Street Espresso,"341 E 10th St, New York, NY 10009, USA",Initial,2026-02-13 09:07:01,Rat Activity,,,,,,,,,,
4.4,40.72724,-73.979829,Barnyard Cheese Shop,"168 Avenue B, New York, NY 10009, USA",Initial,2026-02-13 09:02:40,Rat Activity,,,,,,,,,,
4.4,40.72724,-73.979829,Barnyard Cheese Shop,"168 Avenue B, New York, NY 10009, USA",Initial,2026-02-13 09:02:40,Rat Activity,,,,,,,,,,
4.4,40.72724,-73.979829,Barnyard Cheese Shop,"168 Avenue B, New York, NY 10009, USA",Initial,2026-02-13 09:02:40,Rat Activity,,,,,,,,,,
5.0,40.728015,-73.990326,Lazy Bulldog Coffee Shop,"206 E 6th St, New York, NY 10003, USA",Initial,2026-02-13 08:58:47,Failed for Other R,,,,,,,,,,
5.0,40.728015,-73.990326,Lazy Bulldog Coffee Shop,"206 E 6th St, New York, NY 10003, USA",Initial,2026-02-13 08:54:03,Failed for Other R,,,,,,,,,,
3.2,40.727449,-73.979766,Wing SZN - East Village,"174 Avenue B, New York, NY 10009, USA",Initial,2026-02-13 08:52:38,Failed for Other R,,,,,,,,,,
3.2,40.727449,-73.979766,Wing SZN - East Village,"174 Avenue B, New York, NY 10009, USA",Initial,2026-02-13 08:52:38,Failed for Other R,,,,,,,,,,
3.6,40.739568,-73.789931,Shirazi Karahi House,"184-02 Horace Harding Expy, Fresh Meadows, NY 11365, USA",Compliance,2026-02-13 08:48:01,Failed for Other R,,,,,,,,,,
4.5,40.796878,-73.938169,Milano Pizza Shop,"2255 2nd Ave, New York, NY 10029, USA",Initial,2026-02-13 08:22:13,Rat Activity,,,,,,,,,,
2.7,40.848826,-73.932855,Caridad,"554 W 181st St, New York, NY 10033, USA",Compliance,2026-02-13 08:00:04,Rat Activity,,,,,,,,,,
4.2,40.850537,-73.93636,Con Sabor A Mexico,"711 W 181st St, New York, NY 10033, USA",Compliance,2026-02-12 13:30:00,Rat Activity,,,,,,,,,,
4.0,40.813339,-73.909864,Penn Pastries,"E 149th St, Bronx, NY 10455, USA",Initial,2026-02-12 13:00:00,Rat Activity,,,,,,,,,,
,40.865401,-73.893097,Mars Deli & Grill,"2656 Valentine Ave, Bronx, NY 10458, USA",Treatments,2026-02-12 12:55:49,Bait applied,,,,,,,,,,
,40.832552,-73.870133,Granny's Place,"1725 E 172nd St, Bronx, NY 10472, USA",Treatments,2026-02-12 12:45:08,Bait applied,,,,,,,,,,
3.7,40.819395,-73.916429,Empanadas Monumental,"681 Melrose Ave, Bronx, NY 10455, USA",Initial,2026-02-12 12:44:21,Rat Activity,,,,,,,,,,
4.6,40.826518,-73.950136,Yolanda’s Tamales,"Broadway &, W 145th St, New York, NY 10031, USA",Treatments,2026-02-12 12:39:28,Bait applied,,,,,,,,,,
,40.723235,-73.982803,Ikto Lounge Bar,"50 Avenue B, New York, NY 10009, USA",Compliance,2026-02-12 12:34:23,Rat Activity,,,,,,,,,,
,40.723235,-73.982803,Ikto Lounge Bar,"50 Avenue B, New York, NY 10009, USA",Compliance,2026-02-12 12:34:23,Rat Activity,,,,,,,,,,
,40.723235,-73.982803,Ikto Lounge Bar,"50 Avenue B, New York, NY 10009, USA",Compliance,2026-02-12 12:34:23,Rat Activity,,,,,,,,,,
3.7,40.819395,-73.916429,Empanadas Monumental,"681 Melrose Ave, Bronx, NY 10455, USA",Initial,2026-02-12 12:32:21,Rat Activity,,,,,,,,,,
,40.830537,-73.854518,Blue Agave,"2062 Powell Ave, Bronx, NY 10472, USA",Treatments,2026-02-12 12:30:25,Bait applied,,,,,,,,,,
3.4,40.810782,-73.953043,McDonald's,"354 W 125th St, New York, NY 10027, USA",Compliance,2026-02-12 12:30:11,Failed for Rat Act,,,,,,,,,,
4.6,40.826518,-73.950136,Yolanda’s Tamales,"Broadway &, W 145th St, New York, NY 10031, USA",Treatments,2026-02-12 12:20:33,Bait applied,,,,,,,,,,
4.0,40.811684,-73.950395,Harlem Bar-B-Q,"2367 Frederick Douglass Blvd, New York, NY 10027, USA",Initial,2026-02-12 12:10:00,Failed for Other R,,,,,,,,,,
4.0,40.720512,-73.978583,Royal Chicken & Burger,"13 Avenue D, New York, NY 10009, USA",Initial,2026-02-12 12:08:30,Failed for Other R,,,,,,,,,,
4.7,40.809303,-73.944036,Azara Kitchen LLC,"348 Lenox Ave, New York, NY 10027, USA",Compliance,2026-02-12 12:08:00,Failed for Rat Act,,,,,,,,,,
4.2,40.776872,-73.956957,Amarena,"151 E 82nd St, New York, NY 10028, USA",Compliance,2026-02-12 12:07:42,Rat Activity,,,,,,,,,,
3.7,40.656159,-73.949948,Crown Fried Chicken & Pizza,"1263 Nostrand Ave Suite 1, Brooklyn, NY 11226, USA",Compliance,2026-02-12 12:06:29,Rat Activity,,,,,,,,,,
4.8,40.796266,-73.936591,The Terrace,"332 E 116th St, New York, NY 10029, USA",Initial,2026-02-12 11:58:00,Failed for Other R,,,,,,,,,,
4.4,40.720577,-73.978499,Avenue D Pizza,"15 Avenue D, New York, NY 10009, USA",Initial,2026-02-12 11:54:04,Failed for Rat Act,,,,,,,,,,
4.8,40.796266,-73.936591,The Terrace,"332 E 116th St, New York, NY 10029, USA",Initial,2026-02-12 11:52:00,Failed for Other R,,,,,,,,,,
4.4,40.825956,-73.946881,Village Chicken & Burger,"1739 Amsterdam Ave, New York, NY 10031, USA",Treatments,2026-02-12 11:45:07,Bait applied,,,,,,,,,,
4.4,40.825956,-73.946881,Village Chicken & Burger,"1739 Amsterdam Ave, New York, NY 10031, USA",Treatments,2026-02-12 11:45:07,Bait applied,,,,,,,,,,
5.0,40.723872,-73.976194,Tom & Jerry,"403 E 8th St, New York, NY 10009, USA",Initial,2026-02-12 11:44:00,Failed for Other R,,,,,,,,,,
4.2,40.776872,-73.956957,Amarena,"151 E 82nd St, New York, NY 10028, USA",Compliance,2026-02-12 11:44:00,Rat Activity,,,,,,,,,,
4.4,40.825148,-73.951065,Malecón Express Restaurant,"3500 Broadway, New York, NY 10031, USA",Treatments,2026-02-12 11:36:15,Bait applied,,,,,,,,,,
4.1,40.841586,-73.935892,El Nuevo Taino,"2228 Amsterdam Ave, New York, NY 10032, USA",Treatments,2026-02-12 11:35:47,Bait applied,,,,,,,,,,
