inspection_type,job_ticket_or_work_order_id,job_id,job_progress,bbl,boro_code,block,lot,house_number,street_name,zip_code,latitude,longitude,borough,inspection_date,result,approved_date,location,community_board,council_district,census_tract,bin,nta,x_coord,y_coord
Initial,14247394,PC8672177,1,2024290012,2,02429,0012,1138,TELLER AVENUE,10456,40.8306752136,-73.912533540935,Bronx,2026-02-24T08:00:25.000,Rat Activity,2026-02-25T09:56:11.000,"{'latitude': '40.8306752136', 'longitude': '-73.912533540935', 'human_address': '{""address"": """", ""city"": """", ""state"": """", ""zip"": """"}'}",4,16,175,2124470,Concourse-Concourse Village,,
Initial,14247395,PC8672221,1,2029230001,2,02923,0001,1810,BATHGATE AVENUE,10457,40.844656122975,-73.898242082957,Bronx,2026-02-24T10:06:00.000,Failed for Other R,2026-02-25T09:55:30.000,"{'latitude': '40.844656122975', 'longitude': '-73.898242082957', 'human_address': '{""address"": """", ""city"": """", ""state"": """", ""zip"": """"}'}",6,15,395,2009586,Tremont,,
Compliance,14247397,PC8651742,2,2031820028,2,03182,0028,48,EAST 183 STREET,10453,40.858331466952,-73.902653166966,Bronx,2026-02-24T11:02:18.000,Rat Activity,2026-02-25T12:58:44.000,"{'latitude': '40.858331466952', 'longitude': '-73.902653166966', 'human_address': '{""address"": """", ""city"": """", ""state"": """", ""zip"": """"}'}",5,14,239,2013991,Fordham Heights,,
Compliance,14247398,PC8652395,2,2031590003,2,03159,0003,2306,GRAND CONCOURSE,10458,40.857711423296,-73.899769271139,Bronx,2026-02-24T11:15:36.000,Rat Activity,2026-02-25T13:00:45.000,"{'latitude': '40.857711423296', 'longitude': '-73.899769271139', 'human_address': '{""address"": """", ""city"": """", ""state"": """", ""zip"": """"}'}",5,15,38301,2013734,Fordham Heights,,
Compliance,14247400,PC8652122,2,2031660069,2,03166,0069,120,EAST FORDHAM ROAD,10468,40.862299360963,-73.898341518205,Bronx,2026-02-24T11:45:08.000,Rat Activity,2026-02-25T13:27:58.000,"{'latitude': '40.862299360963', 'longitude': '-73.898341518205', 'human_address': '{""address"": """", ""city"": """", ""state"": """", ""zip"": """"}'}",5,14,23703,2013807,Fordham Heights,,
Compliance,14247402,PC8655691,2,2031670055,2,03167,0055,2565,GRAND CONCOURSE,10468,40.863779541887,-73.896133866513,Bronx,2026-02-24T12:05:46.000,Rat Activity,2026-02-25T14:00:37.000,"{'latitude': '40.863779541887', 'longitude': '-73.896133866513', 'human_address': '{""address"": """", ""city"": """", ""state"": """", ""zip"": """"}'}",7,14,401,2013820,University Heights (North)-Fordham,,
Compliance,14247403,PC8655216,2,2031670062,2,03167,0062,2555,GRAND CONCOURSE,10468,40.863612227826,-73.896260666734,Bronx,2026-02-24T12:13:03.000,Rat Activity,2026-02-25T14:02:29.000,"{'latitude': '40.863612227826', 'longitude': '-73.896260666734', 'human_address': '{""address"": """", ""city"": """", ""state"": """", ""zip"": """"}'}",7,14,401,2013822,University Heights (North)-Fordham,,
Initial,14247406,PC8663131,1,1017350065,1,01735,0065,62,WEST 138 STREET,10037,40.815524489383,-73.938287111112,Manhattan,2026-02-24T12:14:45.000,Rat Activity,2026-02-25T10:15:19.000,"{'latitude': '40.815524489383', 'longitude': '-73.938287111112', 'human_address': '{""address"": """", ""city"": """", ""state"": """", ""zip"": """"}'}",10,9,212,1000000,Harlem (North),,
Compliance,14247430,PC8618293,2,1020390001,1,02039,0001,2890,FREDERICK DOUGLAS BOULEVARD,10039,40.828103517606,-73.938051366693,Manhattan,2026-02-24T12:43:00.000,Rat Activity,2026-02-25T11:01:46.000,"{'latitude': '40.828103517606', 'longitude': '-73.938051366693', 'human_address': '{""address"": """", ""city"": """", ""state"": """", ""zip"": """"}'}",10,9,236,1060617,Harlem (North),1001394,240986
Initial,14247434,PC8663657,1,1017350034,1,01735,0034,2252,5 AVENUE,10037,40.814132001631,-73.936630192476,Manhattan,2026-02-24T12:45:45.000,Rat Activity,2026-02-27T16:35:07.000,"{'latitude': '40.814132001631', 'longitude': '-73.936630192476', 'human_address': '{""address"": """", ""city"": """", ""state"": """", ""zip"": """"}'}",10,9,212,1053918,Harlem (North),,
Initial,14247416,PC8662620,1,1017350033,1,01735,0033,3,WEST 137 STREET,10037,40.814261318087,-73.937200871609,Manhattan,2026-02-24T12:50:45.000,Rat Activity,2026-02-25T10:31:33.000,"{'latitude': '40.814261318087', 'longitude': '-73.937200871609', 'human_address': '{""address"": """", ""city"": """", ""state"": """", ""zip"": """"}'}",10,9,212,1053917,Harlem (North),,
Initial,14247417,PC8663570,1,1017350032,1,01735,0032,5,WEST 137 STREET,10037,40.814280554987,-73.937244205506,Manhattan,2026-02-24T12:54:45.000,Rat Activity,2026-02-25T10:36:59.000,"{'latitude': '40.814280554987', 'longitude': '-73.937244205506', 'human_address': '{""address"": """", ""city"": """", ""state"": """", ""zip"": """"}'}",10,9,212,1053916,Harlem (North),,
Initial,14247386,PC8668943,1,1017750170,1,01775,0170,100,EAST 128 STREET,10035,40.806886329785,-73.937464328175,Manhattan,2026-02-24T12:55:00.000,Rat Activity,2026-02-25T09:41:25.000,"{'latitude': '40.806886329785', 'longitude': '-73.937464328175', 'human_address': '{""address"": """", ""city"": """", ""state"": """", ""zip"": """"}'}",11,9,242,1054501,East Harlem (North),,
Initial,14247418,PC8664147,1,1017350031,1,01735,0031,7,WEST 137 STREET,10037,40.814299793842,-73.937291152104,Manhattan,2026-02-24T12:58:45.000,Rat Activity,2026-02-25T10:41:53.000,"{'latitude': '40.814299793842', 'longitude': '-73.937291152104', 'human_address': '{""address"": """", ""city"": """", ""state"": """", ""zip"": """"}'}",10,9,212,1053915,Harlem (North),,
Initial,14247392,PC8668728,1,1017750165,1,01775,0165,112,EAST 128 STREET,10035,40.806669208478,-73.936940754981,Manhattan,2026-02-24T13:07:00.000,Failed for Other R,2026-02-25T09:48:10.000,"{'latitude': '40.806669208478', 'longitude': '-73.936940754981', 'human_address': '{""address"": """", ""city"": """", ""state"": """", ""zip"": """"}'}",11,9,242,1054499,East Harlem (North),,
Initial,14247420,PC8662857,1,1017350027,1,01735,0027,13,WEST 137 STREET,10037,40.814357506356,-73.937424766704,Manhattan,2026-02-24T13:08:45.000,Rat Activity,2026-02-25T11:08:49.000,"{'latitude': '40.814357506356', 'longitude': '-73.937424766704', 'human_address': '{""address"": """", ""city"": """", ""state"": """", ""zip"": """"}'}",10,9,212,1053912,Harlem (North),,
Initial,14247421,PC8663419,1,1017350025,1,01735,0025,15,WEST 137 STREET,10037,40.81437674317,-73.937468100729,Manhattan,2026-02-24T13:12:45.000,Failed for Rat Act,2026-02-25T11:14:09.000,"{'latitude': '40.81437674317', 'longitude': '-73.937468100729', 'human_address': '{""address"": """", ""city"": """", ""state"": """", ""zip"": """"}'}",10,9,212,1053911,Harlem (North),,
Initial,14247601,PC8672758,1,3017300008,3,01730,0008,499,MARCY AVENUE,11206,40.69829318638,-73.949774133832,Brooklyn,2026-02-25T08:40:00.000,Failed for Other R,2026-02-26T12:10:45.000,"{'latitude': '40.69829318638', 'longitude': '-73.949774133832', 'human_address': '{""address"": """", ""city"": """", ""state"": """", ""zip"": """"}'}",3,36,257,3048362,Bedford-Stuyvesant (West),,
Initial,14247630,PC8671659,1,1000950027,1,00095,0027,49,FULTON STREET,10038,40.708171546156,-74.004620442474,Manhattan,2026-02-25T09:00:54.000,Failed for Rat Act,2026-02-26T08:04:45.000,"{'latitude': '40.708171546156', 'longitude': '-74.004620442474', 'human_address': '{""address"": """", ""city"": """", ""state"": """", ""zip"": """"}'}",1,1,1501,1001290,Financial District-Battery Park City,982969,197285
Initial,14247613,PC8672624,1,3017250003,3,01725,0003,493,MARCY AVENUE,11206,40.698542984267,-73.949828040625,Brooklyn,2026-02-25T09:06:00.000,Failed for Other R,2026-02-26T09:33:10.000,"{'latitude': '40.698542984267', 'longitude': '-73.949828040625', 'human_address': '{""address"": """", ""city"": """", ""state"": """", ""zip"": """"}'}",3,36,257,3048343,Bedford-Stuyvesant (West),,
Initial,14247615,PC8672603,1,3017200001,3,01720,0001,475,MARCY AVENUE,11206,40.699086497867,-73.949939428732,Brooklyn,2026-02-25T09:26:00.000,Failed for Other R,2026-02-26T09:35:16.000,"{'latitude': '40.699086497867', 'longitude': '-73.949939428732', 'human_address': '{""address"": """", ""city"": """", ""state"": """", ""zip"": """"}'}",3,36,257,3338503,Bedford-Stuyvesant (West),,
Initial,14247616,PC8672642,1,3017180030,3,01718,0030,502,FLUSHING AVENUE,11205,40.6992968623,-73.954151570291,Brooklyn,2026-02-25T09:48:00.000,Failed for Rat Act,2026-02-26T11:55:36.000,"{'latitude': '40.6992968623', 'longitude': '-73.954151570291', 'human_address': '{""address"": """", ""city"": """", ""state"": """", ""zip"": """"}'}",3,33,1237,3048310,Bedford-Stuyvesant (West),,
Initial,14247620,PC8672559,1,3017180047,3,01718,0047,40,NOSTRAND AVENUE,11205,40.698780482666,-73.953253934853,Brooklyn,2026-02-25T10:05:00.000,Failed for Other R,2026-02-26T09:40:21.000,"{'latitude': '40.698780482666', 'longitude': '-73.953253934853', 'human_address': '{""address"": """", ""city"": """", ""state"": """", ""zip"": """"}'}",3,33,1237,3048316,Bedford-Stuyvesant (West),,
Initial,14247621,PC8672402,1,3017180001,3,01718,0001,60,NOSTRAND AVENUE,11205,40.698280894515,-73.95315691461,Brooklyn,2026-02-25T10:09:00.000,Rat Activity,2026-02-26T09:42:21.000,"{'latitude': '40.698280894515', 'longitude': '-73.95315691461', 'human_address': '{""address"": """", ""city"": """", ""state"": """", ""zip"": """"}'}",3,33,1237,3000000,Bedford-Stuyvesant (West),,
Initial,14247481,PC8668979,1,1017680021,1,01769,0021,150,EAST 120 STREET,10035,40.801054818029,-73.939474463348,Manhattan,2026-02-25T10:10:00.000,Failed for Other R,2026-02-26T10:13:15.000,"{'latitude': '40.801054818029', 'longitude': '-73.939474463348', 'human_address': '{""address"": """", ""city"": """", ""state"": """", ""zip"": """"}'}",11,8,196,1083501,East Harlem (North),,
Initial,14247518,PC8670876,1,2030910035,2,03091,0035,2483,CAMBRELENG AVENUE,10458,40.856784831364,-73.883499575369,Bronx,2026-02-25T10:15:52.000,Failed for Other R,2026-02-27T08:33:32.000,"{'latitude': '40.856784831364', 'longitude': '-73.883499575369', 'human_address': '{""address"": """", ""city"": """", ""state"": """", ""zip"": """"}'}",6,15,389,2116146,Belmont,,
Initial,14247624,PC8671514,1,3017170031,3,01717,0031,490,FLUSHING AVENUE,11205,40.69921205913,-73.954869305755,Brooklyn,2026-02-25T10:32:00.000,Failed for Rat Act,2026-02-26T10:27:51.000,"{'latitude': '40.69921205913', 'longitude': '-73.954869305755', 'human_address': '{""address"": """", ""city"": """", ""state"": """", ""zip"": """"}'}",3,33,1237,3338484,Bedford-Stuyvesant (West),,
Initial,14247625,PC8671562,1,3017177501,3,01717,7501,18,WARSOFF PLACE,11205,40.698574990301,-73.954159281401,Brooklyn,2026-02-25T10:38:00.000,Rat Activity,2026-02-26T10:28:45.000,"{'latitude': '40.698574990301', 'longitude': '-73.954159281401', 'human_address': '{""address"": """", ""city"": """", ""state"": """", ""zip"": """"}'}",3,33,1237,3329613,Bedford-Stuyvesant (West),,
Initial,14247525,PC8670699,1,2030910001,2,03091,0001,2480,BELMONT AVENUE,10458,40.856736524095,-73.884587773472,Bronx,2026-02-25T10:45:52.000,Rat Activity,2026-02-27T08:53:35.000,"{'latitude': '40.856736524095', 'longitude': '-73.884587773472', 'human_address': '{""address"": """", ""city"": """", ""state"": """", ""zip"": """"}'}",6,15,389,2012561,Belmont,,
Initial,14247642,PC8670194,1,1020630054,1,02063,0054,452,WEST 149 STREET,10031,40.827374125906,-73.944827154876,Manhattan,2026-02-25T10:47:00.000,Rat Activity,2026-02-26T08:45:09.000,"{'latitude': '40.827374125906', 'longitude': '-73.944827154876', 'human_address': '{""address"": """", ""city"": """", ""state"": """", ""zip"": """"}'}",9,7,231,1061526,Hamilton Heights-Sugar Hill,,
Initial,14247508,PC8671718,1,1015400042,1,01540,0042,210,EAST 95 STREET,10128,40.78413804092,-73.9489652553,Manhattan,2026-02-25T10:49:00.000,Rat Activity,2026-02-26T07:55:04.000,"{'latitude': '40.78413804092', 'longitude': '-73.9489652553', 'human_address': '{""address"": """", ""city"": """", ""state"": """", ""zip"": """"}'}",8,5,15601,1049236,Upper East Side-Yorkville,998367,224974
Initial,14247644,PC8670335,1,1020630060,1,02063,0060,1795,AMSTERDAM AVENUE,10031,40.827624380383,-73.945842312999,Manhattan,2026-02-25T10:57:42.000,Rat Activity,2026-02-26T08:43:14.000,"{'latitude': '40.827624380383', 'longitude': '-73.945842312999', 'human_address': '{""address"": """", ""city"": """", ""state"": """", ""zip"": """"}'}",9,7,231,1061528,Hamilton Heights-Sugar Hill,,
Initial,14247452,PC8669207,1,2030540034,2,03054,0034,2365,HOFFMAN STREET,10458,40.855275291188,-73.88911257626,Bronx,2026-02-25T11:00:00.000,Failed for Other R,2026-02-26T12:30:07.000,"{'latitude': '40.855275291188', 'longitude': '-73.88911257626', 'human_address': '{""address"": """", ""city"": """", ""state"": """", ""zip"": """"}'}",6,15,387,2011670,Belmont,,
Initial,14247529,PC8670887,1,2030910008,2,03091,0008,2498,BELMONT AVENUE,10458,40.857306947456,-73.884109596504,Bronx,2026-02-25T11:01:52.000,Failed for Other R,2026-02-27T08:56:04.000,"{'latitude': '40.857306947456', 'longitude': '-73.884109596504', 'human_address': '{""address"": """", ""city"": """", ""state"": """", ""zip"": """"}'}",6,15,389,2000000,Belmont,,
Initial,14247645,PC8670780,1,1020630061,1,02063,0061,1793,AMSTERDAM AVENUE,10031,40.827574992099,-73.945878487362,Manhattan,2026-02-25T11:04:42.000,Rat Activity,2026-02-26T09:33:03.000,"{'latitude': '40.827574992099', 'longitude': '-73.945878487362', 'human_address': '{""address"": """", ""city"": """", ""state"": """", ""zip"": """"}'}",9,7,231,1061529,Hamilton Heights-Sugar Hill,,
Initial,14247455,PC8669128,1,2030540023,2,03054,0023,566,EAST 187 STREET,10458,40.856180723448,-73.888771254324,Bronx,2026-02-25T11:13:00.000,Failed for Other R,2026-02-26T12:31:18.000,"{'latitude': '40.856180723448', 'longitude': '-73.888771254324', 'human_address': '{""address"": """", ""city"": """", ""state"": """", ""zip"": """"}'}",6,15,387,2011663,Belmont,,
Initial,14247457,PC8669268,1,2030540010,2,03054,0010,2364,LORILLARD PLACE,10458,40.855567038626,-73.889950751688,Bronx,2026-02-25T11:23:00.000,Failed for Other R,2026-02-26T12:32:19.000,"{'latitude': '40.855567038626', 'longitude': '-73.889950751688', 'human_address': '{""address"": """", ""city"": """", ""state"": """", ""zip"": """"}'}",6,15,387,2011655,Belmont,,
Initial,14247495,PC8669499,1,1017907501,1,01790,7501,201,EAST 125TH STREET,10035,40.803558594651,-73.935473591582,Manhattan,2026-02-25T11:34:00.000,Failed for Other R,2026-02-26T15:23:44.000,"{'latitude': '40.803558594651', 'longitude': '-73.935473591582', 'human_address': '{""address"": """", ""city"": """", ""state"": """", ""zip"": """"}'}",11,8,242,1054682,East Harlem (North),,
Initial,14247660,PC8670224,1,1020630113,1,02063,0113,426,CONVENT AVENUE,10031,40.826808626085,-73.944654184339,Manhattan,2026-02-25T12:00:42.000,Rat Activity,2026-02-26T09:47:37.000,"{'latitude': '40.826808626085', 'longitude': '-73.944654184339', 'human_address': '{""address"": """", ""city"": """", ""state"": """", ""zip"": """"}'}",9,7,231,1061534,Hamilton Heights-Sugar Hill,,
Initial,14247511,PC8660299,1,1014530005,1,01453,0005,305,EAST 78 STREET,10075,40.772475406064,-73.955119127529,Manhattan,2026-02-25T12:09:00.000,Failed for Other R,2026-02-26T07:53:48.000,"{'latitude': '40.772475406064', 'longitude': '-73.955119127529', 'human_address': '{""address"": """", ""city"": """", ""state"": """", ""zip"": """"}'}",8,5,134,1045235,Upper East Side-Lenox Hill-Roosevelt Island,,
Initial,14247513,PC8671015,1,1014720033,1,01472,0033,442,EAST 78 STREET,10075,40.771217119947,-73.952177558971,Manhattan,2026-02-25T12:37:00.000,Rat Activity,2026-02-26T07:59:42.000,"{'latitude': '40.771217119947', 'longitude': '-73.952177558971', 'human_address': '{""address"": """", ""city"": """", ""state"": """", ""zip"": """"}'}",8,5,13203,1045996,Upper East Side-Lenox Hill-Roosevelt Island,997496,220258
Initial,14247907,PC8673556,1,1011540101,1,01154,0101,70,AMSTERDAM AVENUE,10023,40.772631543851,-73.986002449909,Manhattan,2026-02-26T08:00:00.000,Rat Activity,2026-02-27T09:40:39.000,"{'latitude': '40.772631543851', 'longitude': '-73.986002449909', 'human_address': '{""address"": """", ""city"": """", ""state"": """", ""zip"": """"}'}",7,6,15101,1082575,Upper West Side-Lincoln Square,988127,220770
Initial,14247862,PC8663484,1,3016510070,3,01651,0070,657,JEFFERSON AVENUE,11221,40.685397107384,-73.931661802458,Brooklyn,2026-02-26T08:12:00.000,Rat Activity,2026-02-27T08:06:09.000,"{'latitude': '40.685397107384', 'longitude': '-73.931661802458', 'human_address': '{""address"": """", ""city"": """", ""state"": """", ""zip"": """"}'}",3,36,295,3045521,Bedford-Stuyvesant (East),,
Initial,14247868,PC8663494,1,3016510063,3,01651,0063,671,JEFFERSON AVENUE,11221,40.685446261031,-73.931239888507,Brooklyn,2026-02-26T08:24:00.000,Rat Activity,2026-02-27T08:11:22.000,"{'latitude': '40.685446261031', 'longitude': '-73.931239888507', 'human_address': '{""address"": """", ""city"": """", ""state"": """", ""zip"": """"}'}",3,36,295,3045514,Bedford-Stuyvesant (East),,
Compliance,14247948,PC8632464,2,1008380065,1,00838,0065,26,WEST   37 STREET,10018,40.750769315361,-73.984227716798,Manhattan,2026-02-26T08:43:00.000,Failed for Other R,2026-02-27T07:23:05.000,"{'latitude': '40.750769315361', 'longitude': '-73.984227716798', 'human_address': '{""address"": """", ""city"": """", ""state"": """", ""zip"": """"}'}",5,4,84,1015946,Midtown-Times Square,988620,212805
Initial,14247723,PC8671475,1,3017130004,3,01713,0004,29,KANE PLACE,11233,40.677410303485,-73.923742108779,Brooklyn,2026-02-26T08:45:31.000,Rat Activity,2026-02-27T14:23:25.000,"{'latitude': '40.677410303485', 'longitude': '-73.923742108779', 'human_address': '{""address"": """", ""city"": """", ""state"": """", ""zip"": """"}'}",3,41,299,3048253,Bedford-Stuyvesant (East),,
Initial,14247873,PC8663684,1,3016510058,3,01651,0058,683,JEFFERSON AVENUE,11221,40.685489960555,-73.930879276041,Brooklyn,2026-02-26T08:48:00.000,Rat Activity,2026-02-27T08:57:35.000,"{'latitude': '40.685489960555', 'longitude': '-73.930879276041', 'human_address': '{""address"": """", ""city"": """", ""state"": """", ""zip"": """"}'}",3,36,295,3045509,Bedford-Stuyvesant (East),,
Initial,14247843,PC8673456,1,1005640054,1,00564,0054,77,EAST   12 STREET,10003,40.732983948942,-73.990568031726,Manhattan,2026-02-26T08:53:00.000,Rat Activity,2026-02-27T07:43:06.000,"{'latitude': '40.732983948942', 'longitude': '-73.990568031726', 'human_address': '{""address"": """", ""city"": """", ""state"": """", ""zip"": """"}'}",2,2,61,1009212,Greenwich Village,986864,206325
Initial,14247874,PC8663309,1,3016510055,3,01651,0055,693,JEFFERSON AVENUE,11221,40.685522714805,-73.930576365333,Brooklyn,2026-02-26T08:53:00.000,Rat Activity,2026-02-27T09:00:29.000,"{'latitude': '40.685522714805', 'longitude': '-73.930576365333', 'human_address': '{""address"": """", ""city"": """", ""state"": """", ""zip"": """"}'}",3,36,295,3045507,Bedford-Stuyvesant (East),,
Initial,14247737,PC8671495,1,3017130020,3,01713,0020,916,HERKIMER STREET,11233,40.678181228906,-73.923207643015,Brooklyn,2026-02-26T08:59:42.000,Failed for Other R,2026-02-27T15:08:19.000,"{'latitude': '40.678181228906', 'longitude': '-73.923207643015', 'human_address': '{""address"": """", ""city"": """", ""state"": """", ""zip"": """"}'}",3,41,299,3048266,Bedford-Stuyvesant (East),,
Initial,14247852,PC8672138,1,2057600161,2,05760,0161,5731,BROADWAY,10463,40.882619171515,-73.902187114752,Bronx,2026-02-26T09:00:00.000,Failed for Other R,2026-02-27T10:21:10.000,"{'latitude': '40.882619171515', 'longitude': '-73.902187114752', 'human_address': '{""address"": """", ""city"": """", ""state"": """", ""zip"": """"}'}",8,11,287,2127041,Kingsbridge-Marble Hill,,
Compliance,14247908,PC8658627,2,1011397503,1,01139,7503,1998,BROADWAY,10023,40.775359297524,-73.982160242675,Manhattan,2026-02-26T09:15:18.000,Rat Activity,2026-02-27T09:50:04.000,"{'latitude': '40.775359297524', 'longitude': '-73.982160242675', 'human_address': '{""address"": """", ""city"": """", ""state"": """", ""zip"": """"}'}",7,6,15302,1084564,Upper West Side-Lincoln Square,989191,221764
Initial,14247879,PC8663870,1,3016610054,3,01661,0054,569,HALSEY STREET,11233,40.684081399658,-73.930069482635,Brooklyn,2026-02-26T09:18:00.000,Rat Activity,2026-02-27T10:25:58.000,"{'latitude': '40.684081399658', 'longitude': '-73.930069482635', 'human_address': '{""address"": """", ""city"": """", ""state"": """", ""zip"": """"}'}",3,36,295,3046171,Bedford-Stuyvesant (East),,
Treatments,3064546,PC8621323,4,1019930102,1,01993,0102,192,CLAREMONT AVENUE,10027,40.814944026254,-73.960122885479,Manhattan,2026-02-26T09:18:04.000,Bait applied,2026-02-27T13:06:50.000,"{'latitude': '40.814944026254', 'longitude': '-73.960122885479', 'human_address': '{""address"": """", ""city"": """", ""state"": """", ""zip"": """"}'}",9,7,211,1059860,Morningside Heights,995288,236188
Initial,14247949,PC8671948,1,1007350061,1,00735,0061,440,WEST   38 STREET,10018,40.756627654881,-73.996217205479,Manhattan,2026-02-26T09:25:59.000,Failed for Other R,2026-02-27T07:25:07.000,"{'latitude': '40.756627654881', 'longitude': '-73.996217205479', 'human_address': '{""address"": """", ""city"": """", ""state"": """", ""zip"": """"}'}",4,3,111,1012982,Chelsea-Hudson Yards,985298,214939
Initial,14247883,PC8664081,1,3016610059,3,01661,0059,561A,HALSEY STREET,11233,40.684051363037,-73.930325511448,Brooklyn,2026-02-26T09:28:00.000,Rat Activity,2026-02-27T10:29:07.000,"{'latitude': '40.684051363037', 'longitude': '-73.930325511448', 'human_address': '{""address"": """", ""city"": """", ""state"": """", ""zip"": """"}'}",3,36,295,3046176,Bedford-Stuyvesant (East),,
Treatments,3064531,PC8557852,9,1020740055,1,02074,0055,528,West 143 St,10031,40.824648340404,-73.950274578423,Manhattan,2026-02-26T09:30:57.000,Bait applied,2026-02-27T08:52:41.000,"{'latitude': '40.824648340404', 'longitude': '-73.950274578423', 'human_address': '{""address"": """", ""city"": """", ""state"": """", ""zip"": """"}'}",9,7,229,1061869,Hamilton Heights-Sugar Hill,,
Initial,14247886,PC8663560,1,3016610064,3,01661,0064,555,HALSEY STREET,11233,40.684029520843,-73.93051663079,Brooklyn,2026-02-26T09:36:00.000,Failed for Rat Act,2026-02-27T10:32:00.000,"{'latitude': '40.684029520843', 'longitude': '-73.93051663079', 'human_address': '{""address"": """", ""city"": """", ""state"": """", ""zip"": """"}'}",3,36,295,3046181,Bedford-Stuyvesant (East),,
Treatments,3064532,PC8559580,9,1020500041,1,02050,0041,349,Convent Avenue,10031,40.824339202625,-73.946433952673,Manhattan,2026-02-26T09:40:03.000,Bait applied,2026-02-27T08:39:20.000,"{'latitude': '40.824339202625', 'longitude': '-73.946433952673', 'human_address': '{""address"": """", ""city"": """", ""state"": """", ""zip"": """"}'}",9,9,227,1060947,Hamilton Heights-Sugar Hill,,
Treatments,3064530,PC8557851,13,1020590001,1,02059,0001,1681,Amsterdam Ave,10031,40.824024491269,-73.948475669157,Manhattan,2026-02-26T09:50:06.000,Bait applied,2026-02-27T08:53:09.000,"{'latitude': '40.824024491269', 'longitude': '-73.948475669157', 'human_address': '{""address"": """", ""city"": """", ""state"": """", ""zip"": """"}'}",9,7,227,1061269,Hamilton Heights-Sugar Hill,,
Initial,14247891,PC8664084,1,3016610071,3,01661,0071,547,HALSEY STREET,11233,40.683999483223,-73.930772659201,Brooklyn,2026-02-26T09:54:00.000,Rat Activity,2026-02-27T10:35:44.000,"{'latitude': '40.683999483223', 'longitude': '-73.930772659201', 'human_address': '{""address"": """", ""city"": """", ""state"": """", ""zip"": """"}'}",3,36,295,3046187,Bedford-Stuyvesant (East),,
Initial,14247916,PC8669353,1,2030550058,2,03055,0058,518,EAST 187 STREET,10458,40.856983654049,-73.890299054331,Bronx,2026-02-26T10:00:35.000,Failed for Other R,2026-02-27T09:38:11.000,"{'latitude': '40.856983654049', 'longitude': '-73.890299054331', 'human_address': '{""address"": """", ""city"": """", ""state"": """", ""zip"": """"}'}",6,15,387,2011704,Belmont,,
Initial,14247953,PC8674487,1,1007350060,1,00735,0060,438,West 38 street,10018,40.756616674769,-73.996184720279,Manhattan,2026-02-26T10:08:59.000,Rat Activity,2026-02-27T07:29:49.000,"{'latitude': '40.756616674769', 'longitude': '-73.996184720279', 'human_address': '{""address"": """", ""city"": """", ""state"": """", ""zip"": """"}'}",4,3,111,1012981,Chelsea-Hudson Yards,,
Treatments,3064533,PC8557860,15,1020597503,1,02059,7503,475,West 143rd St,10031,40.823796554286,-73.948201243515,Manhattan,2026-02-26T10:10:44.000,Bait applied,2026-02-27T08:20:54.000,"{'latitude': '40.823796554286', 'longitude': '-73.948201243515', 'human_address': '{""address"": """", ""city"": """", ""state"": """", ""zip"": """"}'}",9,7,227,1061270,Hamilton Heights-Sugar Hill,,
Treatments,3064534,PC8561569,9,1020630029,1,02063,0029,757,ST NICHOLAS AVENUE,10031,40.826055917227,-73.943321498412,Manhattan,2026-02-26T10:20:14.000,Bait applied,2026-02-27T08:18:41.000,"{'latitude': '40.826055917227', 'longitude': '-73.943321498412', 'human_address': '{""address"": """", ""city"": """", ""state"": """", ""zip"": """"}'}",9,9,231,1061510,Hamilton Heights-Sugar Hill,,
Initial,14247812,PC8673396,1,2025070001,2,02507,0001,950,WOODYCREST AVENUE,10452,40.831372726197,-73.92895285886,Bronx,2026-02-26T10:23:50.000,Failed for Rat Act,2026-02-27T12:34:26.000,"{'latitude': '40.831372726197', 'longitude': '-73.92895285886', 'human_address': '{""address"": """", ""city"": """", ""state"": """", ""zip"": """"}'}",4,16,189,2003113,Highbridge,1003911,242179
Treatments,3064535,PC8561571,13,1020630029,1,02063,0029,757,ST NICHOLAS AVENUE,10031,40.826055917227,-73.943321498412,Manhattan,2026-02-26T10:30:04.000,Bait applied,2026-02-27T08:49:46.000,"{'latitude': '40.826055917227', 'longitude': '-73.943321498412', 'human_address': '{""address"": """", ""city"": """", ""state"": """", ""zip"": """"}'}",9,9,231,1061510,Hamilton Heights-Sugar Hill,,
Compliance,14247950,PC8630968,5,1010920016,1,01092,0016,613,WEST   44 STREET,10036,40.762350519588,-73.997891848714,Manhattan,2026-02-26T10:35:59.000,Rat Activity,2026-02-27T07:26:15.000,"{'latitude': '40.762350519588', 'longitude': '-73.997891848714', 'human_address': '{""address"": """", ""city"": """", ""state"": """", ""zip"": """"}'}",4,3,12901,1080977,Hell's Kitchen,984834,217024
Stoppage,3064527,PC8668696,1,1019220024,1,01922,0024,121,St Nicholas Ave,10026,40.803695988103,-73.952706785694,Manhattan,2026-02-26T10:37:00.000,Stoppage done,2026-02-27T09:53:36.000,"{'latitude': '40.803695988103', 'longitude': '-73.952706785694', 'human_address': '{""address"": """", ""city"": """", ""state"": """", ""zip"": """"}'}",10,9,218,1058377,Harlem (South),,
Initial,14247925,PC8669490,1,2030740001,2,03074,0001,2322,HUGHES AVENUE,10458,40.853726261543,-73.888081327505,Bronx,2026-02-26T10:40:35.000,Failed for Rat Act,2026-02-27T10:14:22.000,"{'latitude': '40.853726261543', 'longitude': '-73.888081327505', 'human_address': '{""address"": """", ""city"": """", ""state"": """", ""zip"": """"}'}",6,15,391,2012149,Belmont,,
Treatments,3064536,PC8580402,6,1020660001,1,02066,0001,1841,Amsterdam Avenue,10031,40.829180107097,-73.944706406458,Manhattan,2026-02-26T10:40:37.000,Bait applied,2026-02-27T08:49:33.000,"{'latitude': '40.829180107097', 'longitude': '-73.944706406458', 'human_address': '{""address"": """", ""city"": """", ""state"": """", ""zip"": """"}'}",9,7,23501,1088260,Hamilton Heights-Sugar Hill,,
Initial,14247700,PC8659140,1,4034220020,4,03422,0020,1824,HART STREET,11385,40.708736399225,-73.915879084575,Queens,2026-02-26T10:44:45.000,Failed for Other R,2026-02-27T11:30:45.000,"{'latitude': '40.708736399225', 'longitude': '-73.915879084575', 'human_address': '{""address"": """", ""city"": """", ""state"": """", ""zip"": """"}'}",5,34,53901,4531267,Ridgewood,1007572,197502
Initial,14247816,PC8668700,1,3008700003,3,00870,0003,1677,8 AVENUE,11215,40.659876238513,-73.984169996034,Brooklyn,2026-02-26T10:45:00.000,Failed for Rat Act,2026-02-27T10:45:34.000,"{'latitude': '40.659876238513', 'longitude': '-73.984169996034', 'human_address': '{""address"": """", ""city"": """", ""state"": """", ""zip"": """"}'}",7,39,169,3016557,Windsor Terrace-South Slope,988642,179690
Initial,14247773,PC8669214,1,1017800075,1,01780,0075,200,EAST 131 STREET,10037,40.808419429471,-73.93527379367,Manhattan,2026-02-26T10:47:00.000,Failed for Other R,2026-02-27T16:24:44.000,"{'latitude': '40.808419429471', 'longitude': '-73.93527379367', 'human_address': '{""address"": """", ""city"": """", ""state"": """", ""zip"": """"}'}",11,9,242,1088821,East Harlem (North),,
Compliance,14247847,PC8646893,2,1005430010,1,00543,0010,136,WEST 3 STREET,10012,40.730829692101,-74.0009669799,Manhattan,2026-02-26T10:48:00.000,Rat Activity,2026-02-27T07:46:05.000,"{'latitude': '40.730829692101', 'longitude': '-74.0009669799', 'human_address': '{""address"": """", ""city"": """", ""state"": """", ""zip"": """"}'}",2,2,65,1008740,Greenwich Village,,
Treatments,3064537,PC8561577,9,1020730007,1,02073,0007,557,West 141 St,10031,40.823482283565,-73.951344953751,Manhattan,2026-02-26T10:50:19.000,Bait applied,2026-02-27T08:49:18.000,"{'latitude': '40.823482283565', 'longitude': '-73.951344953751', 'human_address': '{""address"": """", ""city"": """", ""state"": """", ""zip"": """"}'}",9,7,225,1061779,Hamilton Heights-Sugar Hill,,
Initial,14247784,PC8670776,1,,1,02001,0110,2337,JOE DIMAGGIO HIGHWAY,,0.00000000000000000000,0.00000000000000000000,Manhattan,2026-02-26T10:54:46.000,Rat Activity,2026-02-27T16:07:57.000,"{'latitude': '0.0', 'longitude': '0.0', 'human_address': '{""address"": """", ""city"": """", ""state"": """", ""zip"": """"}'}",,,,,,,
Treatments,3064538,PC8561578,9,1020730008,1,02073,0008,553,West 141 St,10031,40.823460301136,-73.951287159062,Manhattan,2026-02-26T11:00:50.000,Bait applied,2026-02-27T08:08:12.000,"{'latitude': '40.823460301136', 'longitude': '-73.951287159062', 'human_address': '{""address"": """", ""city"": """", ""state"": """", ""zip"": """"}'}",9,7,225,1061780,Hamilton Heights-Sugar Hill,,
Compliance,14247817,PC8654208,2,3008700009,3,00870,0009,432,PROSPECT AVENUE,11215,40.659829473339,-73.983434734275,Brooklyn,2026-02-26T11:05:00.000,Failed for Other R,2026-02-27T10:51:27.000,"{'latitude': '40.659829473339', 'longitude': '-73.983434734275', 'human_address': '{""address"": """", ""city"": """", ""state"": """", ""zip"": """"}'}",7,39,169,3016561,Windsor Terrace-South Slope,988846,179673
Stoppage,3064519,PC8656748,1,,1,02011,0048,126,West 143,,0.00000000000000000000,0.00000000000000000000,Manhattan,2026-02-26T11:08:00.000,Stoppage done,2026-02-27T09:53:57.000,"{'latitude': '0.0', 'longitude': '0.0', 'human_address': '{""address"": """", ""city"": """", ""state"": """", ""zip"": """"}'}",,,,,,,
Treatments,3064539,PC8557859,10,1020740061,1,02074,0061,3488,Broadway,10031,40.824788900715,-73.95162944134,Manhattan,2026-02-26T11:10:25.000,Bait applied,2026-02-27T08:07:58.000,"{'latitude': '40.824788900715', 'longitude': '-73.95162944134', 'human_address': '{""address"": """", ""city"": """", ""state"": """", ""zip"": """"}'}",9,7,229,1061873,Hamilton Heights-Sugar Hill,,
Treatments,3064586,PC8560501,32,1020750001,1,02075,0001,3502,Broadway,10031,40.825269083716,-73.951282216525,Manhattan,2026-02-26T11:13:00.000,Bait applied,2026-02-27T09:54:13.000,"{'latitude': '40.825269083716', 'longitude': '-73.951282216525', 'human_address': '{""address"": """", ""city"": """", ""state"": """", ""zip"": """"}'}",9,7,229,1061879,Hamilton Heights-Sugar Hill,,
Initial,14247951,PC8669984,1,1010580004,1,01058,0004,692,10 AVENUE,10019,40.763645821342,-73.992527468556,Manhattan,2026-02-26T11:15:59.000,Failed for Rat Act,2026-02-27T07:20:02.000,"{'latitude': '40.763645821342', 'longitude': '-73.992527468556', 'human_address': '{""address"": """", ""city"": """", ""state"": """", ""zip"": """"}'}",4,3,127,1026582,Hell's Kitchen,986320,217496
Treatments,3064587,PC8560502,30,1020750001,1,02075,0001,3502,Broadway,10031,40.825269083716,-73.951282216525,Manhattan,2026-02-26T11:18:00.000,Bait applied,2026-02-27T09:52:13.000,"{'latitude': '40.825269083716', 'longitude': '-73.951282216525', 'human_address': '{""address"": """", ""city"": """", ""state"": """", ""zip"": """"}'}",9,7,229,1061879,Hamilton Heights-Sugar Hill,,
Compliance,14247904,PC8603599,2,2025230165,2,02523,0165,985,SUMMIT AVENUE,10452,40.832795411513,-73.930440172456,Bronx,2026-02-26T11:18:58.000,Rat Activity,2026-02-27T10:26:46.000,"{'latitude': '40.832795411513', 'longitude': '-73.930440172456', 'human_address': '{""address"": """", ""city"": """", ""state"": """", ""zip"": """"}'}",4,16,189,2120269,Highbridge,1003499,242697
Initial,14247787,PC8670351,1,1020010038,1,02001,0038,614,WEST 135 STREET,10031,40.820385265486,-73.955787614767,Manhattan,2026-02-26T11:20:46.000,Rat Activity,2026-02-27T16:09:46.000,"{'latitude': '40.820385265486', 'longitude': '-73.955787614767', 'human_address': '{""address"": """", ""city"": """", ""state"": """", ""zip"": """"}'}",9,7,22302,1079750,Manhattanville-West Harlem,,
Treatments,3064540,PC8557856,8,1020740061,1,02074,0061,3488,Broadway,10031,40.824788900715,-73.95162944134,Manhattan,2026-02-26T11:20:56.000,Bait applied,2026-02-27T08:07:31.000,"{'latitude': '40.824788900715', 'longitude': '-73.95162944134', 'human_address': '{""address"": """", ""city"": """", ""state"": """", ""zip"": """"}'}",9,7,229,1061873,Hamilton Heights-Sugar Hill,,
Treatments,3064588,PC8560503,26,1020900029,1,02090,0029,3501,Broadway,10031,40.825227935583,-73.95133644586,Manhattan,2026-02-26T11:23:00.000,Bait applied,2026-02-27T09:50:27.000,"{'latitude': '40.825227935583', 'longitude': '-73.95133644586', 'human_address': '{""address"": """", ""city"": """", ""state"": """", ""zip"": """"}'}",9,7,229,1062361,Hamilton Heights-Sugar Hill,,
Stoppage,3064517,PC8656750,1,1020110055,1,02011,0055,142,West 143 Street,10030,40.819759841694,-73.938684208511,Manhattan,2026-02-26T11:23:00.000,Stoppage done,2026-02-27T09:54:06.000,"{'latitude': '40.819759841694', 'longitude': '-73.938684208511', 'human_address': '{""address"": """", ""city"": """", ""state"": """", ""zip"": """"}'}",10,9,232,1087785,Harlem (North),,
Initial,14247702,PC8658762,1,4034380016,4,03438,0016,1812,MENAHAN STREET,11385,40.704840124583,-73.910351306144,Queens,2026-02-26T11:26:54.000,Rat Activity,2026-02-27T11:29:07.000,"{'latitude': '40.704840124583', 'longitude': '-73.910351306144', 'human_address': '{""address"": """", ""city"": """", ""state"": """", ""zip"": """"}'}",5,34,547,4082107,Ridgewood,1009106,196084
Treatments,3064541,PC8557893,8,1020760016,1,02076,0016,541,West 144 St,10031,40.82506510973,-73.949287844693,Manhattan,2026-02-26T11:30:28.000,Bait applied,2026-02-27T08:06:59.000,"{'latitude': '40.82506510973', 'longitude': '-73.949287844693', 'human_address': '{""address"": """", ""city"": """", ""state"": """", ""zip"": """"}'}",9,7,229,1061902,Hamilton Heights-Sugar Hill,,
Initial,14247833,PC8673349,1,4006270007,4,00627,0007,28-25,33 STREET,11102,40.767040222072,-73.919039812593,Queens,2026-02-26T11:31:00.000,Rat Activity,2026-02-27T11:39:33.000,"{'latitude': '40.767040222072', 'longitude': '-73.919039812593', 'human_address': '{""address"": """", ""city"": """", ""state"": """", ""zip"": """"}'}",1,22,6501,4009135,Astoria (Central),1006676,218743
Treatments,3064590,PC8560505,29,1020750061,1,02075,0061,3512,Broadway,10031,40.825510545646,-73.951104987931,Manhattan,2026-02-26T11:33:00.000,Bait applied,2026-02-27T09:35:27.000,"{'latitude': '40.825510545646', 'longitude': '-73.951104987931', 'human_address': '{""address"": """", ""city"": """", ""state"": """", ""zip"": """"}'}",9,7,229,1061895,Hamilton Heights-Sugar Hill,,
Treatments,3064551,PC8560507,29,1020900036,1,02090,0036,3513,Broadway,10031,40.825601103613,-73.951061561613,Manhattan,2026-02-26T11:33:00.000,Bait applied,2026-02-27T12:55:12.000,"{'latitude': '40.825601103613', 'longitude': '-73.951061561613', 'human_address': '{""address"": """", ""city"": """", ""state"": """", ""zip"": """"}'}",9,7,229,1062362,Hamilton Heights-Sugar Hill,,
Initial,14247942,PC8669100,1,2030740050,2,03074,0050,663,CRESCENT AVENUE,10458,40.854187948703,-73.885871871429,Bronx,2026-02-26T11:37:35.000,Failed for Other R,2026-02-27T10:56:13.000,"{'latitude': '40.854187948703', 'longitude': '-73.885871871429', 'human_address': '{""address"": """", ""city"": """", ""state"": """", ""zip"": """"}'}",6,15,391,2012176,Belmont,,
Compliance,14247814,PC8665116,2,2025100074,2,02510,0074,1201,SHAKESPEARE AVENUE,10452,40.836831143033,-73.923330997045,Bronx,2026-02-26T11:37:50.000,Failed for Rat Act,2026-02-27T13:13:41.000,"{'latitude': '40.836831143033', 'longitude': '-73.923330997045', 'human_address': '{""address"": """", ""city"": """", ""state"": """", ""zip"": """"}'}",4,16,199,2003174,Highbridge,1005467,244208
Treatments,3064591,PC8560508,24,1020900036,1,02090,0036,3513,Broadway,10031,40.825601103613,-73.951061561613,Manhattan,2026-02-26T11:38:00.000,Bait applied,2026-02-27T09:26:30.000,"{'latitude': '40.825601103613', 'longitude': '-73.951061561613', 'human_address': '{""address"": """", ""city"": """", ""state"": """", ""zip"": """"}'}",9,7,229,1062362,Hamilton Heights-Sugar Hill,,
Treatments,3064553,PC8560506,18,1020750061,1,02075,0061,3512,Broadway,10031,40.825510545646,-73.951104987931,Manhattan,2026-02-26T11:38:50.000,Bait applied,2026-02-27T09:14:42.000,"{'latitude': '40.825510545646', 'longitude': '-73.951104987931', 'human_address': '{""address"": """", ""city"": """", ""state"": """", ""zip"": """"}'}",9,7,229,1061895,Hamilton Heights-Sugar Hill,,
Treatments,3064542,PC8560174,9,1020900019,1,02090,0019,619,West 143 St,10031,40.825351686306,-73.95190002663,Manhattan,2026-02-26T11:40:44.000,Bait applied,2026-02-27T08:02:40.000,"{'latitude': '40.825351686306', 'longitude': '-73.95190002663', 'human_address': '{""address"": """", ""city"": """", ""state"": """", ""zip"": """"}'}",9,7,229,1062358,Hamilton Heights-Sugar Hill,,
Initial,14247943,PC8669321,1,2030740053,2,03074,0053,659,CRESCENT AVENUE,10458,40.854155148279,-73.88600929234,Bronx,2026-02-26T11:42:15.000,Rat Activity,2026-02-27T10:55:53.000,"{'latitude': '40.854155148279', 'longitude': '-73.88600929234', 'human_address': '{""address"": """", ""city"": """", ""state"": """", ""zip"": """"}'}",6,15,391,2092263,Belmont,,
Initial,14247944,PC8669287,1,2030740034,2,03074,0034,2373,BELMONT AVENUE,10458,40.854249180349,-73.886728487315,Bronx,2026-02-26T11:46:15.000,Failed for Other R,2026-02-27T10:55:33.000,"{'latitude': '40.854249180349', 'longitude': '-73.886728487315', 'human_address': '{""address"": """", ""city"": """", ""state"": """", ""zip"": """"}'}",6,15,391,2012168,Belmont,,
Initial,14247946,PC8669169,1,2030740032,2,03074,0032,2377,BELMONT AVENUE,10458,40.854325965061,-73.886659673662,Bronx,2026-02-26T11:54:15.000,Rat Activity,2026-02-27T10:04:31.000,"{'latitude': '40.854325965061', 'longitude': '-73.886659673662', 'human_address': '{""address"": """", ""city"": """", ""state"": """", ""zip"": """"}'}",6,15,391,2012166,Belmont,,
Compliance,14247952,PC8645177,5,1010830010,1,01083,0010,539,WEST 54 STREET,10019,40.767938567966,-73.991747192178,Manhattan,2026-02-26T11:54:59.000,Rat Activity,2026-02-27T07:28:42.000,"{'latitude': '40.767938567966', 'longitude': '-73.991747192178', 'human_address': '{""address"": """", ""city"": """", ""state"": """", ""zip"": """"}'}",4,6,13502,1000000,Hell's Kitchen,,
Treatments,3064555,PC8558789,32,1021010055,1,02101,0055,675,Riverside Drive,10031,40.826809268533,-73.952198877717,Manhattan,2026-02-26T12:10:50.000,Bait applied,2026-02-27T09:14:41.000,"{'latitude': '40.826809268533', 'longitude': '-73.952198877717', 'human_address': '{""address"": """", ""city"": """", ""state"": """", ""zip"": """"}'}",9,7,229,1000000,Hamilton Heights-Sugar Hill,,
Initial,14247684,PC8670462,1,2031140001,2,03114,0001,765,EAST 183 STREET,10460,40.851418914554,-73.883537927637,Bronx,2026-02-26T12:15:59.000,Rat Activity,2026-02-27T11:22:20.000,"{'latitude': '40.851418914554', 'longitude': '-73.883537927637', 'human_address': '{""address"": """", ""city"": """", ""state"": """", ""zip"": """"}'}",6,15,393,2013031,Belmont,,
Compliance,14247972,PC8641721,2,2031000065,2,03100,0065,711,GARDEN STREET,10457,40.850619331937,-73.885408112308,Bronx,2026-02-26T12:20:46.000,Failed for Rat Act,2026-02-27T11:35:15.000,"{'latitude': '40.850619331937', 'longitude': '-73.885408112308', 'human_address': '{""address"": """", ""city"": """", ""state"": """", ""zip"": """"}'}",6,15,393,2012798,Belmont,,
Initial,14247686,PC8670615,1,2031140004,2,03114,0004,2306,PROSPECT AVENUE,10458,40.851948687781,-73.883576758521,Bronx,2026-02-26T12:27:22.000,Failed for Other R,2026-02-27T11:39:48.000,"{'latitude': '40.851948687781', 'longitude': '-73.883576758521', 'human_address': '{""address"": """", ""city"": """", ""state"": """", ""zip"": """"}'}",6,15,393,2000000,Belmont,,
Treatments,3064548,PC8554034,36,1020770036,1,02077,0036,1734,Amsterdam Ave,10031,40.82574213954,-73.947242198366,Manhattan,2026-02-26T12:37:50.000,Bait applied,2026-02-27T13:01:52.000,"{'latitude': '40.82574213954', 'longitude': '-73.947242198366', 'human_address': '{""address"": """", ""city"": """", ""state"": """", ""zip"": """"}'}",9,7,229,1061946,Hamilton Heights-Sugar Hill,,
Treatments,3064549,PC8554035,38,1020770036,1,02077,0036,1734,Amsterdam Ave,10031,40.82574213954,-73.947242198366,Manhattan,2026-02-26T12:42:50.000,Bait applied,2026-02-27T12:56:06.000,"{'latitude': '40.82574213954', 'longitude': '-73.947242198366', 'human_address': '{""address"": """", ""city"": """", ""state"": """", ""zip"": """"}'}",9,7,229,1061946,Hamilton Heights-Sugar Hill,,
Treatments,3064550,PC8557846,5,1020780019,1,02078,0019,1740,Amsterdam Ave,10031,40.826043959518,-73.947021545774,Manhattan,2026-02-26T12:48:50.000,Bait applied,2026-02-27T12:55:28.000,"{'latitude': '40.826043959518', 'longitude': '-73.947021545774', 'human_address': '{""address"": """", ""city"": """", ""state"": """", ""zip"": """"}'}",9,7,233,1081834,Hamilton Heights-Sugar Hill,,
Treatments,3064552,PC8557848,10,1020780019,1,02078,0019,1740,Amsterdam Ave,10031,40.826043959518,-73.947021545774,Manhattan,2026-02-26T12:53:50.000,Bait applied,2026-02-27T09:14:42.000,"{'latitude': '40.826043959518', 'longitude': '-73.947021545774', 'human_address': '{""address"": """", ""city"": """", ""state"": """", ""zip"": """"}'}",9,7,233,1081834,Hamilton Heights-Sugar Hill,,
Initial,14247778,PC8672070,1,3035820042,3,03582,0042,808,SARATOGA AVENUE,11212,40.660853365642,-73.915305337152,Brooklyn,2026-02-26T13:00:00.000,Rat Activity,2026-02-27T10:23:30.000,"{'latitude': '40.660853365642', 'longitude': '-73.915305337152', 'human_address': '{""address"": """", ""city"": """", ""state"": """", ""zip"": """"}'}",16,41,894,3082027,Brownsville,,
Treatments,3064543,PC8558785,22,1020920026,1,02092,0026,3543,Broadway,10031,40.826569692997,-73.950352630669,Manhattan,2026-02-26T13:00:20.000,Bait applied,2026-02-27T08:02:16.000,"{'latitude': '40.826569692997', 'longitude': '-73.950352630669', 'human_address': '{""address"": """", ""city"": """", ""state"": """", ""zip"": """"}'}",9,7,229,1062380,Hamilton Heights-Sugar Hill,,
Treatments,3064547,PC8580404,19,1020660001,1,02066,0001,1841,Amsterdam Avenue,10031,40.829180107097,-73.944706406458,Manhattan,2026-02-26T13:02:50.000,Bait applied,2026-02-27T13:02:13.000,"{'latitude': '40.829180107097', 'longitude': '-73.944706406458', 'human_address': '{""address"": """", ""city"": """", ""state"": """", ""zip"": """"}'}",9,7,23501,1088260,Hamilton Heights-Sugar Hill,,
Compliance,14247965,PC8585425,9,1017300009,1,01730,0009,45,WEST 132 STREET,10037,40.811468913735,-73.940480075265,Manhattan,2026-02-26T13:08:40.000,Rat Activity,2026-02-27T09:21:14.000,"{'latitude': '40.811468913735', 'longitude': '-73.940480075265', 'human_address': '{""address"": """", ""city"": """", ""state"": """", ""zip"": """"}'}",10,9,212,1053887,Harlem (North),,
Compliance,14247974,PC8637850,2,2030690078,2,03069,0078,612,EAST 180 STREET,10457,40.849269039187,-73.891175712571,Bronx,2026-02-26T13:10:46.000,Failed for Other R,2026-02-27T11:44:52.000,"{'latitude': '40.849269039187', 'longitude': '-73.891175712571', 'human_address': '{""address"": """", ""city"": """", ""state"": """", ""zip"": """"}'}",6,15,373,2012012,Tremont,,
Compliance,14247827,PC8320785,22,2024720028,2,02472,0028,1049,GRAND CONCOURSE,10452,40.831065184443,-73.920381748562,Bronx,2026-02-26T13:10:50.000,Rat Activity,2026-02-27T13:17:58.000,"{'latitude': '40.831065184443', 'longitude': '-73.920381748562', 'human_address': '{""address"": """", ""city"": """", ""state"": """", ""zip"": """"}'}",4,16,195,2002891,Concourse-Concourse Village,,
Treatments,3064560,PC8558795,16,1021010055,1,02101,0055,675,Riverside Drive,10031,40.826809268533,-73.952198877717,Manhattan,2026-02-26T13:13:50.000,Bait applied,2026-02-27T09:14:40.000,"{'latitude': '40.826809268533', 'longitude': '-73.952198877717', 'human_address': '{""address"": """", ""city"": """", ""state"": """", ""zip"": """"}'}",9,7,229,1000000,Hamilton Heights-Sugar Hill,,
Treatments,3064544,PC8554031,12,1020520001,1,02052,0001,319,West 145 St,10039,40.823319278776,-73.943056463838,Manhattan,2026-02-26T13:14:13.000,Bait applied,2026-02-27T08:02:00.000,"{'latitude': '40.823319278776', 'longitude': '-73.943056463838', 'human_address': '{""address"": """", ""city"": """", ""state"": """", ""zip"": """"}'}",10,9,231,1084164,Hamilton Heights-Sugar Hill,,
Treatments,3064558,PC8558793,31,1021010055,1,02101,0055,675,Riverside Drive,10031,40.826809268533,-73.952198877717,Manhattan,2026-02-26T13:18:50.000,Bait applied,2026-02-27T09:14:41.000,"{'latitude': '40.826809268533', 'longitude': '-73.952198877717', 'human_address': '{""address"": """", ""city"": """", ""state"": """", ""zip"": """"}'}",9,7,229,1000000,Hamilton Heights-Sugar Hill,,
Treatments,3064557,PC8558792,29,1021010055,1,02101,0055,675,Riverside Drive,10031,40.826809268533,-73.952198877717,Manhattan,2026-02-26T13:23:50.000,Bait applied,2026-02-27T09:14:41.000,"{'latitude': '40.826809268533', 'longitude': '-73.952198877717', 'human_address': '{""address"": """", ""city"": """", ""state"": """", ""zip"": """"}'}",9,7,229,1000000,Hamilton Heights-Sugar Hill,,
Compliance,14247966,PC8650398,2,1017300064,1,01730,0064,40,WEST  135 STREET,10037,40.813579186302,-73.939643661273,Manhattan,2026-02-26T13:24:00.000,Rat Activity,2026-02-27T09:22:33.000,"{'latitude': '40.813579186302', 'longitude': '-73.939643661273', 'human_address': '{""address"": """", ""city"": """", ""state"": """", ""zip"": """"}'}",10,9,212,1053895,Harlem (North),1000957,235694
Initial,14247955,PC8672365,1,1015400031,1,01540,0031,232,EAST   95 STREET,10128,40.783827554111,-73.94822884661,Manhattan,2026-02-26T13:25:00.000,Failed for Rat Act,2026-02-27T07:31:23.000,"{'latitude': '40.783827554111', 'longitude': '-73.94822884661', 'human_address': '{""address"": """", ""city"": """", ""state"": """", ""zip"": """"}'}",8,5,15601,1049229,Upper East Side-Yorkville,998587,224853
Treatments,3064545,PC8554032,18,1020520001,1,02052,0001,319,West 145 St,10039,40.823319278776,-73.943056463838,Manhattan,2026-02-26T13:25:55.000,Bait applied,2026-02-27T08:01:45.000,"{'latitude': '40.823319278776', 'longitude': '-73.943056463838', 'human_address': '{""address"": """", ""city"": """", ""state"": """", ""zip"": """"}'}",10,9,231,1084164,Hamilton Heights-Sugar Hill,,
Compliance,14247905,PC8603767,2,2025150059,2,02515,0059,1175,WOODYCREST AVENUE,10452,40.836755281432,-73.924830854202,Bronx,2026-02-26T13:26:34.000,Rat Activity,2026-02-27T10:25:57.000,"{'latitude': '40.836755281432', 'longitude': '-73.924830854202', 'human_address': '{""address"": """", ""city"": """", ""state"": """", ""zip"": """"}'}",4,16,199,2000000,Highbridge,,
Compliance,14247976,PC8637633,2,2030690102,2,03069,0102,617,EAST 179 STREET,10457,40.847765639196,-73.891933612973,Bronx,2026-02-26T13:28:46.000,Rat Activity,2026-02-27T11:53:55.000,"{'latitude': '40.847765639196', 'longitude': '-73.891933612973', 'human_address': '{""address"": """", ""city"": """", ""state"": """", ""zip"": """"}'}",6,15,373,2092249,Tremont,,
Treatments,3064559,PC8558794,32,1021010055,1,02101,0055,675,Riverside Drive,10031,40.826809268533,-73.952198877717,Manhattan,2026-02-26T13:28:50.000,Bait applied,2026-02-27T09:14:41.000,"{'latitude': '40.826809268533', 'longitude': '-73.952198877717', 'human_address': '{""address"": """", ""city"": """", ""state"": """", ""zip"": """"}'}",9,7,229,1000000,Hamilton Heights-Sugar Hill,,
Treatments,3064554,PC8554030,11,1020520001,1,02052,0001,319,West 145 St,10039,40.823319278776,-73.943056463838,Manhattan,2026-02-26T13:38:50.000,Bait applied,2026-02-27T09:14:42.000,"{'latitude': '40.823319278776', 'longitude': '-73.943056463838', 'human_address': '{""address"": """", ""city"": """", ""state"": """", ""zip"": """"}'}",10,9,231,1084164,Hamilton Heights-Sugar Hill,,
Initial,14247977,PC8675229,1,2030690103,2,03069,0103,615,EAST 179 STREET,10457,40.847784889702,-73.891973341134,Bronx,2026-02-26T13:40:46.000,Failed for Other R,2026-02-27T11:57:04.000,"{'latitude': '40.847784889702', 'longitude': '-73.891973341134', 'human_address': '{""address"": """", ""city"": """", ""state"": """", ""zip"": """"}'}",6,15,373,2092250,Tremont,,
Compliance,14247828,PC8604364,6,2024610090,2,02461,0090,1000,GRAND CONCOURSE,10451,40.829783867971,-73.921073470443,Bronx,2026-02-26T13:40:50.000,Failed for Rat Act,2026-02-27T13:23:54.000,"{'latitude': '40.829783867971', 'longitude': '-73.921073470443', 'human_address': '{""address"": """", ""city"": """", ""state"": """", ""zip"": """"}'}",4,16,18301,2002822,Concourse-Concourse Village,1006092,241602
Compliance,14247906,PC8617133,2,2024780064,2,02513,0033,101,EAST 165 STREET,10452,40.831494550107,-73.922112154573,Bronx,2026-02-26T13:43:03.000,Rat Activity,2026-02-27T10:25:35.000,"{'latitude': '40.831494550107', 'longitude': '-73.922112154573', 'human_address': '{""address"": """", ""city"": """", ""state"": """", ""zip"": """"}'}",4,16,195,2002953,Concourse-Concourse Village,,
Compliance,14247967,PC8635173,2,1020090029,1,02009,0029,607,LENOX AVENUE,10037,40.817552889181,-73.938350254251,Manhattan,2026-02-26T13:43:40.000,Failed for Rat Act,2026-02-27T09:25:50.000,"{'latitude': '40.817552889181', 'longitude': '-73.938350254251', 'human_address': '{""address"": """", ""city"": """", ""state"": """", ""zip"": """"}'}",10,9,230,1060066,Harlem (North),,
Compliance,14247968,PC8635339,2,1020090039,1,02009,0039,108,WEST 141 STREET,10030,40.818121211408,-73.938649595261,Manhattan,2026-02-26T13:58:54.000,Rat Activity,2026-02-27T09:26:55.000,"{'latitude': '40.818121211408', 'longitude': '-73.938649595261', 'human_address': '{""address"": """", ""city"": """", ""state"": """", ""zip"": """"}'}",10,9,230,1060068,Harlem (North),,
Compliance,14247823,PC8654183,2,3057810037,3,05781,0037,6008,4 AVENUE,11220,40.640717262798,-74.018560302416,Brooklyn,2026-02-26T14:15:00.000,Rat Activity,2026-02-27T11:18:16.000,"{'latitude': '40.640717262798', 'longitude': '-74.018560302416', 'human_address': '{""address"": """", ""city"": """", ""state"": """", ""zip"": """"}'}",7,38,72,3143384,Sunset Park (West),979099,172710
Initial,14247956,PC8673345,1,1015390008,1,01539,0008,220,EAST 94 STREET,10128,40.783597618225,-73.949630096052,Manhattan,2026-02-26T14:25:59.000,Rat Activity,2026-02-27T07:33:18.000,"{'latitude': '40.783597618225', 'longitude': '-73.949630096052', 'human_address': '{""address"": """", ""city"": """", ""state"": """", ""zip"": """"}'}",8,5,15403,1089342,Upper East Side-Yorkville,998199,224769
Initial,14247913,PC8673375,1,1021790005,1,02179,0005,1380,RIVERSIDE DRIVE,10033,40.852289130026,-73.941357938002,Manhattan,2026-02-26T14:30:35.000,Rat Activity,2026-02-27T09:54:13.000,"{'latitude': '40.852289130026', 'longitude': '-73.941357938002', 'human_address': '{""address"": """", ""city"": """", ""state"": """", ""zip"": """"}'}",12,10,275,1064332,Washington Heights (North),1000473,249797
Initial,14247854,PC8671685,1,3017850038,3,01785,0038,230,TOMPKINS AVENUE,11216,40.690987366951,-73.94544528207,Brooklyn,2026-02-26T14:45:00.000,Rat Activity,2026-02-27T09:25:05.000,"{'latitude': '40.690987366951', 'longitude': '-73.94544528207', 'human_address': '{""address"": """", ""city"": """", ""state"": """", ""zip"": """"}'}",3,36,261,3049792,Bedford-Stuyvesant (West),999379,191029
Initial,14247856,PC8674468,1,,3,01779,0027,,,11216,,,Brooklyn,2026-02-26T15:00:00.000,Failed for Rat Act,2026-02-27T09:14:50.000,,,,,,,,
Treatments,3064561,PC8596824,9,1020500183,1,02050,0183,409,West 141 St,10031,40.821429790601,-73.946465208188,Manhattan,2026-02-26T15:29:53.000,Bait applied,2026-02-27T08:00:28.000,"{'latitude': '40.821429790601', 'longitude': '-73.946465208188', 'human_address': '{""address"": """", ""city"": """", ""state"": """", ""zip"": """"}'}",9,9,227,1081816,Hamilton Heights-Sugar Hill,,
Initial,14248000,PC8668694,1,2037800019,2,03780,0019,1258,METCALF AVENUE,10472,40.830896258866,-73.872946435503,Bronx,2026-02-27T07:45:24.000,Failed for Rat Act,2026-02-27T15:07:22.000,"{'latitude': '40.830896258866', 'longitude': '-73.872946435503', 'human_address': '{""address"": """", ""city"": """", ""state"": """", ""zip"": """"}'}",9,18,64,2025412,Soundview-Bruckner-Bronx River,1019410,242023
Initial,14248001,PC8672809,1,2038010036,2,03801,0036,2070,POWELL AVENUE,10472,40.830720529049,-73.854387445166,Bronx,2026-02-27T08:40:24.000,Failed for Other R,2026-02-27T15:10:12.000,"{'latitude': '40.830720529049', 'longitude': '-73.854387445166', 'human_address': '{""address"": """", ""city"": """", ""state"": """", ""zip"": """"}'}",9,18,78,2026162,Castle Hill-Unionport,1024546,241967
Compliance,14248030,PC8642069,2,2024550001,2,02455,0001,201,EAST  163 STREET,10451,40.828059475063,-73.920067377312,Bronx,2026-02-27T09:10:50.000,Failed for Other R,2026-02-27T15:19:44.000,"{'latitude': '40.828059475063', 'longitude': '-73.920067377312', 'human_address': '{""address"": """", ""city"": """", ""state"": """", ""zip"": """"}'}",4,16,18302,2002708,Concourse-Concourse Village,1006371,240974
Initial,14248002,PC8672882,1,2036630002,2,03663,0002,1810,BRUCKNER BOULEVARD,10473,40.825133299435,-73.86422420506,Bronx,2026-02-27T09:15:24.000,Failed for Other R,2026-02-27T15:11:27.000,"{'latitude': '40.825133299435', 'longitude': '-73.86422420506', 'human_address': '{""address"": """", ""city"": """", ""state"": """", ""zip"": """"}'}",9,18,42,2092766,Soundview-Clason Point,1021827,239927
Treatments,3064618,PC8652224,3,2031690059,2,03169,0059,2055,CRESTON AVENUE,10453,40.853065904393,-73.904536980604,Bronx,2026-02-27T09:30:42.000,Bait applied,2026-02-27T12:12:42.000,"{'latitude': '40.853065904393', 'longitude': '-73.904536980604', 'human_address': '{""address"": """", ""city"": """", ""state"": """", ""zip"": """"}'}",5,14,241,2013846,Mount Hope,,
Initial,14248031,PC8674092,1,2024490079,2,02449,0079,265,MCCLELLAN STREET,10456,40.831777820865,-73.915155582076,Bronx,2026-02-27T09:38:50.000,Rat Activity,2026-02-27T14:24:32.000,"{'latitude': '40.831777820865', 'longitude': '-73.915155582076', 'human_address': '{""address"": """", ""city"": """", ""state"": """", ""zip"": """"}'}",4,16,18101,2002607,Concourse-Concourse Village,1007729,242330
Initial,14248003,PC8672872,1,2027620080,2,02762,0080,822,FAILE STREET,10474,40.817503122768,-73.88725733141,Bronx,2026-02-27T09:45:24.000,Failed for Other R,2026-02-27T15:11:55.000,"{'latitude': '40.817503122768', 'longitude': '-73.88725733141', 'human_address': '{""address"": """", ""city"": """", ""state"": """", ""zip"": """"}'}",2,17,11502,2006449,Hunts Point,1015456,237138
Compliance,14248007,PC8618905,2,2028920065,2,02892,0065,1801,CARTER AVENUE,10457,40.846029552781,-73.902635095151,Bronx,2026-02-27T10:30:24.000,Failed for Other R,2026-02-27T15:15:03.000,"{'latitude': '40.846029552781', 'longitude': '-73.902635095151', 'human_address': '{""address"": """", ""city"": """", ""state"": """", ""zip"": """"}'}",5,15,231,2009387,Mount Hope,,
Compliance,14248033,PC8634444,2,2027190039,2,02719,0039,1122,FOX STREET,10459,40.827530456507,-73.893841958759,Bronx,2026-02-27T10:48:50.000,Rat Activity,2026-02-27T15:20:40.000,"{'latitude': '40.827530456507', 'longitude': '-73.893841958759', 'human_address': '{""address"": """", ""city"": """", ""state"": """", ""zip"": """"}'}",3,17,125,2005702,Crotona Park East,1013629,240789
Compliance,14248008,PC8629280,2,2028290009,2,02829,0009,54,EAST 179 STREET,10453,40.852118602049,-73.907440982341,Bronx,2026-02-27T11:05:24.000,Failed for Other R,2026-02-27T15:16:46.000,"{'latitude': '40.852118602049', 'longitude': '-73.907440982341', 'human_address': '{""address"": """", ""city"": """", ""state"": """", ""zip"": """"}'}",5,14,241,2007926,Mount Hope,,
Initial,14248037,PC8670003,1,2029980166,2,02998,0166,985,EAST  174 STREET,10460,40.836301965914,-73.884594447799,Bronx,2026-02-27T11:58:50.000,Rat Activity,2026-02-27T15:13:38.000,"{'latitude': '40.836301965914', 'longitude': '-73.884594447799', 'human_address': '{""address"": """", ""city"": """", ""state"": """", ""zip"": """"}'}",3,17,161,2010816,Crotona Park East,1016184,243988
Initial,14248039,PC8672310,1,2028890001,2,02889,0001,1680,CLAY AVENUE,10457,40.843594130528,-73.904908438763,Bronx,2026-02-27T12:41:50.000,Failed for Other R,2026-02-27T14:21:11.000,"{'latitude': '40.843594130528', 'longitude': '-73.904908438763', 'human_address': '{""address"": """", ""city"": """", ""state"": """", ""zip"": """"}'}",4,15,165,2009326,Claremont Village-Claremont (East),1010556,246575
