inspection_type,job_ticket_or_work_order_id,job_id,job_progress,bbl,boro_code,block,lot,house_number,street_name,zip_code,latitude,longitude,borough,inspection_date,result,approved_date,location,community_board,council_district,census_tract,bin,nta,x_coord,y_coord
Initial,14304595,PC8723757,1,3034060061,3,3406,61,1217,HALSEY STREET,11237,40.693230501097,-73.907857135341,Brooklyn,2026-05-18T08:00:01.000,Failed for Rat Activity,2026-05-19T10:51:52.000,"{'latitude': '40.693230501097', 'longitude': '-73.907857135341', 'human_address': '{""address"": """", ""city"": """", ""state"": """", ""zip"": """"}'}",4,37,437,3078698,Bushwick (East),,
Initial,14304465,PC8712884,1,3032140023,3,3214,23,716,BUSHWICK AVENUE,11221,40.69637007295,-73.930593876736,Brooklyn,2026-05-18T08:00:12.000,Failed for Rat Activity,2026-05-21T15:09:30.000,"{'latitude': '40.69637007295', 'longitude': '-73.930593876736', 'human_address': '{""address"": """", ""city"": """", ""state"": """", ""zip"": """"}'}",4,34,393,3325447,Bushwick (West),,
Treatments,3076484,PC8693194,3,3016100021,3,1610,21,920,LAFAYETTE AVENUE,11221,40.691679403412,-73.935549827622,Brooklyn,2026-05-18T08:00:26.000,Bait applied,2026-05-18T13:54:07.000,"{'latitude': '40.691679403412', 'longitude': '-73.935549827622', 'human_address': '{""address"": """", ""city"": """", ""state"": """", ""zip"": """"}'}",3,36,291,3043590,Bedford-Stuyvesant (East),,
Compliance,14304918,PC8704446,2,1005770018,1,577,18,44,West 14 street,10011,40.736610065458,-73.995092510478,Manhattan,2026-05-18T08:00:59.000,Failed for Rat Activity,2026-05-19T08:28:55.000,"{'latitude': '40.736610065458', 'longitude': '-73.995092510478', 'human_address': '{""address"": """", ""city"": """", ""state"": """", ""zip"": """"}'}",2,2,63,1009712,Greenwich Village,,
Initial,14304737,PC8723750,1,3034090002,3,3409,2,1285,BUSHWICK AVENUE,11207,40.686798317597,-73.913390057869,Brooklyn,2026-05-18T08:02:45.000,Failed for Rat Activity,2026-05-20T06:21:37.000,"{'latitude': '40.686798317597', 'longitude': '-73.913390057869', 'human_address': '{""address"": """", ""city"": """", ""state"": """", ""zip"": """"}'}",4,37,401,3078753,Bushwick (East),,
Compliance,14304678,PC8326367,18,3011480020,3,1148,20,802,BERGEN STREET,11238,40.677917646722,-73.961117267389,Brooklyn,2026-05-18T08:04:09.000,Failed for Rat Activity,2026-05-19T09:03:59.000,"{'latitude': '40.677917646722', 'longitude': '-73.961117267389', 'human_address': '{""address"": """", ""city"": """", ""state"": """", ""zip"": """"}'}",8,35,305,3389676,Crown Heights (North),,
Initial,14304597,PC8723651,1,3034060060,3,3406,60,1219,HALSEY STREET,11237,40.693249700003,-73.907839078234,Brooklyn,2026-05-18T08:06:01.000,Failed for Rat Activity,2026-05-19T10:52:47.000,"{'latitude': '40.693249700003', 'longitude': '-73.907839078234', 'human_address': '{""address"": """", ""city"": """", ""state"": """", ""zip"": """"}'}",4,37,437,3078697,Bushwick (East),,
Initial,14304740,PC8723633,1,3034090006,3,3409,6,1277,BUSHWICK AVENUE,11207,40.686905507961,-73.913581022845,Brooklyn,2026-05-18T08:06:45.000,Failed for Rat Activity,2026-05-20T06:22:54.000,"{'latitude': '40.686905507961', 'longitude': '-73.913581022845', 'human_address': '{""address"": """", ""city"": """", ""state"": """", ""zip"": """"}'}",4,37,401,3078757,Bushwick (East),,
Initial,14305029,PC8720812,1,3016390006,3,1639,6,486,MONROE STREET,11221,40.686882978347,-73.938165042836,Brooklyn,2026-05-18T08:09:00.000,Failed for Rat Activity,2026-05-19T08:56:33.000,"{'latitude': '40.686882978347', 'longitude': '-73.938165042836', 'human_address': '{""address"": """", ""city"": """", ""state"": """", ""zip"": """"}'}",3,36,277,3044770,Bedford-Stuyvesant (East),,
Initial,14304604,PC8723600,1,3034060057,3,3406,57,1229,HALSEY STREET,11237,40.693348436362,-73.907745182634,Brooklyn,2026-05-18T08:12:01.000,Failed for Rat Activity,2026-05-19T10:54:14.000,"{'latitude': '40.693348436362', 'longitude': '-73.907745182634', 'human_address': '{""address"": """", ""city"": """", ""state"": """", ""zip"": """"}'}",4,37,437,3078694,Bushwick (East),,
Treatments,3076485,PC8695928,3,3016100043,3,1610,43,956,LAFAYETTE AVENUE,11221,40.691813244788,-73.934399378819,Brooklyn,2026-05-18T08:14:30.000,Bait applied,2026-05-18T13:52:49.000,"{'latitude': '40.691813244788', 'longitude': '-73.934399378819', 'human_address': '{""address"": """", ""city"": """", ""state"": """", ""zip"": """"}'}",3,36,291,3043606,Bedford-Stuyvesant (East),,
Initial,14304606,PC8723677,1,3034060055,3,3406,55,1235,HALSEY STREET,11237,40.693406030115,-73.907687404989,Brooklyn,2026-05-18T08:17:01.000,Failed for Rat Activity,2026-05-19T10:57:34.000,"{'latitude': '40.693406030115', 'longitude': '-73.907687404989', 'human_address': '{""address"": """", ""city"": """", ""state"": """", ""zip"": """"}'}",4,37,437,3078692,Bushwick (East),,
Initial,14305031,PC8720674,1,3016390007,3,1639,7,488,MONROE STREET,11221,40.686891177639,-73.938100131736,Brooklyn,2026-05-18T08:18:00.000,Failed for Rat Activity,2026-05-19T08:59:18.000,"{'latitude': '40.686891177639', 'longitude': '-73.938100131736', 'human_address': '{""address"": """", ""city"": """", ""state"": """", ""zip"": """"}'}",3,36,277,3044771,Bedford-Stuyvesant (East),,
Initial,14304748,PC8723685,1,3034090014,3,3409,14,1040,HALSEY STREET,11207,40.68750925729,-73.913446823401,Brooklyn,2026-05-18T08:19:45.000,Failed for Other Reason,2026-05-20T06:23:45.000,"{'latitude': '40.68750925729', 'longitude': '-73.913446823401', 'human_address': '{""address"": """", ""city"": """", ""state"": """", ""zip"": """"}'}",4,37,401,3000000,Bushwick (East),,
Initial,14304607,PC8723737,1,3034060054,3,3406,54,1239,HALSEY STREET,11237,40.693444424966,-73.90764768447,Brooklyn,2026-05-18T08:21:01.000,Failed for Rat Activity and Other Reason,2026-05-19T10:56:17.000,"{'latitude': '40.693444424966', 'longitude': '-73.90764768447', 'human_address': '{""address"": """", ""city"": """", ""state"": """", ""zip"": """"}'}",4,37,437,3078691,Bushwick (East),,
Initial,14304801,PC8720864,1,3016420007,3,1642,7,165,MALCOLM X BOULEVARD,11221,40.687589164993,-73.929975645042,Brooklyn,2026-05-18T08:23:00.000,Failed for Rat Activity,2026-05-19T15:42:21.000,"{'latitude': '40.687589164993', 'longitude': '-73.929975645042', 'human_address': '{""address"": """", ""city"": """", ""state"": """", ""zip"": """"}'}",3,36,385,3044978,Bedford-Stuyvesant (East),,
Initial,14305119,PC8718520,1,2031990038,2,3199,38,2401,DAVIDSON AVENUE,10468,40.861658435145,-73.903071263883,Bronx,2026-05-18T08:23:02.000,Failed for Rat Activity and Other Reason,2026-05-21T12:44:56.000,"{'latitude': '40.861658435145', 'longitude': '-73.903071263883', 'human_address': '{""address"": """", ""city"": """", ""state"": """", ""zip"": """"}'}",7,14,253,2014312,University Heights (North)-Fordham,,
Treatments,3076469,PC8556825,14,3015080020,3,1508,20,380,BAINBRIDGE STREET,11233,40.682041983287,-73.921515812802,Brooklyn,2026-05-18T08:30:48.000,Bait applied,2026-05-18T14:07:43.000,"{'latitude': '40.682041983287', 'longitude': '-73.921515812802', 'human_address': '{""address"": """", ""city"": """", ""state"": """", ""zip"": """"}'}",3,41,379,3040773,Bedford-Stuyvesant (East),,
Initial,14304936,PC8722292,1,4006840044,4,684,44,25-01,STEINWAY STREET,11103,40.767581227281,-73.911974119383,Queens,2026-05-18T08:30:48.000,Failed for Rat Activity and Other Reason,2026-05-19T08:52:29.000,"{'latitude': '40.767581227281', 'longitude': '-73.911974119383', 'human_address': '{""address"": """", ""city"": """", ""state"": """", ""zip"": """"}'}",1,22,143,4011399,Astoria (East)-Woodside (North),,
Treatments,3076462,PC8655346,3,3014870029,3,1487,29,900,JEFFERSON AVENUE,11221,40.686524328973,-73.921701620343,Brooklyn,2026-05-18T08:31:00.000,Bait applied,2026-05-18T13:26:49.000,"{'latitude': '40.686524328973', 'longitude': '-73.921701620343', 'human_address': '{""address"": """", ""city"": """", ""state"": """", ""zip"": """"}'}",3,41,375,3039860,Bedford-Stuyvesant (East),,
Initial,14305035,PC8720952,1,3016390011,3,1639,11,494,MONROE STREET,11221,40.686913028566,-73.93790179516,Brooklyn,2026-05-18T08:31:00.000,Failed for Rat Activity,2026-05-19T09:03:55.000,"{'latitude': '40.686913028566', 'longitude': '-73.93790179516', 'human_address': '{""address"": """", ""city"": """", ""state"": """", ""zip"": """"}'}",3,36,277,3044775,Bedford-Stuyvesant (East),,
Initial,14304613,PC8723670,1,3034060046,3,3406,46,1317,HALSEY STREET,11237,40.69420412577,-73.90690376198,Brooklyn,2026-05-18T08:33:01.000,Failed for Other Reason,2026-05-19T11:02:30.000,"{'latitude': '40.69420412577', 'longitude': '-73.90690376198', 'human_address': '{""address"": """", ""city"": """", ""state"": """", ""zip"": """"}'}",4,37,437,3078685,Bushwick (East),,
Initial,14306675,PC8718814,1,2031990044,2,3199,44,2391,DAVIDSON AVENUE,10468,40.861480125342,-73.903187212824,Bronx,2026-05-18T08:33:30.000,Failed for Rat Activity and Other Reason,2026-05-22T10:12:11.000,"{'latitude': '40.861480125342', 'longitude': '-73.903187212824', 'human_address': '{""address"": """", ""city"": """", ""state"": """", ""zip"": """"}'}",7,14,253,2014313,University Heights (North)-Fordham,,
Initial,14304938,PC8722394,1,4006840045,4,684,45,40-10,25 AVENUE,11103,40.767866326481,-73.911511641899,Queens,2026-05-18T08:37:50.000,Failed for Rat Activity,2026-05-19T08:53:39.000,"{'latitude': '40.767866326481', 'longitude': '-73.911511641899', 'human_address': '{""address"": """", ""city"": """", ""state"": """", ""zip"": """"}'}",1,22,143,4011400,Astoria (East)-Woodside (North),,
Initial,14304807,PC8720692,1,3016420015,3,1642,15,690,MONROE STREET,11221,40.687934416484,-73.92901613693,Brooklyn,2026-05-18T08:40:00.000,Failed for Rat Activity,2026-05-19T15:53:44.000,"{'latitude': '40.687934416484', 'longitude': '-73.92901613693', 'human_address': '{""address"": """", ""city"": """", ""state"": """", ""zip"": """"}'}",3,36,385,3044983,Bedford-Stuyvesant (East),,
Treatments,3076463,PC8654983,3,3014870030,3,1487,30,902,JEFFERSON AVENUE,11221,40.686529779099,-73.921643922253,Brooklyn,2026-05-18T08:42:00.000,Bait applied,2026-05-18T13:25:11.000,"{'latitude': '40.686529779099', 'longitude': '-73.921643922253', 'human_address': '{""address"": """", ""city"": """", ""state"": """", ""zip"": """"}'}",3,41,375,3039861,Bedford-Stuyvesant (East),,
Treatments,3076470,PC8658553,8,3016820077,3,1682,77,223,BAINBRIDGE STREET,11233,40.681324335946,-73.927955987997,Brooklyn,2026-05-18T08:45:33.000,Bait applied,2026-05-18T14:06:41.000,"{'latitude': '40.681324335946', 'longitude': '-73.927955987997', 'human_address': '{""address"": """", ""city"": """", ""state"": """", ""zip"": """"}'}",3,36,381,3047615,Bedford-Stuyvesant (East),1004232,187512
Initial,14304485,PC8713209,1,3032140008,3,3214,8,24,SUYDAM STREET,11221,40.695959052176,-73.93175190952,Brooklyn,2026-05-18T08:47:12.000,Failed for Rat Activity,2026-05-21T15:10:13.000,"{'latitude': '40.695959052176', 'longitude': '-73.93175190952', 'human_address': '{""address"": """", ""city"": """", ""state"": """", ""zip"": """"}'}",4,34,393,3073047,Bushwick (West),,
Initial,14305040,PC8720918,1,3016390016,3,1639,16,502,MONROE STREET,11221,40.686943078181,-73.937638547245,Brooklyn,2026-05-18T08:48:00.000,Failed for Rat Activity,2026-05-19T09:06:44.000,"{'latitude': '40.686943078181', 'longitude': '-73.937638547245', 'human_address': '{""address"": """", ""city"": """", ""state"": """", ""zip"": """"}'}",3,36,277,3044780,Bedford-Stuyvesant (East),,
Initial,14304811,PC8720796,1,3016420019,3,1642,19,698,MONROE STREET,11221,40.687964450173,-73.928760092558,Brooklyn,2026-05-18T08:51:00.000,Failed for Rat Activity,2026-05-20T11:13:21.000,"{'latitude': '40.687964450173', 'longitude': '-73.928760092558', 'human_address': '{""address"": """", ""city"": """", ""state"": """", ""zip"": """"}'}",3,36,385,3044987,Bedford-Stuyvesant (East),,
Initial,14304777,PC8723702,1,3034090054,3,3409,54,79,ELDERT STREET,11207,40.687275256442,-73.912531262759,Brooklyn,2026-05-18T08:53:58.000,Failed for Other Reason,2026-05-20T06:24:46.000,"{'latitude': '40.687275256442', 'longitude': '-73.912531262759', 'human_address': '{""address"": """", ""city"": """", ""state"": """", ""zip"": """"}'}",4,37,401,3078781,Bushwick (East),,
Initial,14305041,PC8720777,1,3016390017,3,1639,17,502A,MONROE STREET,11221,40.686943078181,-73.937638547245,Brooklyn,2026-05-18T08:54:00.000,Failed for Rat Activity,2026-05-19T09:07:37.000,"{'latitude': '40.686943078181', 'longitude': '-73.937638547245', 'human_address': '{""address"": """", ""city"": """", ""state"": """", ""zip"": """"}'}",3,36,277,3044781,Bedford-Stuyvesant (East),,
Initial,14304813,PC8720858,1,3016420021,3,1642,21,702,MONROE STREET,11221,40.687978095538,-73.928633874662,Brooklyn,2026-05-18T08:58:00.000,Failed for Rat Activity,2026-05-20T11:14:13.000,"{'latitude': '40.687978095538', 'longitude': '-73.928633874662', 'human_address': '{""address"": """", ""city"": """", ""state"": """", ""zip"": """"}'}",3,36,385,3044989,Bedford-Stuyvesant (East),,
Treatments,3076477,PC8562877,8,3016820079,3,1682,79,221,BAINBRIDGE STREET,11233,40.68131888717,-73.928020891934,Brooklyn,2026-05-18T08:59:00.000,Bait applied,2026-05-18T14:01:15.000,"{'latitude': '40.68131888717', 'longitude': '-73.928020891934', 'human_address': '{""address"": """", ""city"": """", ""state"": """", ""zip"": """"}'}",3,36,381,3047616,Bedford-Stuyvesant (East),,
Treatments,3076599,PC8678338,3,2028437501,2,2843,7501,1,EAST 170 STREET,10452,40.840175713853,-73.91754097148,Bronx,2026-05-18T08:59:00.000,Bait applied,2026-05-19T12:41:54.000,"{'latitude': '40.840175713853', 'longitude': '-73.91754097148', 'human_address': '{""address"": """", ""city"": """", ""state"": """", ""zip"": """"}'}",4,16,223,2008091,Mount Eden-Claremont (West),,
Compliance,14306129,PC8662548,3,2029980029,2,2998,29,1838,VYSE AVENUE,10460,40.838127768653,-73.885144207144,Bronx,2026-05-18T09:00:34.000,Failed for Rat Activity and Other Reason,2026-05-22T11:12:13.000,"{'latitude': '40.838127768653', 'longitude': '-73.885144207144', 'human_address': '{""address"": """", ""city"": """", ""state"": """", ""zip"": """"}'}",3,17,161,2010809,Crotona Park East,,
Compliance,14304361,PC8701511,2,1003480036,1,348,36,150,DELANCEY STREET,10002,40.717961430697,-73.986457690329,Manhattan,2026-05-18T09:00:49.000,Failed for Rat Activity,2026-05-19T09:46:55.000,"{'latitude': '40.717961430697', 'longitude': '-73.986457690329', 'human_address': '{""address"": """", ""city"": """", ""state"": """", ""zip"": """"}'}",3,1,1402,1004191,Lower East Side,,
Treatments,3076579,PC8617000,12,2024280034,2,2428,34,1045,CLAY AVENUE,10456,40.82848784683,-73.91278575557,Bronx,2026-05-18T09:00:58.000,Bait applied,2026-05-19T10:16:26.000,"{'latitude': '40.82848784683', 'longitude': '-73.91278575557', 'human_address': '{""address"": """", ""city"": """", ""state"": """", ""zip"": """"}'}",4,16,175,2002137,Concourse-Concourse Village,,
Stoppage,3076464,PC8720562,1,1016130023,1,1613,23,1595,MADISON AVENUE,10029,40.794485702219,-73.948848944198,Manhattan,2026-05-18T09:01:00.000,Stoppage done,2026-05-19T09:16:41.000,"{'latitude': '40.794485702219', 'longitude': '-73.948848944198', 'human_address': '{""address"": """", ""city"": """", ""state"": """", ""zip"": """"}'}",11,8,17401,1078857,East Harlem (South),,
Compliance,14304921,PC8692955,2,1005930044,1,593,44,16,CHRISTOPHER STREET,10014,40.733928534469,-74.00054124536,Manhattan,2026-05-18T09:02:00.000,Failed for Rat Activity,2026-05-19T08:25:04.000,"{'latitude': '40.733928534469', 'longitude': '-74.00054124536', 'human_address': '{""address"": """", ""city"": """", ""state"": """", ""zip"": """"}'}",2,3,71,1076824,West Village,,
Treatments,3076558,PC8652227,5,1016390021,1,1639,21,163,EAST 111 STREET,10029,40.795248979755,-73.943499517247,Manhattan,2026-05-18T09:04:00.000,Bait applied,2026-05-22T09:00:47.000,"{'latitude': '40.795248979755', 'longitude': '-73.943499517247', 'human_address': '{""address"": """", ""city"": """", ""state"": """", ""zip"": """"}'}",11,8,172,1085679,East Harlem (South),,
Treatments,3076461,PC8661876,5,3033870031,3,3387,31,1072,JEFFERSON AVENUE,11221,40.687915051416,-73.916565315562,Brooklyn,2026-05-18T09:06:00.000,Bait applied,2026-05-18T13:27:18.000,"{'latitude': '40.687915051416', 'longitude': '-73.916565315562', 'human_address': '{""address"": """", ""city"": """", ""state"": """", ""zip"": """"}'}",4,37,397,3077805,Bushwick (East),1007389,189916
Compliance,14304362,PC8701286,2,1003480033,1,348,33,156,DELANCEY STREET,10002,40.717901024793,-73.986280938511,Manhattan,2026-05-18T09:09:07.000,Failed for Rat Activity,2026-05-19T09:46:17.000,"{'latitude': '40.717901024793', 'longitude': '-73.986280938511', 'human_address': '{""address"": """", ""city"": """", ""state"": """", ""zip"": """"}'}",3,1,1402,1004189,Lower East Side,,
Initial,14304508,PC8713534,1,3032140001,3,3214,1,10,SUYDAM STREET,11221,40.695692965744,-73.93201543746,Brooklyn,2026-05-18T09:09:12.000,Failed for Rat Activity,2026-05-21T15:27:29.000,"{'latitude': '40.695692965744', 'longitude': '-73.93201543746', 'human_address': '{""address"": """", ""city"": """", ""state"": """", ""zip"": """"}'}",4,34,393,3073040,Bushwick (West),,
Compliance,14304394,PC8597906,6,3020970077,3,2097,77,719,FULTON STREET,11217,40.687237644167,-73.976721174045,Brooklyn,2026-05-18T09:09:18.000,Failed for Rat Activity,2026-05-19T14:20:10.000,"{'latitude': '40.687237644167', 'longitude': '-73.976721174045', 'human_address': '{""address"": """", ""city"": """", ""state"": """", ""zip"": """"}'}",2,35,33,3058733,Fort Greene,990706,189659
Stoppage,3076536,PC8578734,1,1017740006,1,1774,6,109,EAST 125TH STREET,10035,40.804828326437,-73.9384957352,Manhattan,2026-05-18T09:10:00.000,Stoppage done,2026-05-19T09:10:49.000,"{'latitude': '40.804828326437', 'longitude': '-73.9384957352', 'human_address': '{""address"": """", ""city"": """", ""state"": """", ""zip"": """"}'}",11,9,196,1054474,East Harlem (North),,
Initial,14304648,PC8723608,1,3034060020,3,3406,20,302,WEIRFIELD STREET,11237,40.69400209419,-73.908245527503,Brooklyn,2026-05-18T09:10:57.000,Failed for Rat Activity,2026-05-22T09:25:27.000,"{'latitude': '40.69400209419', 'longitude': '-73.908245527503', 'human_address': '{""address"": """", ""city"": """", ""state"": """", ""zip"": """"}'}",4,37,437,3078661,Bushwick (East),,
Treatments,3076494,PC8655450,4,3014810039,3,1481,39,8,HOWARD AVENUE,11221,40.688508406695,-73.921125953545,Brooklyn,2026-05-18T09:12:40.000,Bait applied,2026-05-22T08:43:09.000,"{'latitude': '40.688508406695', 'longitude': '-73.921125953545', 'human_address': '{""address"": """", ""city"": """", ""state"": """", ""zip"": """"}'}",3,41,375,3346554,Bedford-Stuyvesant (East),,
Stoppage,3076537,PC8578733,1,1017500028,1,1750,28,69,EAST 125TH STREET,10035,40.805452163638,-73.939968932313,Manhattan,2026-05-18T09:13:00.000,Stoppage done,2026-05-19T09:10:41.000,"{'latitude': '40.805452163638', 'longitude': '-73.939968932313', 'human_address': '{""address"": """", ""city"": """", ""state"": """", ""zip"": """"}'}",11,9,198,1089917,East Harlem (North),,
Initial,14305128,PC8718517,1,2031990052,2,3199,52,35,WEST 184 STREET,10468,40.861052533387,-73.903885576762,Bronx,2026-05-18T09:13:00.000,Failed for Other Reason,2026-05-21T12:42:31.000,"{'latitude': '40.861052533387', 'longitude': '-73.903885576762', 'human_address': '{""address"": """", ""city"": """", ""state"": """", ""zip"": """"}'}",7,14,253,2014318,University Heights (North)-Fordham,,
Initial,14305047,PC8720770,1,3016390024,3,1639,24,514,MONROE STREET,11221,40.686989522869,-73.937241870755,Brooklyn,2026-05-18T09:14:00.000,Failed for Other Reason,2026-05-21T15:43:05.000,"{'latitude': '40.686989522869', 'longitude': '-73.937241870755', 'human_address': '{""address"": """", ""city"": """", ""state"": """", ""zip"": """"}'}",3,36,277,3044788,Bedford-Stuyvesant (East),,
Treatments,3076586,PC8667747,4,2028160045,2,2816,45,1355,MORRIS AVENUE,10456,40.83677090735,-73.912044846861,Bronx,2026-05-18T09:15:58.000,Bait applied,2026-05-19T10:19:33.000,"{'latitude': '40.83677090735', 'longitude': '-73.912044846861', 'human_address': '{""address"": """", ""city"": """", ""state"": """", ""zip"": """"}'}",4,16,17902,2007793,Mount Eden-Claremont (West),,
Initial,14305129,PC8718794,1,2031990001,2,3199,1,41,WEST 184 STREET,10468,40.861104807076,-73.904033725405,Bronx,2026-05-18T09:17:05.000,Failed for Rat Activity and Other Reason,2026-05-21T12:41:31.000,"{'latitude': '40.861104807076', 'longitude': '-73.904033725405', 'human_address': '{""address"": """", ""city"": """", ""state"": """", ""zip"": """"}'}",7,14,253,2014294,University Heights (North)-Fordham,,
Treatments,3076554,PC8621173,12,1016280014,1,1628,14,1572,LEXINGTON AVENUE,10029,40.788568072771,-73.948969068974,Manhattan,2026-05-18T09:19:00.000,Bait applied,2026-05-22T09:01:01.000,"{'latitude': '40.788568072771', 'longitude': '-73.948969068974', 'human_address': '{""address"": """", ""city"": """", ""state"": """", ""zip"": """"}'}",11,8,166,1051793,East Harlem (South),,
Treatments,3076573,PC8589053,4,4039050021,4,3905,21,98-27,74 AVENUE,11375,40.708910279757,-73.845557837617,Queens,2026-05-18T09:20:14.000,Bait applied,2026-05-21T12:39:00.000,"{'latitude': '40.708910279757', 'longitude': '-73.845557837617', 'human_address': '{""address"": """", ""city"": """", ""state"": """", ""zip"": """"}'}",6,29,645,4095537,Forest Hills,1027068,197592
Initial,14304395,PC8721157,1,3020980075,3,2098,75,64,SOUTH ELLIOTT PLACE,11217,40.687962067957,-73.975772593313,Brooklyn,2026-05-18T09:20:18.000,Failed for Rat Activity,2026-05-19T14:21:16.000,"{'latitude': '40.687962067957', 'longitude': '-73.975772593313', 'human_address': '{""address"": """", ""city"": """", ""state"": """", ""zip"": """"}'}",2,35,33,3058756,Fort Greene,990969,189923
Stoppage,3076540,PC8578730,1,1017220145,1,1722,145,18,WEST 125TH STREET,10027,40.806677826849,-73.942922653126,Manhattan,2026-05-18T09:22:00.000,Stoppage done,2026-05-19T09:09:38.000,"{'latitude': '40.806677826849', 'longitude': '-73.942922653126', 'human_address': '{""address"": """", ""city"": """", ""state"": """", ""zip"": """"}'}",10,9,200,1053490,Harlem (South),,
Treatments,3076487,PC8672306,4,3016040002,3,1604,2,35,Malcolm X Blvd,11221,40.693139768136,-73.931080468086,Brooklyn,2026-05-18T09:23:00.000,Bait applied,2026-05-18T13:50:00.000,"{'latitude': '40.693139768136', 'longitude': '-73.931080468086', 'human_address': '{""address"": """", ""city"": """", ""state"": """", ""zip"": """"}'}",3,36,289,3043290,Bedford-Stuyvesant (East),,
Stoppage,3076466,PC8718995,1,1020120054,1,2012,54,152,W 144th st,10030,40.820616251202,-73.938777354935,Manhattan,2026-05-18T09:25:00.000,Stoppage done,2026-05-19T09:16:35.000,"{'latitude': '40.820616251202', 'longitude': '-73.938777354935', 'human_address': '{""address"": """", ""city"": """", ""state"": """", ""zip"": """"}'}",10,9,232,1060151,Harlem (North),,
Compliance,14305281,PC8624325,10,1015580013,1,1558,13,319,EAST   95 STREET,10128,40.783291727188,-73.946914865044,Manhattan,2026-05-18T09:25:05.000,Failed for Rat Activity,2026-05-19T10:49:29.000,"{'latitude': '40.783291727188', 'longitude': '-73.946914865044', 'human_address': '{""address"": """", ""city"": """", ""state"": """", ""zip"": """"}'}",8,8,15601,1050334,Upper East Side-Yorkville,998951,224658
Stoppage,3076539,PC8578731,1,1017220044,1,1722,44,16,WEST 125TH STREET,10027,40.806655843738,-73.942872100396,Manhattan,2026-05-18T09:26:00.000,Stoppage done,2026-05-19T09:10:01.000,"{'latitude': '40.806655843738', 'longitude': '-73.942872100396', 'human_address': '{""address"": """", ""city"": """", ""state"": """", ""zip"": """"}'}",10,9,200,1053469,Harlem (South),,
Initial,14304520,PC8715366,1,3032140146,3,3214,146,471,HART STREET,11221,40.695220611899,-73.9315903893,Brooklyn,2026-05-18T09:26:07.000,Failed for Rat Activity,2026-05-21T15:28:30.000,"{'latitude': '40.695220611899', 'longitude': '-73.9315903893', 'human_address': '{""address"": """", ""city"": """", ""state"": """", ""zip"": """"}'}",4,34,393,3388062,Bushwick (West),,
Treatments,3076495,PC8655625,4,,3,1484,15,1434,BROADWAY,11221,40.68811214534,-73.919666068994,Brooklyn,2026-05-18T09:28:02.000,Bait applied,2026-05-22T08:43:21.000,"{'latitude': '40.68811214534', 'longitude': '-73.919666068994', 'human_address': '{""address"": """", ""city"": """", ""state"": """", ""zip"": """"}'}",3,41,375,,Bedford-Stuyvesant (East),,
Stoppage,3076538,PC8578732,1,1017220041,1,1722,41,12,WEST 125TH STREET,10027,40.806611875648,-73.942767382779,Manhattan,2026-05-18T09:29:00.000,Stoppage done,2026-05-19T09:10:17.000,"{'latitude': '40.806611875648', 'longitude': '-73.942767382779', 'human_address': '{""address"": """", ""city"": """", ""state"": """", ""zip"": """"}'}",10,9,200,1053468,Harlem (South),,
Initial,14304332,PC8724115,1,,3,3081,70,175R,SEIGEL STREET,,0.00000000000000000000,0.00000000000000000000,Brooklyn,2026-05-18T09:30:08.000,Failed for Rat Activity and Other Reason,2026-05-19T12:09:12.000,"{'latitude': '0.0', 'longitude': '0.0', 'human_address': '{""address"": """", ""city"": """", ""state"": """", ""zip"": """"}'}",,,,,,,
Treatments,3076583,PC8678826,4,2028410045,2,2841,45,104,ELLIOT PLACE,10452,40.838840789251,-73.916183762388,Bronx,2026-05-18T09:30:58.000,Bait applied,2026-05-19T10:17:47.000,"{'latitude': '40.838840789251', 'longitude': '-73.916183762388', 'human_address': '{""address"": """", ""city"": """", ""state"": """", ""zip"": """"}'}",4,16,22102,2008061,Mount Eden-Claremont (West),,
Stoppage,3076491,PC8721099,1,1019270033,1,1927,33,2030,Adam Clayton Powell Blvd,10027,40.806700335975,-73.949991833094,Manhattan,2026-05-18T09:31:00.000,Stoppage done,2026-05-19T09:15:43.000,"{'latitude': '40.806700335975', 'longitude': '-73.949991833094', 'human_address': '{""address"": """", ""city"": """", ""state"": """", ""zip"": """"}'}",10,9,220,1058515,Harlem (South),,
Stoppage,3076541,PC8578729,1,1017230122,1,1723,122,29,WEST 125TH STREET,10027,40.806826195307,-73.943229568378,Manhattan,2026-05-18T09:33:00.000,Stoppage done,2026-05-19T09:09:10.000,"{'latitude': '40.806826195307', 'longitude': '-73.943229568378', 'human_address': '{""address"": """", ""city"": """", ""state"": """", ""zip"": """"}'}",10,9,200,1053529,Harlem (South),,
Compliance,14304366,PC8701441,2,1003480023,1,348,23,89,CLINTON STREET,10002,40.718622779022,-73.985313987247,Manhattan,2026-05-18T09:33:01.000,Failed for Rat Activity,2026-05-19T09:44:02.000,"{'latitude': '40.718622779022', 'longitude': '-73.985313987247', 'human_address': '{""address"": """", ""city"": """", ""state"": """", ""zip"": """"}'}",3,1,1402,1004179,Lower East Side,,
Treatments,3076446,PC8514692,13,3016070039,3,1607,39,38,MALCOLM X BOULEVARD,11221,40.692843308899,-73.931041108921,Brooklyn,2026-05-18T09:34:00.000,Bait applied,2026-05-18T13:42:06.000,"{'latitude': '40.692843308899', 'longitude': '-73.931041108921', 'human_address': '{""address"": """", ""city"": """", ""state"": """", ""zip"": """"}'}",3,36,289,3043463,Bedford-Stuyvesant (East),,
Treatments,3076575,PC8684510,3,4039020007,4,3902,7,104-07,UNION TURNPIKE,11375,40.708388308807,-73.849335496949,Queens,2026-05-18T09:35:14.000,Bait applied,2026-05-21T12:39:51.000,"{'latitude': '40.708388308807', 'longitude': '-73.849335496949', 'human_address': '{""address"": """", ""city"": """", ""state"": """", ""zip"": """"}'}",6,29,645,4095422,Forest Hills,1026021,197400
Initial,14304829,PC8720825,1,3016420038,3,1642,38,728,MONROE STREET,11221,40.688073641013,-73.927800829283,Brooklyn,2026-05-18T09:36:00.000,Failed for Rat Activity,2026-05-20T11:39:06.000,"{'latitude': '40.688073641013', 'longitude': '-73.927800829283', 'human_address': '{""address"": """", ""city"": """", ""state"": """", ""zip"": """"}'}",3,36,385,3045005,Bedford-Stuyvesant (East),,
Initial,14304397,PC8720564,1,3020060150,3,2006,150,418,CARLTON AVENUE,11238,40.684626101885,-73.971169427568,Brooklyn,2026-05-18T09:41:00.000,Failed for Rat Activity,2026-05-19T14:23:08.000,"{'latitude': '40.684626101885', 'longitude': '-73.971169427568', 'human_address': '{""address"": """", ""city"": """", ""state"": """", ""zip"": """"}'}",2,35,179,3343781,Fort Greene,992246,188708
Compliance,14304404,PC8705992,2,3050570014,3,5057,14,620,PARKSIDE AVENUE,11226,40.656104365039,-73.952429787664,Brooklyn,2026-05-18T09:41:02.000,Failed for Rat Activity,2026-05-19T13:33:02.000,"{'latitude': '40.656104365039', 'longitude': '-73.952429787664', 'human_address': '{""address"": """", ""city"": """", ""state"": """", ""zip"": """"}'}",9,40,820,3418395,East Flatbush-Erasmus,997449,178319
Initial,14305133,PC8718404,1,2031990009,2,3199,9,2394,GRAND AVENUE,10468,40.861777259368,-73.904025520772,Bronx,2026-05-18T09:41:18.000,Failed for Rat Activity,2026-05-21T12:40:59.000,"{'latitude': '40.861777259368', 'longitude': '-73.904025520772', 'human_address': '{""address"": """", ""city"": """", ""state"": """", ""zip"": """"}'}",7,14,253,2014298,University Heights (North)-Fordham,,
Stoppage,3076542,PC8578728,1,1017230010,1,1723,10,55,WEST 125TH STREET,10027,40.807263119418,-73.944269534966,Manhattan,2026-05-18T09:42:00.000,Stoppage done,2026-05-19T09:09:01.000,"{'latitude': '40.807263119418', 'longitude': '-73.944269534966', 'human_address': '{""address"": """", ""city"": """", ""state"": """", ""zip"": """"}'}",10,9,200,1053499,Harlem (South),,
Compliance,14300968,PC8675291,2,2029370008,2,2937,8,670,EAST  170 STREET,10456,40.833600007513,-73.897894070994,Bronx,2026-05-18T09:42:00.000,Failed for Rat Activity and Other Reason,2026-05-19T10:27:23.000,"{'latitude': '40.833600007513', 'longitude': '-73.897894070994', 'human_address': '{""address"": """", ""city"": """", ""state"": """", ""zip"": """"}'}",3,17,151,2009816,Morrisania,1012505,242999
Treatments,3076496,PC8329343,9,3014850038,3,1485,38,40,HOWARD AVENUE,11221,40.687207202997,-73.920864277717,Brooklyn,2026-05-18T09:42:25.000,Bait applied,2026-05-22T08:43:31.000,"{'latitude': '40.687207202997', 'longitude': '-73.920864277717', 'human_address': '{""address"": """", ""city"": """", ""state"": """", ""zip"": """"}'}",3,41,375,3039770,Bedford-Stuyvesant (East),,
Stoppage,3076492,PC8720557,1,1019580013,1,1958,13,2435,Fredrick Douglas Blvd,10027,40.813652178224,-73.948635461187,Manhattan,2026-05-18T09:45:00.000,Stoppage done,2026-05-19T09:15:30.000,"{'latitude': '40.813652178224', 'longitude': '-73.948635461187', 'human_address': '{""address"": """", ""city"": """", ""state"": """", ""zip"": """"}'}",10,9,215,1084088,Harlem (North),,
Treatments,3076587,PC8678393,3,2028410063,2,2841,63,1375,GRAND CONCOURSE,10452,40.83793919705,-73.914395988953,Bronx,2026-05-18T09:45:58.000,Bait applied,2026-05-19T10:19:52.000,"{'latitude': '40.83793919705', 'longitude': '-73.914395988953', 'human_address': '{""address"": """", ""city"": """", ""state"": """", ""zip"": """"}'}",4,16,22102,2008065,Mount Eden-Claremont (West),,
Treatments,3076452,PC8632190,8,3016070040,3,1607,40,40,MALCOLM X BOULEVARD,11221,40.692785662177,-73.931030350567,Brooklyn,2026-05-18T09:46:00.000,Bait applied,2026-05-18T13:37:18.000,"{'latitude': '40.692785662177', 'longitude': '-73.931030350567', 'human_address': '{""address"": """", ""city"": """", ""state"": """", ""zip"": """"}'}",3,36,289,3043464,Bedford-Stuyvesant (East),1003376,191687
Initial,14304409,PC8713202,1,2031810013,2,3181,13,2192,WALTON AVENUE,10453,40.856348164959,-73.904008080439,Bronx,2026-05-18T09:46:00.000,Failed for Other Reason,2026-05-19T13:15:40.000,"{'latitude': '40.856348164959', 'longitude': '-73.904008080439', 'human_address': '{""address"": """", ""city"": """", ""state"": """", ""zip"": """"}'}",5,14,239,2013977,Fordham Heights,,
Stoppage,3076543,PC8578726,1,1017230009,1,1723,9,65,WEST 125TH STREET,10027,40.807348304517,-73.944471752092,Manhattan,2026-05-18T09:46:00.000,Stoppage done,2026-05-19T09:08:52.000,"{'latitude': '40.807348304517', 'longitude': '-73.944471752092', 'human_address': '{""address"": """", ""city"": """", ""state"": """", ""zip"": """"}'}",10,9,200,1053498,Harlem (South),,
Stoppage,3076544,PC8578725,1,1017220065,1,1722,65,68,WEST 125TH STREET,10027,40.807359316665,-73.944540376556,Manhattan,2026-05-18T09:47:00.000,Stoppage done,2026-05-19T09:08:42.000,"{'latitude': '40.807359316665', 'longitude': '-73.944540376556', 'human_address': '{""address"": """", ""city"": """", ""state"": """", ""zip"": """"}'}",10,9,200,1053483,Harlem (South),,
Initial,14304526,PC8714798,1,3032140039,3,3214,39,485,HART STREET,11221,40.69546749908,-73.931352124881,Brooklyn,2026-05-18T09:49:07.000,Failed for Rat Activity,2026-05-21T15:29:43.000,"{'latitude': '40.69546749908', 'longitude': '-73.931352124881', 'human_address': '{""address"": """", ""city"": """", ""state"": """", ""zip"": """"}'}",4,34,393,3073070,Bushwick (West),,
Stoppage,3076545,PC8578724,1,1019090009,1,1909,9,144,WEST 125TH STREET,10027,40.808516144125,-73.947277579516,Manhattan,2026-05-18T09:52:00.000,Stoppage done,2026-05-19T09:08:36.000,"{'latitude': '40.808516144125', 'longitude': '-73.947277579516', 'human_address': '{""address"": """", ""city"": """", ""state"": """", ""zip"": """"}'}",10,9,222,1091054,Harlem (South),,
Initial,14304835,PC8720656,1,3016420044,3,1642,44,116,PATCHEN AVENUE,11221,40.687757512714,-73.927043955836,Brooklyn,2026-05-18T09:52:00.000,Failed for Rat Activity,2026-05-20T11:42:38.000,"{'latitude': '40.687757512714', 'longitude': '-73.927043955836', 'human_address': '{""address"": """", ""city"": """", ""state"": """", ""zip"": """"}'}",3,36,385,3045011,Bedford-Stuyvesant (East),,
Stoppage,3076468,PC8700022,1,1022430354,1,2243,354,45,PARK TERRACE WEST,10034,40.870760710523,-73.918157349735,Manhattan,2026-05-18T09:53:00.000,Stoppage done,2026-05-19T09:15:50.000,"{'latitude': '40.870760710523', 'longitude': '-73.918157349735', 'human_address': '{""address"": """", ""city"": """", ""state"": """", ""zip"": """"}'}",12,10,303,1065032,Inwood,,
Initial,14304681,PC8722200,1,4006810114,4,681,114,40-08,30 AVENUE,11103,40.763721387139,-73.914668634108,Queens,2026-05-18T09:54:12.000,Failed for Rat Activity,2026-05-19T09:02:31.000,"{'latitude': '40.763721387139', 'longitude': '-73.914668634108', 'human_address': '{""address"": """", ""city"": """", ""state"": """", ""zip"": """"}'}",1,22,149,4011283,Astoria (East)-Woodside (North),,
Initial,14304624,PC8721774,1,1021070009,1,2107,9,914,ST NICHOLAS AVENUE,10032,40.831371410962,-73.941195764987,Manhattan,2026-05-18T09:55:00.000,Failed for Rat Activity,2026-05-19T07:07:59.000,"{'latitude': '40.831371410962', 'longitude': '-73.941195764987', 'human_address': '{""address"": """", ""city"": """", ""state"": """", ""zip"": """"}'}",12,10,239,1062484,Washington Heights (South),1000520,242164
Treatments,3076648,PC8660440,4,3012800001,3,1280,1,951,CARROLL STREET,11225,40.667939472594,-73.958520499349,Brooklyn,2026-05-18T09:55:32.000,Bait applied,2026-05-19T10:16:43.000,"{'latitude': '40.667939472594', 'longitude': '-73.958520499349', 'human_address': '{""address"": """", ""city"": """", ""state"": """", ""zip"": """"}'}",9,35,325,3033446,Crown Heights (South),995757,182630
Treatments,3076447,PC8614073,10,3016070045,3,1607,45,50,MALCOLM X BOULEVARD,11221,40.692500171149,-73.930972950175,Brooklyn,2026-05-18T09:58:00.000,Bait applied,2026-05-18T13:41:23.000,"{'latitude': '40.692500171149', 'longitude': '-73.930972950175', 'human_address': '{""address"": """", ""city"": """", ""state"": """", ""zip"": """"}'}",3,36,289,3043466,Bedford-Stuyvesant (East),,
Initial,14304333,PC8724060,1,3030810040,3,3081,40,300,BUSHWICK AVENUE,11206,40.705910487012,-73.939557576324,Brooklyn,2026-05-18T10:00:30.000,Failed for Rat Activity,2026-05-19T11:11:53.000,"{'latitude': '40.705910487012', 'longitude': '-73.939557576324', 'human_address': '{""address"": """", ""city"": """", ""state"": """", ""zip"": """"}'}",1,34,49302,3071358,East Williamsburg,,
Initial,14304381,PC8723779,1,2053490064,2,5349,64,1303,EDWARDS AVENUE,10461,40.836567832116,-73.834834260575,Bronx,2026-05-18T10:00:33.000,Failed for Other Reason,2026-05-18T16:44:26.000,"{'latitude': '40.836567832116', 'longitude': '-73.834834260575', 'human_address': '{""address"": """", ""city"": """", ""state"": """", ""zip"": """"}'}",10,13,194,2073551,Throgs Neck-Schuylerville,1029953,244107
Treatments,3076585,PC8403873,14,2028410001,2,2841,1,15,MARCY PLACE,10452,40.838790010292,-73.918084797648,Bronx,2026-05-18T10:00:58.000,Bait applied,2026-05-19T10:19:10.000,"{'latitude': '40.838790010292', 'longitude': '-73.918084797648', 'human_address': '{""address"": """", ""city"": """", ""state"": """", ""zip"": """"}'}",4,16,22101,2092054,Mount Eden-Claremont (West),,
Initial,14304414,PC8714510,1,2031860027,2,3186,27,2205,WALTON AVENUE,10453,40.856521016464,-73.903928300419,Bronx,2026-05-18T10:03:00.000,Failed for Other Reason,2026-05-19T13:17:12.000,"{'latitude': '40.856521016464', 'longitude': '-73.903928300419', 'human_address': '{""address"": """", ""city"": """", ""state"": """", ""zip"": """"}'}",5,14,239,2014056,Fordham Heights,,
Initial,14304446,PC8722629,1,3050840001,3,5084,1,77,LINDEN BOULEVARD,11226,40.652342509246,-73.955510188132,Brooklyn,2026-05-18T10:04:02.000,Failed for Other Reason,2026-05-19T13:31:29.000,"{'latitude': '40.652342509246', 'longitude': '-73.955510188132', 'human_address': '{""address"": """", ""city"": """", ""state"": """", ""zip"": """"}'}",17,40,822,3116640,East Flatbush-Erasmus,996595,176948
Treatments,3076532,PC8682618,3,2030800077,2,3080,77,663,OAKLAND PLACE,10457,40.847758525757,-73.890220349814,Bronx,2026-05-18T10:05:45.000,Bait applied,2026-05-19T07:56:22.000,"{'latitude': '40.847758525757', 'longitude': '-73.890220349814', 'human_address': '{""address"": """", ""city"": """", ""state"": """", ""zip"": """"}'}",6,15,373,2102303,Tremont,,
Compliance,14304302,PC8644838,6,2034560034,2,3456,34,254,SOUNDVIEW AVENUE,10473,40.810756820716,-73.855634249473,Bronx,2026-05-18T10:06:46.000,Failed for Other Reason,2026-05-20T09:46:08.000,"{'latitude': '40.810756820716', 'longitude': '-73.855634249473', 'human_address': '{""address"": """", ""city"": """", ""state"": """", ""zip"": """"}'}",9,18,4,2020207,Soundview-Clason Point,,
Stoppage,3076467,PC8704977,1,1022480092,1,2248,92,128,SEAMAN AVENUE,10034,40.868757823078,-73.92324342573,Manhattan,2026-05-18T10:09:00.000,Stoppage done,2026-05-19T09:16:29.000,"{'latitude': '40.868757823078', 'longitude': '-73.92324342573', 'human_address': '{""address"": """", ""city"": """", ""state"": """", ""zip"": """"}'}",12,10,295,1080545,Inwood,,
Initial,14305066,PC8720944,1,3016390043,3,1639,43,543,MADISON STREET,11221,40.686376849122,-73.936175156401,Brooklyn,2026-05-18T10:10:00.000,Failed for Rat Activity,2026-05-19T09:25:17.000,"{'latitude': '40.686376849122', 'longitude': '-73.936175156401', 'human_address': '{""address"": """", ""city"": """", ""state"": """", ""zip"": """"}'}",3,36,277,3044806,Bedford-Stuyvesant (East),,
Treatments,3076565,PC8654735,4,4033410060,4,3341,60,111-03,76 DRIVE,11375,40.715410132302,-73.835842683324,Queens,2026-05-18T10:10:14.000,Bait applied,2026-05-21T12:26:42.000,"{'latitude': '40.715410132302', 'longitude': '-73.835842683324', 'human_address': '{""address"": """", ""city"": """", ""state"": """", ""zip"": """"}'}",6,29,76902,4433894,Forest Hills,,
Treatments,3076454,PC8645723,6,3016120006,3,1612,6,61,MALCOLM X BOULEVARD,11221,40.691964864506,-73.930847295661,Brooklyn,2026-05-18T10:11:00.000,Bait applied,2026-05-18T13:35:59.000,"{'latitude': '40.691964864506', 'longitude': '-73.930847295661', 'human_address': '{""address"": """", ""city"": """", ""state"": """", ""zip"": """"}'}",3,36,387,3043639,Bedford-Stuyvesant (East),1003427,191388
Treatments,3076608,PC8518620,20,1016300065,1,1630,65,122,EAST 103 STREET,10029,40.790615419424,-73.948436619708,Manhattan,2026-05-18T10:15:24.000,Bait applied,2026-05-22T08:38:07.000,"{'latitude': '40.790615419424', 'longitude': '-73.948436619708', 'human_address': '{""address"": """", ""city"": """", ""state"": """", ""zip"": """"}'}",11,8,166,1051903,East Harlem (South),,
Treatments,3076650,PC8648489,4,3011890024,3,1189,24,934,CARROLL STREET,11225,40.668340916707,-73.960520879964,Brooklyn,2026-05-18T10:15:32.000,Bait applied,2026-05-19T10:15:04.000,"{'latitude': '40.668340916707', 'longitude': '-73.960520879964', 'human_address': '{""address"": """", ""city"": """", ""state"": """", ""zip"": """"}'}",9,35,213,3029714,Crown Heights (South),995198,182777
Treatments,3076584,PC8667452,4,2028400047,2,2840,47,105,EAST CLARKE PLACE,10452,40.837529262604,-73.916814247455,Bronx,2026-05-18T10:15:58.000,Bait applied,2026-05-19T10:18:53.000,"{'latitude': '40.837529262604', 'longitude': '-73.916814247455', 'human_address': '{""address"": """", ""city"": """", ""state"": """", ""zip"": """"}'}",4,16,22102,2008050,Mount Eden-Claremont (West),,
Treatments,3076498,PC8556650,6,3015137501,3,1513,7501,203,MARION STREET,11233,40.680565299837,-73.921524768221,Brooklyn,2026-05-18T10:17:18.000,Bait applied,2026-05-22T08:43:48.000,"{'latitude': '40.680565299837', 'longitude': '-73.921524768221', 'human_address': '{""address"": """", ""city"": """", ""state"": """", ""zip"": """"}'}",3,41,379,3041027,Bedford-Stuyvesant (East),,
Stoppage,3076550,PC8578718,1,1019310006,1,1931,6,261,West 125th Street,10027,40.809826751402,-73.950336268594,Manhattan,2026-05-18T10:18:00.000,Stoppage done,2026-05-19T09:02:00.000,"{'latitude': '40.809826751402', 'longitude': '-73.950336268594', 'human_address': '{""address"": """", ""city"": """", ""state"": """", ""zip"": """"}'}",10,9,222,1089941,Harlem (South),,
Initial,14304626,PC8719050,1,1021170019,1,2117,19,534,WEST  159 STREET,10032,40.834533838866,-73.94215783848,Manhattan,2026-05-18T10:18:00.000,Failed for Rat Activity,2026-05-19T06:45:42.000,"{'latitude': '40.834533838866', 'longitude': '-73.94215783848', 'human_address': '{""address"": """", ""city"": """", ""state"": """", ""zip"": """"}'}",12,10,245,1062754,Washington Heights (South),1000256,243328
Initial,14304787,PC8721835,1,1019680026,1,1968,26,34,CONVENT AVENUE,10027,40.814032861533,-73.953096804739,Manhattan,2026-05-18T10:18:00.000,Failed for Rat Activity and Other Reason,2026-05-20T14:27:53.000,"{'latitude': '40.814032861533', 'longitude': '-73.953096804739', 'human_address': '{""address"": """", ""city"": """", ""state"": """", ""zip"": """"}'}",9,7,21303,1059589,Manhattanville-West Harlem,997233,235857
Initial,14305144,PC8718434,1,2031990017,2,3199,17,2420,GRAND AVENUE,10468,40.862196960836,-73.90373568948,Bronx,2026-05-18T10:19:57.000,Failed for Rat Activity and Other Reason,2026-05-21T12:40:23.000,"{'latitude': '40.862196960836', 'longitude': '-73.90373568948', 'human_address': '{""address"": """", ""city"": """", ""state"": """", ""zip"": """"}'}",7,14,253,2014305,University Heights (North)-Fordham,,
Compliance,14305282,PC8702262,2,1015850016,1,1585,16,527,EAST 88 STREET,10128,40.77686824766,-73.945306049987,Manhattan,2026-05-18T10:20:58.000,Failed for Rat Activity and Other Reason,2026-05-19T10:17:23.000,"{'latitude': '40.77686824766', 'longitude': '-73.945306049987', 'human_address': '{""address"": """", ""city"": """", ""state"": """", ""zip"": """"}'}",8,5,14402,1051346,Upper East Side-Yorkville,999398,222318
Compliance,14304460,PC8705882,2,3050260132,3,5026,132,590,FLATBUSH AVENUE,11225,40.659118472063,-73.960551588647,Brooklyn,2026-05-18T10:21:02.000,Failed for Rat Activity and Other Reason,2026-05-19T13:31:04.000,"{'latitude': '40.659118472063', 'longitude': '-73.960551588647', 'human_address': '{""address"": """", ""city"": """", ""state"": """", ""zip"": """"}'}",9,40,79802,3114604,Prospect Lefferts Gardens-Wingate,995195,179416
Initial,14304401,PC8722663,1,3019290035,3,1929,35,314,CLINTON AVENUE,11205,40.688753387804,-73.967951219222,Brooklyn,2026-05-18T10:22:18.000,Failed for Rat Activity,2026-05-19T14:42:07.000,"{'latitude': '40.688753387804', 'longitude': '-73.967951219222', 'human_address': '{""address"": """", ""city"": """", ""state"": """", ""zip"": """"}'}",2,35,197,3055296,Clinton Hill,993138,190212
Initial,14305325,PC8722354,1,,4,684,1,40-17,28 AVENUE,11103,40.765381078054,-73.913482414648,Queens,2026-05-18T10:22:55.000,Failed for Rat Activity and Other Reason,2026-05-19T09:48:47.000,"{'latitude': '40.765381078054', 'longitude': '-73.913482414648', 'human_address': '{""address"": """", ""city"": """", ""state"": """", ""zip"": """"}'}",1,22,143,,Astoria (East)-Woodside (North),,
Initial,14305071,PC8720862,1,3016390048,3,1639,48,533,MADISON STREET,11221,40.686344074085,-73.936467251093,Brooklyn,2026-05-18T10:23:00.000,Failed for Rat Activity,2026-05-19T09:27:42.000,"{'latitude': '40.686344074085', 'longitude': '-73.936467251093', 'human_address': '{""address"": """", ""city"": """", ""state"": """", ""zip"": """"}'}",3,36,277,3044811,Bedford-Stuyvesant (East),,
Stoppage,3076549,PC8578720,1,1019300041,1,1930,41,226,WEST 125TH STREET,10027,40.80930198022,-73.949137343219,Manhattan,2026-05-18T10:26:00.000,Stoppage done,2026-05-19T09:02:07.000,"{'latitude': '40.80930198022', 'longitude': '-73.949137343219', 'human_address': '{""address"": """", ""city"": """", ""state"": """", ""zip"": """"}'}",10,9,222,1058643,Harlem (South),,
Treatments,3076559,PC8652134,3,1016110001,1,1611,1,1240,5 AVENUE,10029,40.793902165989,-73.951370267446,Manhattan,2026-05-18T10:27:00.000,Bait applied,2026-05-22T09:04:18.000,"{'latitude': '40.793902165989', 'longitude': '-73.951370267446', 'human_address': '{""address"": """", ""city"": """", ""state"": """", ""zip"": """"}'}",11,8,168,1051513,East Harlem (South),,
Treatments,3076453,PC8464198,12,3016470001,3,1647,1,193,MALCOLM X BOULEVARD,11221,40.686535046375,-73.92977122972,Brooklyn,2026-05-18T10:28:00.000,Bait applied,2026-05-18T13:36:33.000,"{'latitude': '40.686535046375', 'longitude': '-73.92977122972', 'human_address': '{""address"": """", ""city"": """", ""state"": """", ""zip"": """"}'}",3,36,385,3045243,Bedford-Stuyvesant (East),1003727,189410
Initial,14304788,PC8724281,1,1019680025,1,1968,25,30,CONVENT AVENUE,10027,40.813892882551,-73.95310412908,Manhattan,2026-05-18T10:28:03.000,Failed for Rat Activity and Other Reason,2026-05-19T15:34:41.000,"{'latitude': '40.813892882551', 'longitude': '-73.95310412908', 'human_address': '{""address"": """", ""city"": """", ""state"": """", ""zip"": """"}'}",9,7,21303,1059588,Manhattanville-West Harlem,,
Initial,14304334,PC8724044,1,3030810080,3,3081,80,110,HUMBOLDT STREET,11206,40.705140013703,-73.941109175359,Brooklyn,2026-05-18T10:30:14.000,Failed for Rat Activity,2026-05-19T12:17:40.000,"{'latitude': '40.705140013703', 'longitude': '-73.941109175359', 'human_address': '{""address"": """", ""city"": """", ""state"": """", ""zip"": """"}'}",1,34,49302,3071363,East Williamsburg,,
Treatments,3076582,PC8654146,5,2024640023,2,2464,23,1235,Grand Concourse,10452,40.835459707952,-73.916784320579,Bronx,2026-05-18T10:30:58.000,Bait applied,2026-05-19T10:17:31.000,"{'latitude': '40.835459707952', 'longitude': '-73.916784320579', 'human_address': '{""address"": """", ""city"": """", ""state"": """", ""zip"": """"}'}",4,16,197,2002849,Concourse-Concourse Village,1007275,243821
Compliance,14304929,PC8662562,2,2029620040,2,2962,40,1417,PROSPECT AVENUE,10459,40.832555831034,-73.896580302163,Bronx,2026-05-18T10:31:10.000,Failed for Rat Activity,2026-05-20T09:48:00.000,"{'latitude': '40.832555831034', 'longitude': '-73.896580302163', 'human_address': '{""address"": """", ""city"": """", ""state"": """", ""zip"": """"}'}",3,17,151,2010200,Morrisania,1012869,242619
Treatments,3076614,PC8698513,3,1016300070,1,1630,70,108,EAST 103 STREET,10029,40.790755550417,-73.94876875908,Manhattan,2026-05-18T10:33:30.000,Bait applied,2026-05-22T08:38:16.000,"{'latitude': '40.790755550417', 'longitude': '-73.94876875908', 'human_address': '{""address"": """", ""city"": """", ""state"": """", ""zip"": """"}'}",11,8,166,1088166,East Harlem (South),,
Initial,14305074,PC8720632,1,3016390052,3,1639,52,525,MADISON STREET,11221,40.686316756007,-73.936701648828,Brooklyn,2026-05-18T10:34:00.000,Failed for Other Reason,2026-05-19T09:30:44.000,"{'latitude': '40.686316756007', 'longitude': '-73.936701648828', 'human_address': '{""address"": """", ""city"": """", ""state"": """", ""zip"": """"}'}",3,36,277,3044815,Bedford-Stuyvesant (East),,
Stoppage,3076547,PC8578722,1,1019310021,1,1931,21,215,WEST 125TH STREET,10027,40.809252504306,-73.948978435472,Manhattan,2026-05-18T10:34:00.000,Stoppage done,2026-05-19T09:02:14.000,"{'latitude': '40.809252504306', 'longitude': '-73.948978435472', 'human_address': '{""address"": """", ""city"": """", ""state"": """", ""zip"": """"}'}",10,9,222,1058659,Harlem (South),,
Initial,14305084,PC8720332,1,1004650032,1,465,32,17,STUYVESANT STREET,10003,40.729920622563,-73.988703087263,Manhattan,2026-05-18T10:35:32.000,Failed for Rat Activity and Other Reason,2026-05-19T08:43:31.000,"{'latitude': '40.729920622563', 'longitude': '-73.988703087263', 'human_address': '{""address"": """", ""city"": """", ""state"": """", ""zip"": """"}'}",3,2,4002,1006787,East Village,,
Initial,14304382,PC8717727,1,2051350051,2,5135,51,2440,HUNTER AVENUE,10475,40.862128605682,-73.824904403066,Bronx,2026-05-18T10:35:33.000,Failed for Other Reason,2026-05-20T09:31:13.000,"{'latitude': '40.862128605682', 'longitude': '-73.824904403066', 'human_address': '{""address"": """", ""city"": """", ""state"": """", ""zip"": """"}'}",10,12,30201,2128826,Co-op City,1032682,253425
Stoppage,3076546,PC8578723,1,1019100001,1,1910,1,163,WEST 125TH STREET,10027,40.808637025419,-73.947523124473,Manhattan,2026-05-18T10:38:00.000,Stoppage done,2026-05-19T09:02:21.000,"{'latitude': '40.808637025419', 'longitude': '-73.947523124473', 'human_address': '{""address"": """", ""city"": """", ""state"": """", ""zip"": """"}'}",10,9,222,1081602,Harlem (South),,
Initial,14304424,PC8713423,1,,2,3186,73,WALTON,AVENUE,10453,,,Bronx,2026-05-18T10:38:00.000,Failed for Other Reason,2026-05-19T13:22:06.000,,,,,,,,
Treatments,3076499,PC8400908,12,3015140124,3,1514,124,366,CHAUNCEY STREET,11233,40.681693727306,-73.918065792655,Brooklyn,2026-05-18T10:39:46.000,Bait applied,2026-05-22T08:44:08.000,"{'latitude': '40.681693727306', 'longitude': '-73.918065792655', 'human_address': '{""address"": """", ""city"": """", ""state"": """", ""zip"": """"}'}",3,41,379,3041066,Bedford-Stuyvesant (East),1006975,187649
Initial,14304906,PC8721759,1,3007490005,3,749,5,4509,6 AVENUE,11220,40.64644974621,-74.005315241124,Brooklyn,2026-05-18T10:40:00.000,Failed for Rat Activity and Other Reason,2026-05-19T14:47:13.000,"{'latitude': '40.64644974621', 'longitude': '-74.005315241124', 'human_address': '{""address"": """", ""city"": """", ""state"": """", ""zip"": """"}'}",7,38,96,3324376,Sunset Park (Central),982775,174798
Initial,14305146,PC8715151,1,2031870001,2,3187,1,2300,JEROME AVENUE,10468,40.858845523508,-73.903592339718,Bronx,2026-05-18T10:40:00.000,Failed for Rat Activity and Other Reason,2026-05-22T10:11:31.000,"{'latitude': '40.858845523508', 'longitude': '-73.903592339718', 'human_address': '{""address"": """", ""city"": """", ""state"": """", ""zip"": """"}'}",5,14,239,2000000,Fordham Heights,,
Treatments,3076571,PC8621369,6,4021760001,4,2176,1,67-09,108 STREET,11375,40.728694335426,-73.847413237595,Queens,2026-05-18T10:40:14.000,Bait applied,2026-05-21T12:38:25.000,"{'latitude': '40.728694335426', 'longitude': '-73.847413237595', 'human_address': '{""address"": """", ""city"": """", ""state"": """", ""zip"": """"}'}",6,29,741,4051865,Forest Hills,1026597,204649
Compliance,14305367,PC8694042,2,1003870153,1,387,153,629,EAST 5 STREET,10009,40.723422734373,-73.980943962627,Manhattan,2026-05-18T10:41:00.000,Failed for Rat Activity,2026-05-20T10:45:12.000,"{'latitude': '40.723422734373', 'longitude': '-73.980943962627', 'human_address': '{""address"": """", ""city"": """", ""state"": """", ""zip"": """"}'}",3,2,2601,1004666,East Village,,
Treatments,3076601,PC8676237,3,2024890025,2,2489,25,1223,RIVER AVENUE,10452,40.836115979663,-73.921069543399,Bronx,2026-05-18T10:42:00.000,Bait applied,2026-05-19T12:39:55.000,"{'latitude': '40.836115979663', 'longitude': '-73.921069543399', 'human_address': '{""address"": """", ""city"": """", ""state"": """", ""zip"": """"}'}",4,16,197,2003010,Concourse-Concourse Village,,
Initial,14305085,PC8720090,1,1004650030,1,465,30,19,STUYVESANT STREET,10003,40.72992610675,-73.988648965057,Manhattan,2026-05-18T10:42:00.000,Failed for Rat Activity,2026-05-19T08:34:36.000,"{'latitude': '40.72992610675', 'longitude': '-73.988648965057', 'human_address': '{""address"": """", ""city"": """", ""state"": """", ""zip"": """"}'}",3,2,4002,1006786,East Village,,
Initial,14304425,PC8713511,1,2031860110,2,3186,110,2255,WALTON AVENUE,10453,40.85759640152,-73.903272418826,Bronx,2026-05-18T10:42:00.000,Failed for Rat Activity,2026-05-19T13:22:36.000,"{'latitude': '40.85759640152', 'longitude': '-73.903272418826', 'human_address': '{""address"": """", ""city"": """", ""state"": """", ""zip"": """"}'}",5,14,239,2014079,Fordham Heights,,
Compliance,14304789,PC8701879,2,1019820029,1,1982,29,1350,AMSTERDAM AVENUE,10027,40.813836364476,-73.955936488193,Manhattan,2026-05-18T10:44:03.000,Failed for Rat Activity and Other Reason,2026-05-20T14:25:53.000,"{'latitude': '40.813836364476', 'longitude': '-73.955936488193', 'human_address': '{""address"": """", ""city"": """", ""state"": """", ""zip"": """"}'}",9,7,219,1059701,Manhattanville-West Harlem,,
Initial,14304854,PC8720809,1,3016420066,3,1642,66,713A,MADISON STREET,11221,40.6872889257,-73.928263220788,Brooklyn,2026-05-18T10:45:00.000,Failed for Rat Activity,2026-05-20T13:03:05.000,"{'latitude': '40.6872889257', 'longitude': '-73.928263220788', 'human_address': '{""address"": """", ""city"": """", ""state"": """", ""zip"": """"}'}",3,36,385,3045029,Bedford-Stuyvesant (East),,
Treatments,3076603,PC8680768,4,1016310047,1,1631,47,168,EAST 104 STREET,10029,40.790661249988,-73.946620055052,Manhattan,2026-05-18T10:45:34.000,Bait applied,2026-05-22T08:38:24.000,"{'latitude': '40.790661249988', 'longitude': '-73.946620055052', 'human_address': '{""address"": """", ""city"": """", ""state"": """", ""zip"": """"}'}",11,8,166,1051935,East Harlem (South),,
Treatments,3076578,PC8676803,4,2024960052,2,2496,52,2,EAST 167 STREET,10452,40.836037161167,-73.922211618006,Bronx,2026-05-18T10:45:58.000,Bait applied,2026-05-19T10:16:01.000,"{'latitude': '40.836037161167', 'longitude': '-73.922211618006', 'human_address': '{""address"": """", ""city"": """", ""state"": """", ""zip"": """"}'}",4,16,197,2003026,Concourse-Concourse Village,,
Treatments,3076458,PC8679882,5,3018300066,3,1830,66,369A,JEFFERSON AVENUE,11221,40.684099514183,-73.942952260487,Brooklyn,2026-05-18T10:46:00.000,Bait applied,2026-05-18T13:32:55.000,"{'latitude': '40.684099514183', 'longitude': '-73.942952260487', 'human_address': '{""address"": """", ""city"": """", ""state"": """", ""zip"": """"}'}",3,36,267,3052104,Bedford-Stuyvesant (West),,
Initial,14304554,PC8715649,1,1016350031,1,1635,31,177,EAST 107 STREET,10029,40.792532338219,-73.944859752579,Manhattan,2026-05-18T10:48:00.000,Failed for Rat Activity,2026-05-20T09:46:46.000,"{'latitude': '40.792532338219', 'longitude': '-73.944859752579', 'human_address': '{""address"": """", ""city"": """", ""state"": """", ""zip"": """"}'}",11,8,172,1000000,East Harlem (South),,
Compliance,14305251,PC8704346,2,3046410028,3,4641,28,879,LENOX ROAD,11203,40.655585784715,-73.926747701597,Brooklyn,2026-05-18T10:50:36.000,Failed for Rat Activity,2026-05-19T12:56:12.000,"{'latitude': '40.655585784715', 'longitude': '-73.926747701597', 'human_address': '{""address"": """", ""city"": """", ""state"": """", ""zip"": """"}'}",17,41,866,3100953,East Flatbush-Rugby,1004575,178135
Initial,14304628,PC8721841,1,1021350017,1,2135,17,845,RIVERSIDE DRIVE,10032,40.836465581295,-73.94668796522,Manhattan,2026-05-18T10:51:00.000,Failed for Rat Activity,2026-05-19T06:50:18.000,"{'latitude': '40.836465581295', 'longitude': '-73.94668796522', 'human_address': '{""address"": """", ""city"": """", ""state"": """", ""zip"": """"}'}",12,7,247,1063290,Washington Heights (South),999004,244024
Initial,14304558,PC8715747,1,1016350032,1,1635,32,179,EAST 107 STREET,10029,40.7925158489,-73.9448164284,Manhattan,2026-05-18T10:52:00.000,Failed for Rat Activity,2026-05-20T09:47:46.000,"{'latitude': '40.7925158489', 'longitude': '-73.9448164284', 'human_address': '{""address"": """", ""city"": """", ""state"": """", ""zip"": """"}'}",11,8,172,1052079,East Harlem (South),,
Initial,14304600,PC8724272,1,1014600039,1,1460,39,420,East 66 street,10065,40.76369881103,-73.958128519484,Manhattan,2026-05-18T10:54:00.000,Failed for Rat Activity,2026-05-19T09:55:01.000,"{'latitude': '40.76369881103', 'longitude': '-73.958128519484', 'human_address': '{""address"": """", ""city"": """", ""state"": """", ""zip"": """"}'}",8,5,116,1045407,Upper East Side-Lenox Hill-Roosevelt Island,,
Compliance,14304899,PC8674067,2,4015080011,4,1508,11,42-22,KETCHAM STREET,11373,40.744892454567,-73.883594944285,Queens,2026-05-18T10:55:00.000,Failed for Other Reason,2026-05-19T11:07:40.000,"{'latitude': '40.744892454567', 'longitude': '-73.883594944285', 'human_address': '{""address"": """", ""city"": """", ""state"": """", ""zip"": """"}'}",4,25,26902,4037276,Elmhurst,1016505,210685
Treatments,3076566,PC8680022,5,4021310016,4,2131,16,102-01,66 ROAD,11375,40.72925755392,-73.852015819693,Queens,2026-05-18T10:55:14.000,Bait applied,2026-05-21T12:27:17.000,"{'latitude': '40.72925755392', 'longitude': '-73.852015819693', 'human_address': '{""address"": """", ""city"": """", ""state"": """", ""zip"": """"}'}",6,29,71304,4051250,Forest Hills,,
Compliance,14304301,PC8679417,2,2037720028,2,3772,28,1250,WHEELER AVENUE,10472,40.829789890922,-73.88039603054,Bronx,2026-05-18T10:55:46.000,Failed for Other Reason,2026-05-20T09:42:50.000,"{'latitude': '40.829789890922', 'longitude': '-73.88039603054', 'human_address': '{""address"": """", ""city"": """", ""state"": """", ""zip"": """"}'}",9,17,54,2025120,Soundview-Bruckner-Bronx River,1017349,241617
Compliance,14305261,PC8698716,2,3011927502,3,1192,7502,961,WASHINGTON AVENUE,11225,40.665997200842,-73.961473890533,Brooklyn,2026-05-18T10:56:02.000,Failed for Rat Activity,2026-05-19T13:30:05.000,"{'latitude': '40.665997200842', 'longitude': '-73.961473890533', 'human_address': '{""address"": """", ""city"": """", ""state"": """", ""zip"": """"}'}",9,35,213,3029725,Crown Heights (South),994938,181922
Compliance,14304372,PC8695933,2,1003870119,1,387,119,620,EAST 6 STREET,10009,40.724059469498,-73.980640727506,Manhattan,2026-05-18T11:00:04.000,Failed for Rat Activity,2026-05-19T09:34:29.000,"{'latitude': '40.724059469498', 'longitude': '-73.980640727506', 'human_address': '{""address"": """", ""city"": """", ""state"": """", ""zip"": """"}'}",3,2,2601,1004652,East Village,,
Compliance,14305284,PC8674459,5,1015630001,1,1563,1,401,EAST   83 STREET,10028,40.774787317085,-73.950456375083,Manhattan,2026-05-18T11:00:41.000,Failed for Other Reason,2026-05-19T10:20:44.000,"{'latitude': '40.774787317085', 'longitude': '-73.950456375083', 'human_address': '{""address"": """", ""city"": """", ""state"": """", ""zip"": """"}'}",8,5,13604,1050449,Upper East Side-Yorkville,997972,221559
Initial,14304335,PC8724039,1,3030810001,3,3081,1,130,HUMBOLDT STREET,11206,40.705689019508,-73.941209678009,Brooklyn,2026-05-18T11:00:44.000,Failed for Other Reason,2026-05-19T11:12:29.000,"{'latitude': '40.705689019508', 'longitude': '-73.941209678009', 'human_address': '{""address"": """", ""city"": """", ""state"": """", ""zip"": """"}'}",1,34,49302,3071357,East Williamsburg,,
Treatments,3076588,PC8679069,3,2028560029,2,2856,29,14,WEST 170 STREET,10452,40.840415042836,-73.918292406897,Bronx,2026-05-18T11:00:58.000,Bait applied,2026-05-19T10:20:19.000,"{'latitude': '40.840415042836', 'longitude': '-73.918292406897', 'human_address': '{""address"": """", ""city"": """", ""state"": """", ""zip"": """"}'}",4,16,219,2008292,Mount Eden-Claremont (West),,
Initial,14305349,PC8721406,1,2026110033,2,2611,33,580,EAST 168 STREET,10456,40.830487336036,-73.904106964538,Bronx,2026-05-18T11:02:30.000,Failed for Other Reason,2026-05-19T11:38:17.000,"{'latitude': '40.830487336036', 'longitude': '-73.904106964538', 'human_address': '{""address"": """", ""city"": """", ""state"": """", ""zip"": """"}'}",3,17,18502,2000000,Morrisania,,
Treatments,3076459,PC8355271,9,3018350025,3,1835,25,382,JEFFERSON AVENUE,11221,40.684124037139,-73.942591679644,Brooklyn,2026-05-18T11:05:00.000,Bait applied,2026-05-18T13:32:00.000,"{'latitude': '40.684124037139', 'longitude': '-73.942591679644', 'human_address': '{""address"": """", ""city"": """", ""state"": """", ""zip"": """"}'}",3,36,267,3052431,Bedford-Stuyvesant (West),,
Treatments,3076526,PC8623494,8,2031190048,2,3119,48,2145,MOHEGAN AVENUE,10460,40.846858671677,-73.882324256688,Bronx,2026-05-18T11:06:35.000,Bait applied,2026-05-19T08:12:18.000,"{'latitude': '40.846858671677', 'longitude': '-73.882324256688', 'human_address': '{""address"": """", ""city"": """", ""state"": """", ""zip"": """"}'}",6,15,363,2000000,West Farms,,
Treatments,3076604,PC8680978,4,1016310048,1,1631,48,166,EAST 104 STREET,10029,40.790718950113,-73.946750018754,Manhattan,2026-05-18T11:06:45.000,Bait applied,2026-05-22T08:38:33.000,"{'latitude': '40.790718950113', 'longitude': '-73.946750018754', 'human_address': '{""address"": """", ""city"": """", ""state"": """", ""zip"": """"}'}",11,8,166,1051936,East Harlem (South),,
Initial,14305162,PC8718574,1,2030860007,2,3086,7,643,EAST 182 STREET,10457,40.851253779395,-73.888620478562,Bronx,2026-05-18T11:07:43.000,Failed for Other Reason,2026-05-19T11:54:12.000,"{'latitude': '40.851253779395', 'longitude': '-73.888620478562', 'human_address': '{""address"": """", ""city"": """", ""state"": """", ""zip"": """"}'}",6,15,391,2012414,Belmont,,
Initial,14305151,PC8715001,1,2031870014,2,3187,14,2334,JEROME AVENUE,10468,40.859418877104,-73.903240836874,Bronx,2026-05-18T11:08:24.000,Failed for Rat Activity,2026-05-22T10:13:53.000,"{'latitude': '40.859418877104', 'longitude': '-73.903240836874', 'human_address': '{""address"": """", ""city"": """", ""state"": """", ""zip"": """"}'}",5,14,239,2000000,Fordham Heights,,
Treatments,3076572,PC8607713,5,4021510101,4,2151,101,65-05,YELLOWSTONE BLVD,11375,40.730771396603,-73.851034639984,Queens,2026-05-18T11:10:14.000,Bait applied,2026-05-21T12:38:46.000,"{'latitude': '40.730771396603', 'longitude': '-73.851034639984', 'human_address': '{""address"": """", ""city"": """", ""state"": """", ""zip"": """"}'}",6,29,743,4432069,Forest Hills,,
Stoppage,3076551,PC8709237,1,1020880036,1,2088,36,3449,Broadway,10031,40.823592569067,-73.952529997063,Manhattan,2026-05-18T11:11:00.000,Stoppage done,2026-05-19T09:01:52.000,"{'latitude': '40.823592569067', 'longitude': '-73.952529997063', 'human_address': '{""address"": """", ""city"": """", ""state"": """", ""zip"": """"}'}",9,7,225,1062321,Hamilton Heights-Sugar Hill,,
Initial,14305093,PC8720215,1,1004650022,1,465,22,35,STUYVESANT STREET,10003,40.729989136204,-73.987678378526,Manhattan,2026-05-18T11:12:00.000,Failed for Rat Activity,2026-05-19T08:32:15.000,"{'latitude': '40.729989136204', 'longitude': '-73.987678378526', 'human_address': '{""address"": """", ""city"": """", ""state"": """", ""zip"": """"}'}",3,2,4002,1006778,East Village,,
Initial,14304547,PC8720975,1,4094570013,4,9457,13,97-14,120 STREET,11419,40.691273737224,-73.825481019543,Queens,2026-05-18T11:15:00.000,Failed for Other Reason,2026-05-19T10:25:35.000,"{'latitude': '40.691273737224', 'longitude': '-73.825481019543', 'human_address': '{""address"": """", ""city"": """", ""state"": """", ""zip"": """"}'}",9,29,154,4199650,South Richmond Hill,1032647,191177
Compliance,14305285,PC8674065,6,1015460016,1,1546,16,325,EAST   83 STREET,10028,40.775603332579,-73.952401862777,Manhattan,2026-05-18T11:15:59.000,Failed for Rat Activity,2026-05-19T10:23:34.000,"{'latitude': '40.775603332579', 'longitude': '-73.952401862777', 'human_address': '{""address"": """", ""city"": """", ""state"": """", ""zip"": """"}'}",8,5,138,1049925,Upper East Side-Yorkville,997433,221856
Treatments,3076460,PC8679868,5,3018350027,3,1835,27,386,JEFFERSON AVENUE,11221,40.684137703165,-73.94247628868,Brooklyn,2026-05-18T11:17:00.000,Bait applied,2026-05-18T13:28:04.000,"{'latitude': '40.684137703165', 'longitude': '-73.94247628868', 'human_address': '{""address"": """", ""city"": """", ""state"": """", ""zip"": """"}'}",3,36,267,3052433,Bedford-Stuyvesant (West),,
Initial,14305152,PC8715221,1,2031870018,2,3187,25,2360,JEROME AVENUE,10468,40.860159569382,-73.902784242445,Bronx,2026-05-18T11:18:21.000,Failed for Other Reason,2026-05-22T10:14:59.000,"{'latitude': '40.860159569382', 'longitude': '-73.902784242445', 'human_address': '{""address"": """", ""city"": """", ""state"": """", ""zip"": """"}'}",5,14,239,2014085,Fordham Heights,,
Compliance,14306214,PC8695459,2,3031660033,3,3166,33,14,IRVING AVENUE,11237,40.705421987225,-73.925664802529,Brooklyn,2026-05-18T11:19:28.000,Failed for Rat Activity,2026-05-21T09:58:19.000,"{'latitude': '40.705421987225', 'longitude': '-73.925664802529', 'human_address': '{""address"": """", ""city"": """", ""state"": """", ""zip"": """"}'}",4,34,427,3072138,Bushwick (West),,
Initial,14305094,PC8720385,1,1004650021,1,465,21,128,EAST 10 STREET,10003,40.730233447553,-73.987934508389,Manhattan,2026-05-18T11:19:50.000,Failed for Other Reason,2026-05-19T08:43:54.000,"{'latitude': '40.730233447553', 'longitude': '-73.987934508389', 'human_address': '{""address"": """", ""city"": """", ""state"": """", ""zip"": """"}'}",3,2,4002,1006777,East Village,,
Compliance,14304373,PC8694560,2,1003790037,1,379,37,133,AVENUE D,10009,40.724371397626,-73.975535623511,Manhattan,2026-05-18T11:20:33.000,Failed for Rat Activity,2026-05-19T09:26:03.000,"{'latitude': '40.724371397626', 'longitude': '-73.975535623511', 'human_address': '{""address"": """", ""city"": """", ""state"": """", ""zip"": """"}'}",3,2,28,1004556,East Village,,
Treatments,3076589,PC8678848,3,2028580001,2,2858,1,1460,MACOMBS ROAD,10452,40.841512539639,-73.917734472803,Bronx,2026-05-18T11:20:58.000,Bait applied,2026-05-19T10:20:33.000,"{'latitude': '40.841512539639', 'longitude': '-73.917734472803', 'human_address': '{""address"": """", ""city"": """", ""state"": """", ""zip"": """"}'}",4,16,219,2008313,Mount Eden-Claremont (West),,
Treatments,3076629,PC8634258,7,2031080004,2,3108,4,2052,MAPES AVENUE,10460,40.845792153822,-73.886226084817,Bronx,2026-05-18T11:21:25.000,Bait applied,2026-05-19T15:11:29.000,"{'latitude': '40.845792153822', 'longitude': '-73.886226084817', 'human_address': '{""address"": """", ""city"": """", ""state"": """", ""zip"": """"}'}",6,15,36501,2012954,Tremont,1015728,247445
Compliance,14304900,PC8703222,2,4015057501,4,1505,7501,40-35,ITHACA STREET,11373,40.745967171006,-73.882387666527,Queens,2026-05-18T11:22:00.000,Failed for Rat Activity and Other Reason,2026-05-19T11:03:21.000,"{'latitude': '40.745967171006', 'longitude': '-73.882387666527', 'human_address': '{""address"": """", ""city"": """", ""state"": """", ""zip"": """"}'}",4,25,26901,4037178,Elmhurst,,
Initial,14304694,PC8722781,1,4006760050,4,676,50,40-20,BROADWAY,11103,40.758852416759,-73.918771859209,Queens,2026-05-18T11:25:00.000,Failed for Rat Activity,2026-05-19T09:01:44.000,"{'latitude': '40.758852416759', 'longitude': '-73.918771859209', 'human_address': '{""address"": """", ""city"": """", ""state"": """", ""zip"": """"}'}",1,22,157,4011018,Astoria (East)-Woodside (North),,
Treatments,3076567,PC8680021,5,4021290014,4,2129,14,102-12,65 AVENUE,11375,40.730493463107,-73.852608404399,Queens,2026-05-18T11:25:14.000,Bait applied,2026-05-21T12:36:02.000,"{'latitude': '40.730493463107', 'longitude': '-73.852608404399', 'human_address': '{""address"": """", ""city"": """", ""state"": """", ""zip"": """"}'}",6,29,721,4432042,Forest Hills,,
Compliance,14304728,PC8647449,8,2028020066,2,2802,66,233,EAST 176 STREET,10457,40.847470048696,-73.905333000585,Bronx,2026-05-18T11:25:53.000,Failed for Rat Activity,2026-05-19T09:08:07.000,"{'latitude': '40.847470048696', 'longitude': '-73.905333000585', 'human_address': '{""address"": """", ""city"": """", ""state"": """", ""zip"": """"}'}",5,15,23302,2007576,Mount Hope,,
Initial,14304926,PC8716628,1,,1,340,1,EAST,HOUSTON STREET,10002,,,Manhattan,2026-05-18T11:25:59.000,Failed for Other Reason,2026-05-19T08:20:42.000,,,,,,,,
Initial,14304791,PC8721816,1,1019940043,1,1994,43,175,CLAREMONT AVENUE,10027,40.814131793707,-73.960737527581,Manhattan,2026-05-18T11:26:00.000,Failed for Rat Activity and Other Reason,2026-05-19T15:46:39.000,"{'latitude': '40.814131793707', 'longitude': '-73.960737527581', 'human_address': '{""address"": """", ""city"": """", ""state"": """", ""zip"": """"}'}",9,7,211,1059868,Morningside Heights,995118,235892
Initial,14304601,PC8724273,1,1014610007,1,1461,7,419,East 66 street,10065,40.763729011261,-73.958150159966,Manhattan,2026-05-18T11:26:00.000,Failed for Rat Activity,2026-05-19T09:57:59.000,"{'latitude': '40.763729011261', 'longitude': '-73.958150159966', 'human_address': '{""address"": """", ""city"": """", ""state"": """", ""zip"": """"}'}",8,5,116,1045569,Upper East Side-Lenox Hill-Roosevelt Island,,
Stoppage,3076530,PC8580454,1,1019750029,1,1975,29,1220,AMSTERDAM AVENUE,10027,40.809437726251,-73.959150845959,Manhattan,2026-05-18T11:26:00.000,Stoppage done,2026-05-19T09:15:13.000,"{'latitude': '40.809437726251', 'longitude': '-73.959150845959', 'human_address': '{""address"": """", ""city"": """", ""state"": """", ""zip"": """"}'}",9,7,203,1059647,Morningside Heights,,
Initial,14305416,PC8715371,1,2031860049,2,3186,49,2246,JEROME AVENUE,10453,40.85783597112,-73.904201137651,Bronx,2026-05-18T11:26:00.000,Failed for Rat Activity and Other Reason,2026-05-21T10:43:20.000,"{'latitude': '40.85783597112', 'longitude': '-73.904201137651', 'human_address': '{""address"": """", ""city"": """", ""state"": """", ""zip"": """"}'}",5,14,239,2014062,Fordham Heights,,
Compliance,14305248,PC8698090,2,1021100041,1,2110,41,425,WEST 162 STREET,10032,40.835121949442,-73.938297773372,Manhattan,2026-05-18T11:28:00.000,Failed for Other Reason,2026-05-21T07:09:21.000,"{'latitude': '40.835121949442', 'longitude': '-73.938297773372', 'human_address': '{""address"": """", ""city"": """", ""state"": """", ""zip"": """"}'}",12,10,24301,1062599,Washington Heights (South),1001324,243543
Compliance,14304374,PC8701341,2,1003920031,1,392,31,159,AVENUE C,10009,40.725733233214,-73.977649325903,Manhattan,2026-05-18T11:28:06.000,Failed for Rat Activity,2026-05-19T09:25:20.000,"{'latitude': '40.725733233214', 'longitude': '-73.977649325903', 'human_address': '{""address"": """", ""city"": """", ""state"": """", ""zip"": """"}'}",3,2,28,1079687,East Village,,
Initial,14305168,PC8718870,1,2030860016,2,3086,16,2246,HUGHES AVENUE,10457,40.8519535279,-73.888456639328,Bronx,2026-05-18T11:28:43.000,Failed for Other Reason,2026-05-19T11:58:35.000,"{'latitude': '40.8519535279', 'longitude': '-73.888456639328', 'human_address': '{""address"": """", ""city"": """", ""state"": """", ""zip"": """"}'}",6,15,391,2012420,Belmont,,
Initial,14305286,PC8722530,1,1015470049,1,1547,49,300,EAST   85 STREET,10028,40.777030390914,-73.951888126845,Manhattan,2026-05-18T11:30:00.000,Failed for Rat Activity,2026-05-19T10:27:30.000,"{'latitude': '40.777030390914', 'longitude': '-73.951888126845', 'human_address': '{""address"": """", ""city"": """", ""state"": """", ""zip"": """"}'}",8,5,14601,1078565,Upper East Side-Yorkville,997575,222376
Initial,14305415,PC8724003,1,3030810075,3,3081,75,124,HUMBOLDT STREET,11206,40.705488632809,-73.941173787835,Brooklyn,2026-05-18T11:30:21.000,Failed for Rat Activity,2026-05-20T11:26:14.000,"{'latitude': '40.705488632809', 'longitude': '-73.941173787835', 'human_address': '{""address"": """", ""city"": """", ""state"": """", ""zip"": """"}'}",1,34,49302,3071362,East Williamsburg,,
Compliance,14305011,PC8695083,2,3031660036,3,3166,36,22,IRVING AVENUE,11237,40.705301081559,-73.925455746476,Brooklyn,2026-05-18T11:30:28.000,Failed for Rat Activity,2026-05-20T15:07:35.000,"{'latitude': '40.705301081559', 'longitude': '-73.925455746476', 'human_address': '{""address"": """", ""city"": """", ""state"": """", ""zip"": """"}'}",4,34,427,3072140,Bushwick (West),,
Initial,14304438,PC8713417,1,2031860048,2,3186,48,2244,JEROME AVENUE,10453,40.85779756299,-73.904222883492,Bronx,2026-05-18T11:31:00.000,Failed for Rat Activity,2026-05-19T13:28:06.000,"{'latitude': '40.85779756299', 'longitude': '-73.904222883492', 'human_address': '{""address"": """", ""city"": """", ""state"": """", ""zip"": """"}'}",5,14,239,2000000,Fordham Heights,,
Initial,14304571,PC8715681,1,1016350041,1,1635,41,178,EAST 108 STREET,10029,40.793130458429,-73.944371699497,Manhattan,2026-05-18T11:31:00.000,Failed for Rat Activity,2026-05-20T09:51:44.000,"{'latitude': '40.793130458429', 'longitude': '-73.944371699497', 'human_address': '{""address"": """", ""city"": """", ""state"": """", ""zip"": """"}'}",11,8,172,1052087,East Harlem (South),,
Stoppage,3076522,PC8552886,3,1018490043,1,1849,43,360,West 116 Street,10026,40.805185414135,-73.957228173464,Manhattan,2026-05-18T11:33:00.000,Stoppage done,2026-05-19T09:15:20.000,"{'latitude': '40.805185414135', 'longitude': '-73.957228173464', 'human_address': '{""address"": """", ""city"": """", ""state"": """", ""zip"": """"}'}",10,9,20102,1055881,Harlem (South),,
Initial,14305369,PC8724274,1,1014600013,1,1460,13,421,EAST 65 STREET,10065,40.762955027811,-73.958255334724,Manhattan,2026-05-18T11:33:00.000,Failed for Rat Activity and Other Reason,2026-05-21T11:06:02.000,"{'latitude': '40.762955027811', 'longitude': '-73.958255334724', 'human_address': '{""address"": """", ""city"": """", ""state"": """", ""zip"": """"}'}",8,5,116,1045394,Upper East Side-Lenox Hill-Roosevelt Island,,
Compliance,14304375,PC8694454,2,1003930036,1,393,36,169,AVENUE C,10009,40.726139398445,-73.977342519427,Manhattan,2026-05-18T11:33:42.000,Failed for Rat Activity,2026-05-19T09:24:41.000,"{'latitude': '40.726139398445', 'longitude': '-73.977342519427', 'human_address': '{""address"": """", ""city"": """", ""state"": """", ""zip"": """"}'}",3,2,28,1004893,East Village,,
Treatments,3076594,PC8676565,4,2025230163,2,2523,163,989,SUMMIT AVENUE,10452,40.832861263332,-73.930403966447,Bronx,2026-05-18T11:34:00.000,Bait applied,2026-05-19T12:44:57.000,"{'latitude': '40.832861263332', 'longitude': '-73.930403966447', 'human_address': '{""address"": """", ""city"": """", ""state"": """", ""zip"": """"}'}",4,16,189,2003432,Highbridge,,
Treatments,3076609,PC8652292,6,1016320022,1,1632,22,1651,LEXINGTON AVENUE,10029,40.791023802593,-73.947150640431,Manhattan,2026-05-18T11:35:13.000,Bait applied,2026-05-22T08:38:49.000,"{'latitude': '40.791023802593', 'longitude': '-73.947150640431', 'human_address': '{""address"": """", ""city"": """", ""state"": """", ""zip"": """"}'}",11,8,166,1051955,East Harlem (South),,
Treatments,3076457,PC8358805,8,3016540007,3,1654,7,500,JEFFERSON AVENUE,11221,40.684692377596,-73.937665899598,Brooklyn,2026-05-18T11:36:00.000,Bait applied,2026-05-18T13:33:37.000,"{'latitude': '40.684692377596', 'longitude': '-73.937665899598', 'human_address': '{""address"": """", ""city"": """", ""state"": """", ""zip"": """"}'}",3,36,275,3045661,Bedford-Stuyvesant (East),,
Initial,14304304,PC8723592,1,1019120037,1,1912,37,106,WEST  128 STREET,10027,40.809920223115,-73.944661057324,Manhattan,2026-05-18T11:36:43.000,Failed for Rat Activity and Other Reason,2026-05-19T13:52:49.000,"{'latitude': '40.809920223115', 'longitude': '-73.944661057324', 'human_address': '{""address"": """", ""city"": """", ""state"": """", ""zip"": """"}'}",10,9,224,1089823,Harlem (North),999569,234360
Initial,14305155,PC8714663,1,2031870038,2,3187,38,2345,WALTON AVENUE,10468,40.859533179039,-73.902087438509,Bronx,2026-05-18T11:38:34.000,Failed for Rat Activity,2026-05-22T10:18:28.000,"{'latitude': '40.859533179039', 'longitude': '-73.902087438509', 'human_address': '{""address"": """", ""city"": """", ""state"": """", ""zip"": """"}'}",5,14,239,2014088,Fordham Heights,,
Compliance,14305012,PC8694052,2,3031660040,3,3166,40,319,JEFFERSON STREET,11237,40.704620708174,-73.925965056504,Brooklyn,2026-05-18T11:39:28.000,Failed for Rat Activity,2026-05-20T15:19:57.000,"{'latitude': '40.704620708174', 'longitude': '-73.925965056504', 'human_address': '{""address"": """", ""city"": """", ""state"": """", ""zip"": """"}'}",4,34,427,3072141,Bushwick (West),,
Initial,14304574,PC8715715,1,1016350044,1,1635,44,172,EAST 108 STREET,10029,40.793182666349,-73.944490836099,Manhattan,2026-05-18T11:40:00.000,Failed for Rat Activity,2026-05-20T09:54:56.000,"{'latitude': '40.793182666349', 'longitude': '-73.944490836099', 'human_address': '{""address"": """", ""city"": """", ""state"": """", ""zip"": """"}'}",11,8,172,1052090,East Harlem (South),,
Initial,14304556,PC8719806,1,4094260068,4,9426,68,101-15,108 STREET,11419,40.686703956108,-73.834932863363,Queens,2026-05-18T11:40:00.000,Failed for Rat Activity and Other Reason,2026-05-22T10:42:57.000,"{'latitude': '40.686703956108', 'longitude': '-73.834932863363', 'human_address': '{""address"": """", ""city"": """", ""state"": """", ""zip"": """"}'}",9,29,110,4198670,South Richmond Hill,1030029,189507
Treatments,3076569,PC8557744,9,4020980018,4,2098,18,63-36,98 PLACE,11374,40.73176011289,-73.857999835175,Queens,2026-05-18T11:40:14.000,Bait applied,2026-05-21T12:37:41.000,"{'latitude': '40.73176011289', 'longitude': '-73.857999835175', 'human_address': '{""address"": """", ""city"": """", ""state"": """", ""zip"": """"}'}",6,24,71701,4050502,Rego Park,1023605,205911
Compliance,14304297,PC8674200,2,2036230001,2,3623,1,820,COLGATE AVENUE,10473,40.819622848268,-73.879904945324,Bronx,2026-05-18T11:40:46.000,Failed for Other Reason,2026-05-20T09:41:07.000,"{'latitude': '40.819622848268', 'longitude': '-73.879904945324', 'human_address': '{""address"": """", ""city"": """", ""state"": """", ""zip"": """"}'}",9,18,28,2092719,Soundview-Bruckner-Bronx River,1017490,237913
Treatments,3076577,PC8693657,5,2025110072,2,2511,72,955,WOODYCREST AVENUE,10452,40.831474247972,-73.928898545825,Bronx,2026-05-18T11:40:58.000,Bait applied,2026-05-19T10:15:40.000,"{'latitude': '40.831474247972', 'longitude': '-73.928898545825', 'human_address': '{""address"": """", ""city"": """", ""state"": """", ""zip"": """"}'}",4,16,189,2124807,Highbridge,,
Treatments,3076595,PC8675963,4,,2,2523,66,939,SUMMIT AVENUE,10452,40.831747278939,-73.931033907605,Bronx,2026-05-18T11:41:00.000,Bait applied,2026-05-19T12:43:48.000,"{'latitude': '40.831747278939', 'longitude': '-73.931033907605', 'human_address': '{""address"": """", ""city"": """", ""state"": """", ""zip"": """"}'}",4,16,189,,Highbridge,,
Initial,14305172,PC8718678,1,2030860021,2,3086,21,2258,HUGHES AVENUE,10457,40.852260786723,-73.888300687843,Bronx,2026-05-18T11:42:43.000,Failed for Other Reason,2026-05-19T12:01:26.000,"{'latitude': '40.852260786723', 'longitude': '-73.888300687843', 'human_address': '{""address"": """", ""city"": """", ""state"": """", ""zip"": """"}'}",6,15,391,2012423,Belmont,,
Compliance,14302719,PC8674127,2,2030000045,2,3000,45,1463,LONGFELLOW AVENUE,10460,40.831525805004,-73.887041956713,Bronx,2026-05-18T11:43:18.000,Failed for Rat Activity and Other Reason,2026-05-19T10:25:44.000,"{'latitude': '40.831525805004', 'longitude': '-73.887041956713', 'human_address': '{""address"": """", ""city"": """", ""state"": """", ""zip"": """"}'}",3,17,157,2100662,Crotona Park East,,
Initial,14305156,PC8713519,1,2031870040,2,3187,40,2335,WALTON AVENUE,10468,40.859360350411,-73.90219253288,Bronx,2026-05-18T11:45:00.000,Failed for Rat Activity and Other Reason,2026-05-22T10:19:45.000,"{'latitude': '40.859360350411', 'longitude': '-73.90219253288', 'human_address': '{""address"": """", ""city"": """", ""state"": """", ""zip"": """"}'}",5,14,239,2014089,Fordham Heights,,
Initial,14305174,PC8718797,1,2030860023,2,3086,23,2262,HUGHES AVENUE,10457,40.852362289028,-73.888246295404,Bronx,2026-05-18T11:46:43.000,Failed for Rat Activity,2026-05-19T12:03:49.000,"{'latitude': '40.852362289028', 'longitude': '-73.888246295404', 'human_address': '{""address"": """", ""city"": """", ""state"": """", ""zip"": """"}'}",6,15,391,2012425,Belmont,,
Compliance,14304729,PC8667904,6,2028520009,2,2852,9,1888,JEROME AVENUE,10453,40.849815700044,-73.910823864333,Bronx,2026-05-18T11:46:45.000,Failed for Rat Activity,2026-05-19T09:14:36.000,"{'latitude': '40.849815700044', 'longitude': '-73.910823864333', 'human_address': '{""address"": """", ""city"": """", ""state"": """", ""zip"": """"}'}",5,14,23301,2008233,Mount Hope,,
Initial,14304576,PC8715746,1,1016350045,1,1635,45,168,EAST 108 STREET,10029,40.793215641726,-73.944570262133,Manhattan,2026-05-18T11:47:00.000,Failed for Rat Activity,2026-05-20T10:00:28.000,"{'latitude': '40.793215641726', 'longitude': '-73.944570262133', 'human_address': '{""address"": """", ""city"": """", ""state"": """", ""zip"": """"}'}",11,8,172,1052091,East Harlem (South),,
Treatments,3076502,PC8656558,6,3015360001,3,1536,1,1961,FULTON STREET,11233,40.678588266576,-73.916515739192,Brooklyn,2026-05-18T11:49:49.000,Bait applied,2026-05-22T08:45:12.000,"{'latitude': '40.678588266576', 'longitude': '-73.916515739192', 'human_address': '{""address"": """", ""city"": """", ""state"": """", ""zip"": """"}'}",3,41,379,3041785,Bedford-Stuyvesant (East),,
Treatments,3076596,PC8675924,4,2025230048,2,2523,48,907,SUMMIT AVENUE,10452,40.831176566023,-73.931356111648,Bronx,2026-05-18T11:50:00.000,Bait applied,2026-05-19T12:43:38.000,"{'latitude': '40.831176566023', 'longitude': '-73.931356111648', 'human_address': '{""address"": """", ""city"": """", ""state"": """", ""zip"": """"}'}",4,16,189,2003407,Highbridge,,
Initial,14304631,PC8709183,1,1021210051,1,2121,51,500,WEST  164 STREET,10032,40.837238462182,-73.938895714903,Manhattan,2026-05-18T11:50:00.000,Failed for Rat Activity,2026-05-19T06:58:00.000,"{'latitude': '40.837238462182', 'longitude': '-73.938895714903', 'human_address': '{""address"": """", ""city"": """", ""state"": """", ""zip"": """"}'}",12,10,24301,1062903,Washington Heights (South),1001158,244314
Initial,14304696,PC8722961,1,4006760010,4,676,10,32-75,STEINWAY STREET,11103,40.757225916126,-73.920401766755,Queens,2026-05-18T11:55:39.000,Failed for Other Reason,2026-05-19T09:00:55.000,"{'latitude': '40.757225916126', 'longitude': '-73.920401766755', 'human_address': '{""address"": """", ""city"": """", ""state"": """", ""zip"": """"}'}",1,22,157,4530777,Astoria (East)-Woodside (North),,
Treatments,3076581,PC8665088,5,2025110068,2,2511,68,963,WOODYCREST AVENUE,10452,40.831663545348,-73.92875379778,Bronx,2026-05-18T11:55:58.000,Bait applied,2026-05-19T10:17:16.000,"{'latitude': '40.831663545348', 'longitude': '-73.92875379778', 'human_address': '{""address"": """", ""city"": """", ""state"": """", ""zip"": """"}'}",4,16,189,2003187,Highbridge,1003966,242285
Initial,14302723,PC8717688,1,2030000044,2,3000,44,1465,LONGFELLOW AVENUE,10460,40.831577923019,-73.887009345296,Bronx,2026-05-18T11:56:00.000,Failed for Rat Activity,2026-05-19T10:15:46.000,"{'latitude': '40.831577923019', 'longitude': '-73.887009345296', 'human_address': '{""address"": """", ""city"": """", ""state"": """", ""zip"": """"}'}",3,17,157,2100663,Crotona Park East,,
Compliance,14304730,PC8652011,8,2028070005,2,2807,5,1976,MORRIS AVENUE,10453,40.851199026805,-73.907330211503,Bronx,2026-05-18T11:59:06.000,Failed for Rat Activity,2026-05-19T09:25:24.000,"{'latitude': '40.851199026805', 'longitude': '-73.907330211503', 'human_address': '{""address"": """", ""city"": """", ""state"": """", ""zip"": """"}'}",5,14,241,2007642,Mount Hope,,
Initial,14305158,PC8713746,1,2031870047,2,3187,47,2323,WALTON AVENUE,10468,40.859151858649,-73.902319370044,Bronx,2026-05-18T11:59:25.000,Failed for Rat Activity and Other Reason,2026-05-22T10:20:37.000,"{'latitude': '40.859151858649', 'longitude': '-73.902319370044', 'human_address': '{""address"": """", ""city"": """", ""state"": """", ""zip"": """"}'}",5,14,239,2014091,Fordham Heights,,
Initial,14304306,PC8715551,1,1019120058,1,1912,58,164,WEST  128 STREET,10027,40.810398344545,-73.945784134818,Manhattan,2026-05-18T11:59:43.000,Failed for Rat Activity and Other Reason,2026-05-19T13:55:04.000,"{'latitude': '40.810398344545', 'longitude': '-73.945784134818', 'human_address': '{""address"": """", ""city"": """", ""state"": """", ""zip"": """"}'}",10,9,224,1057920,Harlem (North),999258,234534
Initial,14305108,PC8720191,1,1004640006,1,465,1,31,3 AVENUE,10003,40.729799945987,-73.989691721175,Manhattan,2026-05-18T11:59:55.000,Failed for Rat Activity and Other Reason,2026-05-19T08:34:06.000,"{'latitude': '40.729799945987', 'longitude': '-73.989691721175', 'human_address': '{""address"": """", ""city"": """", ""state"": """", ""zip"": """"}'}",3,2,38,1006737,East Village,,
Initial,14306177,PC8715769,1,1016350048,1,1635,48,156,EAST 108 STREET,10029,40.793317312279,-73.944808538427,Manhattan,2026-05-18T12:00:00.000,Failed for Other Reason,2026-05-21T11:24:48.000,"{'latitude': '40.793317312279', 'longitude': '-73.944808538427', 'human_address': '{""address"": """", ""city"": """", ""state"": """", ""zip"": """"}'}",11,8,172,1000000,East Harlem (South),,
Initial,14305287,PC8725392,1,1015470104,1,1547,104,303,EAST 84 STREET,10028,40.776399273799,-73.952311026325,Manhattan,2026-05-18T12:00:11.000,Failed for Rat Activity,2026-05-19T10:35:39.000,"{'latitude': '40.776399273799', 'longitude': '-73.952311026325', 'human_address': '{""address"": """", ""city"": """", ""state"": """", ""zip"": """"}'}",8,5,14601,1049982,Upper East Side-Yorkville,,
Treatments,3076574,PC8661454,3,4031180059,4,3118,59,62-46,DIETERLE CRESCENT,11374,40.724345400557,-73.863892778626,Queens,2026-05-18T12:00:14.000,Bait applied,2026-05-21T12:39:19.000,"{'latitude': '40.724345400557', 'longitude': '-73.863892778626', 'human_address': '{""address"": """", ""city"": """", ""state"": """", ""zip"": """"}'}",6,30,69702,4073539,Rego Park,1021976,203207
Compliance,14306215,PC8695429,2,3031660042,3,3166,42,315,JEFFERSON STREET,11237,40.704546645944,-73.926037273217,Brooklyn,2026-05-18T12:00:28.000,Failed for Rat Activity,2026-05-21T09:58:34.000,"{'latitude': '40.704546645944', 'longitude': '-73.926037273217', 'human_address': '{""address"": """", ""city"": """", ""state"": """", ""zip"": """"}'}",4,34,427,3072143,Bushwick (West),,
Initial,14304338,PC8723909,1,3030810050,3,3081,50,330,BUSHWICK AVENUE,11206,40.705194033565,-73.939428385723,Brooklyn,2026-05-18T12:00:47.000,Failed for Rat Activity,2026-05-19T12:13:57.000,"{'latitude': '40.705194033565', 'longitude': '-73.939428385723', 'human_address': '{""address"": """", ""city"": """", ""state"": """", ""zip"": """"}'}",1,34,49302,3071359,East Williamsburg,,
Initial,14306179,PC8715623,1,1016350049,1,1635,49,152,EAST 108 STREET,10029,40.793353033919,-73.944891574034,Manhattan,2026-05-18T12:03:00.000,Failed for Other Reason,2026-05-21T11:29:11.000,"{'latitude': '40.793353033919', 'longitude': '-73.944891574034', 'human_address': '{""address"": """", ""city"": """", ""state"": """", ""zip"": """"}'}",11,8,172,1000000,East Harlem (South),,
Treatments,3076597,PC8629796,4,2025140064,2,2514,64,1149,NELSON AVENUE,10452,40.836300628934,-73.926334742836,Bronx,2026-05-18T12:05:00.000,Bait applied,2026-05-19T12:43:31.000,"{'latitude': '40.836300628934', 'longitude': '-73.926334742836', 'human_address': '{""address"": """", ""city"": """", ""state"": """", ""zip"": """"}'}",4,16,199,2003272,Highbridge,,
Initial,14304385,PC8723809,1,2047110084,2,4711,84,3587,FISH AVENUE,10469,40.878326735446,-73.85128135765,Bronx,2026-05-18T12:05:33.000,Failed for Other Reason,2026-05-18T16:28:37.000,"{'latitude': '40.878326735446', 'longitude': '-73.85128135765', 'human_address': '{""address"": """", ""city"": """", ""state"": """", ""zip"": """"}'}",12,12,382,2059957,Williamsbridge-Olinville,1025376,259313
Initial,14305268,PC8721775,1,3014020001,3,1402,1,1625,PRESIDENT STREET,11213,40.667145505263,-73.933641518391,Brooklyn,2026-05-18T12:06:02.000,Failed for Other Reason,2026-05-19T13:26:43.000,"{'latitude': '40.667145505263', 'longitude': '-73.933641518391', 'human_address': '{""address"": """", ""city"": """", ""state"": """", ""zip"": """"}'}",9,35,35102,3037757,Crown Heights (South),1002659,182345
Initial,14305426,PC8715754,1,1016350149,1,1635,149,1733,LEXINGTON AVENUE,10029,40.793446590091,-73.945382665928,Manhattan,2026-05-18T12:07:00.000,Failed for Rat Activity and Other Reason,2026-05-20T10:34:49.000,"{'latitude': '40.793446590091', 'longitude': '-73.945382665928', 'human_address': '{""address"": """", ""city"": """", ""state"": """", ""zip"": """"}'}",11,8,172,1000000,East Harlem (South),,
Compliance,14304731,PC8389369,20,2028080037,2,2808,37,152,EAST 179 STREET,10453,40.851340545214,-73.905844372547,Bronx,2026-05-18T12:07:58.000,Failed for Rat Activity,2026-05-19T09:29:55.000,"{'latitude': '40.851340545214', 'longitude': '-73.905844372547', 'human_address': '{""address"": """", ""city"": """", ""state"": """", ""zip"": """"}'}",5,14,23501,2129333,Mount Hope,,
Initial,14305395,PC8725417,1,2029310055,2,2931,55,602,EAST 170 STREET,10456,40.834299597375,-73.900661140484,Bronx,2026-05-18T12:09:34.000,Failed for Rat Activity,2026-05-19T13:30:02.000,"{'latitude': '40.834299597375', 'longitude': '-73.900661140484', 'human_address': '{""address"": """", ""city"": """", ""state"": """", ""zip"": """"}'}",3,16,149,2009701,Morrisania,,
Initial,14304909,PC8719875,1,3008480026,3,848,26,550,57 STREET,11220,40.640498413514,-74.013285111523,Brooklyn,2026-05-18T12:10:00.000,Failed for Rat Activity,2026-05-19T14:51:54.000,"{'latitude': '40.640498413514', 'longitude': '-74.013285111523', 'human_address': '{""address"": """", ""city"": """", ""state"": """", ""zip"": """"}'}",7,38,102,3015738,Sunset Park (Central),980563,172630
Treatments,3076556,PC8652327,4,1016440156,1,1644,156,142,EAST 117 STREET,10035,40.799436458008,-73.941484138994,Manhattan,2026-05-18T12:10:00.000,Bait applied,2026-05-22T09:06:29.000,"{'latitude': '40.799436458008', 'longitude': '-73.941484138994', 'human_address': '{""address"": """", ""city"": """", ""state"": """", ""zip"": """"}'}",11,8,182,1052330,East Harlem (North),,
Initial,14304885,PC8713935,1,2028650110,2,2865,110,40,FEATHERBED LANE,10452,40.845940975133,-73.915571176215,Bronx,2026-05-18T12:10:34.000,Failed for Other Reason,2026-05-20T15:14:04.000,"{'latitude': '40.845940975133', 'longitude': '-73.915571176215', 'human_address': '{""address"": """", ""city"": """", ""state"": """", ""zip"": """"}'}",5,14,217,2008427,University Heights (South)-Morris Heights,,
Initial,14305288,PC8722528,1,1015300037,1,1530,37,222,EAST   85 STREET,10028,40.77783538988,-73.953801209366,Manhattan,2026-05-18T12:10:59.000,Failed for Rat Activity,2026-05-19T10:39:38.000,"{'latitude': '40.77783538988', 'longitude': '-73.953801209366', 'human_address': '{""address"": """", ""city"": """", ""state"": """", ""zip"": """"}'}",8,5,14601,1048748,Upper East Side-Yorkville,997045,222669
Compliance,14304793,PC8653485,8,1019510022,1,1951,22,280,ST NICHOLAS AVENUE,10027,40.810184687204,-73.952994765917,Manhattan,2026-05-18T12:11:03.000,Failed for Rat Activity and Other Reason,2026-05-20T10:57:12.000,"{'latitude': '40.810184687204', 'longitude': '-73.952994765917', 'human_address': '{""address"": """", ""city"": """", ""state"": """", ""zip"": """"}'}",10,9,257,1059298,Harlem (South),,
Compliance,14305014,PC8694855,2,3031660044,3,3166,44,311,JEFFERSON STREET,11237,40.704475326114,-73.926105880015,Brooklyn,2026-05-18T12:11:28.000,Failed for Rat Activity,2026-05-20T15:40:02.000,"{'latitude': '40.704475326114', 'longitude': '-73.926105880015', 'human_address': '{""address"": """", ""city"": """", ""state"": """", ""zip"": """"}'}",4,34,427,3072145,Bushwick (West),,
Initial,14305160,PC8714233,1,2031870056,2,3187,56,25,EAST 183 STREET,10453,40.858504760632,-73.903097568337,Bronx,2026-05-18T12:12:42.000,Failed for Rat Activity,2026-05-22T10:21:17.000,"{'latitude': '40.858504760632', 'longitude': '-73.903097568337', 'human_address': '{""address"": """", ""city"": """", ""state"": """", ""zip"": """"}'}",5,14,239,2090482,Fordham Heights,,
Initial,14306185,PC8715659,1,1016350150,1,1635,150,1731,LEXINGTON AVENUE,10029,40.793410922089,-73.945411587619,Manhattan,2026-05-18T12:13:00.000,Failed for Other Reason,2026-05-21T11:29:42.000,"{'latitude': '40.793410922089', 'longitude': '-73.945411587619', 'human_address': '{""address"": """", ""city"": """", ""state"": """", ""zip"": """"}'}",11,8,172,1052105,East Harlem (South),,
Compliance,14305396,PC8699605,2,2029310057,2,2931,57,1397,FRANKLIN AVENUE,10456,40.834115333677,-73.900238606842,Bronx,2026-05-18T12:15:00.000,Failed for Rat Activity and Other Reason,2026-05-19T13:38:36.000,"{'latitude': '40.834115333677', 'longitude': '-73.900238606842', 'human_address': '{""address"": """", ""city"": """", ""state"": """", ""zip"": """"}'}",3,16,149,2009702,Morrisania,,
Treatments,3076576,PC8629653,5,2025140001,2,2514,1,1060,OGDEN AVENUE,10452,40.834589233434,-73.928425412148,Bronx,2026-05-18T12:15:58.000,Bait applied,2026-05-19T10:15:22.000,"{'latitude': '40.834589233434', 'longitude': '-73.928425412148', 'human_address': '{""address"": """", ""city"": """", ""state"": """", ""zip"": """"}'}",4,16,193,2000000,Highbridge,,
Initial,14305184,PC8718403,1,2030860062,2,3086,62,654,EAST 183 STREET,10458,40.852534430946,-73.887450756891,Bronx,2026-05-18T12:17:43.000,Failed for Other Reason,2026-05-19T12:28:00.000,"{'latitude': '40.852534430946', 'longitude': '-73.887450756891', 'human_address': '{""address"": """", ""city"": """", ""state"": """", ""zip"": """"}'}",6,15,391,2012446,Belmont,,
Initial,14304901,PC8722506,1,4016060034,4,1606,34,40-66,98 STREET,11368,40.748167936732,-73.866828629873,Queens,2026-05-18T12:18:00.000,Failed for Rat Activity,2026-05-19T11:02:34.000,"{'latitude': '40.748167936732', 'longitude': '-73.866828629873', 'human_address': '{""address"": """", ""city"": """", ""state"": """", ""zip"": """"}'}",4,21,40901,4040240,Corona,1021149,211885
Treatments,3076505,PC8663547,5,3015780001,3,1578,1,15,MARCUS GARVEY BLVD,11206,40.699384333451,-73.941316239066,Brooklyn,2026-05-18T12:18:32.000,Bait applied,2026-05-22T08:45:36.000,"{'latitude': '40.699384333451', 'longitude': '-73.941316239066', 'human_address': '{""address"": """", ""city"": """", ""state"": """", ""zip"": """"}'}",3,36,28501,3337949,Bedford-Stuyvesant (East),,
Initial,14305254,PC8721124,1,3035840132,3,3584,132,108,LIVONIA AVENUE,11212,40.661766474899,-73.914093099761,Brooklyn,2026-05-18T12:20:36.000,Failed for Other Reason,2026-05-19T12:54:21.000,"{'latitude': '40.661766474899', 'longitude': '-73.914093099761', 'human_address': '{""address"": """", ""city"": """", ""state"": """", ""zip"": """"}'}",16,41,898,3389495,Brownsville,1008084,180390
Treatments,3076555,PC8651806,4,1016440059,1,1644,59,136,EAST 117 STREET,10035,40.799491419149,-73.941614117842,Manhattan,2026-05-18T12:21:00.000,Bait applied,2026-05-22T09:07:44.000,"{'latitude': '40.799491419149', 'longitude': '-73.941614117842', 'human_address': '{""address"": """", ""city"": """", ""state"": """", ""zip"": """"}'}",11,8,182,1052315,East Harlem (North),,
Treatments,3076533,PC8682815,3,2030800072,2,3080,72,679,EAST 179 STREET,10457,40.847025875534,-73.890423973575,Bronx,2026-05-18T12:22:50.000,Bait applied,2026-05-19T07:56:04.000,"{'latitude': '40.847025875534', 'longitude': '-73.890423973575', 'human_address': '{""address"": """", ""city"": """", ""state"": """", ""zip"": """"}'}",6,15,373,2118203,Tremont,,
Compliance,14305372,PC8633779,8,2030500039,2,3050,39,2249,BASSFORD AVENUE,10457,40.854280004388,-73.893119506287,Bronx,2026-05-18T12:23:06.000,Failed for Rat Activity and Other Reason,2026-05-21T11:37:21.000,"{'latitude': '40.854280004388', 'longitude': '-73.893119506287', 'human_address': '{""address"": """", ""city"": """", ""state"": """", ""zip"": """"}'}",6,15,385,2011554,Belmont,,
Initial,14304886,PC8714012,1,2028650166,2,2865,166,1630,GRAND AVENUE,10453,40.846684906595,-73.915718420556,Bronx,2026-05-18T12:24:34.000,Failed for Rat Activity,2026-05-20T15:13:15.000,"{'latitude': '40.846684906595', 'longitude': '-73.915718420556', 'human_address': '{""address"": """", ""city"": """", ""state"": """", ""zip"": """"}'}",5,14,217,2008438,University Heights (South)-Morris Heights,,
Initial,14305289,PC8715587,1,1015120016,1,1512,16,131,EAST   83 STREET,10028,40.777669313357,-73.957296465406,Manhattan,2026-05-18T12:25:59.000,Failed for Rat Activity,2026-05-19T10:41:55.000,"{'latitude': '40.777669313357', 'longitude': '-73.957296465406', 'human_address': '{""address"": """", ""city"": """", ""state"": """", ""zip"": """"}'}",8,4,140,1047649,Upper East Side-Carnegie Hill,996077,222608
Compliance,14304794,PC8639751,8,1019500063,1,1950,63,109,MORNINGSIDE AVENUE,10027,40.81045434315,-73.954663534811,Manhattan,2026-05-18T12:26:03.000,Failed for Rat Activity and Other Reason,2026-05-20T11:00:51.000,"{'latitude': '40.81045434315', 'longitude': '-73.954663534811', 'human_address': '{""address"": """", ""city"": """", ""state"": """", ""zip"": """"}'}",9,9,20901,1059284,Morningside Heights,,
Initial,14304887,PC8712452,1,2028650173,2,2865,173,34,WEST 174 STREET,10453,40.846681618687,-73.914981078191,Bronx,2026-05-18T12:26:34.000,Failed for Other Reason,2026-05-20T15:12:30.000,"{'latitude': '40.846681618687', 'longitude': '-73.914981078191', 'human_address': '{""address"": """", ""city"": """", ""state"": """", ""zip"": """"}'}",5,14,217,2000000,University Heights (South)-Morris Heights,,
Initial,14305186,PC8718613,1,2030860035,2,3086,35,2233,BELMONT AVENUE,10457,40.851584998262,-73.887701784792,Bronx,2026-05-18T12:26:43.000,Failed for Other Reason,2026-05-19T12:45:27.000,"{'latitude': '40.851584998262', 'longitude': '-73.887701784792', 'human_address': '{""address"": """", ""city"": """", ""state"": """", ""zip"": """"}'}",6,15,391,2012435,Belmont,,
Initial,14304588,PC8715742,1,1016350121,1,1635,121,1719,LEXINGTON AVENUE,10029,40.793188672829,-73.945570677765,Manhattan,2026-05-18T12:28:00.000,Failed for Rat Activity,2026-05-20T10:48:27.000,"{'latitude': '40.793188672829', 'longitude': '-73.945570677765', 'human_address': '{""address"": """", ""city"": """", ""state"": """", ""zip"": """"}'}",11,8,172,1052096,East Harlem (South),,
Compliance,14305417,PC8697302,2,1020480001,1,2048,1,59,EDGECOMBE AVENUE,10030,40.818712623799,-73.946741984216,Manhattan,2026-05-18T12:28:00.000,Failed for Rat Activity,2026-05-20T14:27:09.000,"{'latitude': '40.818712623799', 'longitude': '-73.946741984216', 'human_address': '{""address"": """", ""city"": """", ""state"": """", ""zip"": """"}'}",10,9,22102,1060904,Harlem (North),,
Initial,14304881,PC8713446,1,2028650176,2,2865,176,28,WEST 174 STREET,10453,40.846601874176,-73.914782386332,Bronx,2026-05-18T12:28:34.000,Failed for Rat Activity,2026-05-20T15:15:00.000,"{'latitude': '40.846601874176', 'longitude': '-73.914782386332', 'human_address': '{""address"": """", ""city"": """", ""state"": """", ""zip"": """"}'}",5,14,217,2008440,University Heights (South)-Morris Heights,,
Initial,14305434,PC8722988,1,1021360013,1,2136,13,820,RIVERSIDE DRIVE,10032,40.835611482117,-73.945651480436,Manhattan,2026-05-18T12:30:30.000,Failed for Rat Activity and Other Reason,2026-05-20T10:02:04.000,"{'latitude': '40.835611482117', 'longitude': '-73.945651480436', 'human_address': '{""address"": """", ""city"": """", ""state"": """", ""zip"": """"}'}",12,7,247,1063306,Washington Heights (South),999289,243720
