inspection_type,job_ticket_or_work_order_id,job_id,job_progress,bbl,boro_code,block,lot,house_number,street_name,zip_code,latitude,longitude,borough,inspection_date,result,approved_date,location,community_board,council_district,census_tract,bin,nta,x_coord,y_coord
Compliance,14274098,PC8671999,2,4072050033,4,07205,0033,188-01,UNION TURNPIKE,11366,40.729248305137,-73.781027337013,Queens,2026-04-06T08:00:23.000,Failed for Other R,2026-04-08T13:38:34.000,"{'latitude': '40.729248305137', 'longitude': '-73.781027337013', 'human_address': '{""address"": """", ""city"": """", ""state"": """", ""zip"": """"}'}",8,23,1333,4155063,Fresh Meadows-Utopia,,
Initial,14274581,PC8689774,1,1006210069,1,00621,0069,67,CHARLES STREET,10014,40.734787581073,-74.003889800331,Manhattan,2026-04-06T08:00:37.000,Rat Activity,2026-04-07T09:43:59.000,"{'latitude': '40.734787581073', 'longitude': '-74.003889800331', 'human_address': '{""address"": """", ""city"": """", ""state"": """", ""zip"": """"}'}",2,3,73,1011271,West Village,,
Initial,14274582,PC8688918,1,1006210070,1,00621,0070,69,CHARLES STREET,10014,40.734779344684,-74.003951141776,Manhattan,2026-04-06T08:05:56.000,Rat Activity,2026-04-07T09:44:32.000,"{'latitude': '40.734779344684', 'longitude': '-74.003951141776', 'human_address': '{""address"": """", ""city"": """", ""state"": """", ""zip"": """"}'}",2,3,73,1011272,West Village,,
Compliance,14274108,PC8656742,2,4071150030,4,07115,0030,69-80,188 STREET,11365,40.734185426346,-73.783536879181,Queens,2026-04-06T08:22:30.000,Failed for Other R,2026-04-08T16:27:52.000,"{'latitude': '40.734185426346', 'longitude': '-73.783536879181', 'human_address': '{""address"": """", ""city"": """", ""state"": """", ""zip"": """"}'}",8,23,134701,4463782,Fresh Meadows-Utopia,1044383,206450
Treatments,3069917,PC8633169,3,2042860022,2,04286,0022,2110,BRONX PARK EAST,10462,40.853873781238,-73.869226083293,Bronx,2026-04-06T08:30:14.000,Bait applied,2026-04-06T13:37:20.000,"{'latitude': '40.853873781238', 'longitude': '-73.869226083293', 'human_address': '{""address"": """", ""city"": """", ""state"": """", ""zip"": """"}'}",11,13,22401,2048782,Pelham Parkway-Van Nest,1020427,250396
Initial,14274543,PC8698069,1,3057340012,3,05734,0012,6202,NEW UTRECHT AVENUE,11219,40.625907881864,-73.997071216337,Brooklyn,2026-04-06T08:35:50.000,Failed for Other R,2026-04-07T10:16:04.000,"{'latitude': '40.625907881864', 'longitude': '-73.997071216337', 'human_address': '{""address"": """", ""city"": """", ""state"": """", ""zip"": """"}'}",11,43,192,3141667,Borough Park,985063,167314
Initial,14274054,PC8694982,1,3015820002,3,01582,0002,11,LEWIS AVENUE,11206,40.697609455285,-73.937981952079,Brooklyn,2026-04-06T08:36:07.000,Failed for Rat Act,2026-04-09T16:12:07.000,"{'latitude': '40.697609455285', 'longitude': '-73.937981952079', 'human_address': '{""address"": """", ""city"": """", ""state"": """", ""zip"": """"}'}",3,36,287,3427315,Bedford-Stuyvesant (East),,
Initial,14274590,PC8688784,1,1006210077,1,00621,0077,83,CHARLES STREET,10014,40.734716199235,-74.004387747789,Manhattan,2026-04-06T08:38:50.000,Rat Activity,2026-04-07T09:45:08.000,"{'latitude': '40.734716199235', 'longitude': '-74.004387747789', 'human_address': '{""address"": """", ""city"": """", ""state"": """", ""zip"": """"}'}",2,3,73,1011279,West Village,,
Initial,14276481,PC8696245,1,3015820005,3,01582,0005,3,LEWIS AVENUE,11206,40.697944354432,-73.938050159963,Brooklyn,2026-04-06T08:40:07.000,Rat Activity,2026-04-10T10:30:40.000,"{'latitude': '40.697944354432', 'longitude': '-73.938050159963', 'human_address': '{""address"": """", ""city"": """", ""state"": """", ""zip"": """"}'}",3,36,287,3042858,Bedford-Stuyvesant (East),,
Initial,14274591,PC8690057,1,1006210078,1,00621,0078,85,CHARLES STREET,10014,40.734705217814,-74.004449088922,Manhattan,2026-04-06T08:42:16.000,Rat Activity,2026-04-07T09:45:40.000,"{'latitude': '40.734705217814', 'longitude': '-74.004449088922', 'human_address': '{""address"": """", ""city"": """", ""state"": """", ""zip"": """"}'}",2,3,73,1011280,West Village,,
Compliance,14274494,PC8656558,2,3015360001,3,01536,0001,1961,FULTON STREET,11233,40.678588266576,-73.916515739192,Brooklyn,2026-04-06T08:43:00.000,Failed for Rat Act,2026-04-07T09:44:32.000,"{'latitude': '40.678588266576', 'longitude': '-73.916515739192', 'human_address': '{""address"": """", ""city"": """", ""state"": """", ""zip"": """"}'}",3,41,379,3041785,Bedford-Stuyvesant (East),,
Initial,14274057,PC8694344,1,3015820009,3,01582,0009,874,BROADWAY,11206,40.698358637096,-73.937721593783,Brooklyn,2026-04-06T08:45:07.000,Rat Activity,2026-04-09T16:15:34.000,"{'latitude': '40.698358637096', 'longitude': '-73.937721593783', 'human_address': '{""address"": """", ""city"": """", ""state"": """", ""zip"": """"}'}",3,36,287,3337954,Bedford-Stuyvesant (East),,
Initial,14274592,PC8689780,1,1006217503,1,00621,7503,382,BLEECKER STREET,10014,40.735147106492,-74.004900164622,Manhattan,2026-04-06T08:50:00.000,Failed for Rat Act,2026-04-07T09:43:17.000,"{'latitude': '40.735147106492', 'longitude': '-74.004900164622', 'human_address': '{""address"": """", ""city"": """", ""state"": """", ""zip"": """"}'}",2,3,73,1011232,West Village,,
Initial,14274387,PC8688470,1,1006220027,1,00622,0027,99,PERRY STREET,10014,40.73521569619,-74.005546068342,Manhattan,2026-04-06T08:50:04.000,Rat Activity,2026-04-07T09:52:58.000,"{'latitude': '40.73521569619', 'longitude': '-74.005546068342', 'human_address': '{""address"": """", ""city"": """", ""state"": """", ""zip"": """"}'}",2,3,73,1011296,West Village,,
Initial,14274128,PC8699429,1,4070750001,4,07075,0001,187-02,HORACE HARDING EXPRE,11365,40.740182992328,-73.788075047806,Queens,2026-04-06T08:54:02.000,Rat Activity,2026-04-08T16:10:27.000,"{'latitude': '40.740182992328', 'longitude': '-73.788075047806', 'human_address': '{""address"": """", ""city"": """", ""state"": """", ""zip"": """"}'}",8,23,134701,4439486,Fresh Meadows-Utopia,,
Initial,14274388,PC8688187,1,1006220025,1,00622,0025,95,PERRY STREET,10014,40.73524040748,-74.005369260094,Manhattan,2026-04-06T08:54:57.000,Rat Activity,2026-04-07T10:01:09.000,"{'latitude': '40.73524040748', 'longitude': '-74.005369260094', 'human_address': '{""address"": """", ""city"": """", ""state"": """", ""zip"": """"}'}",2,3,73,1011294,West Village,,
Compliance,14274756,PC8674071,2,3059130001,3,05913,0001,901,73 STREET,11228,40.626573962272,-74.014669282421,Brooklyn,2026-04-06T08:56:50.000,Failed for Rat Act,2026-04-08T12:27:46.000,"{'latitude': '40.626573962272', 'longitude': '-74.014669282421', 'human_address': '{""address"": """", ""city"": """", ""state"": """", ""zip"": """"}'}",10,38,206,3147614,Dyker Heights,980178,167557
Initial,14274389,PC8688598,1,1006220024,1,00622,0024,93,PERRY STREET,10014,40.735254135322,-74.005282660217,Manhattan,2026-04-06T08:59:00.000,Rat Activity,2026-04-07T10:01:58.000,"{'latitude': '40.735254135322', 'longitude': '-74.005282660217', 'human_address': '{""address"": """", ""city"": """", ""state"": """", ""zip"": """"}'}",2,3,73,1082461,West Village,,
Treatments,3069991,PC8640449,4,2033600059,2,03360,0059,3546,WEBSTER AVENUE,10467,40.87998642635,-73.871015201427,Bronx,2026-04-06T09:00:45.000,Bait applied,2026-04-08T10:48:06.000,"{'latitude': '40.87998642635', 'longitude': '-73.871015201427', 'human_address': '{""address"": """", ""city"": """", ""state"": """", ""zip"": """"}'}",7,11,43102,2018698,Norwood,1019918,259909
Treatments,3070105,PC8661829,5,3030400020,3,03040,0020,32,SCHOLES STREET,11206,40.708215288667,-73.949214772418,Brooklyn,2026-04-06T09:01:44.000,Bait applied,2026-04-07T11:41:25.000,"{'latitude': '40.708215288667', 'longitude': '-73.949214772418', 'human_address': '{""address"": """", ""city"": """", ""state"": """", ""zip"": """"}'}",1,34,511,3070930,East Williamsburg,998330,197305
Initial,14277272,PC8693392,1,3015820021,3,01582,0021,900,BROADWAY,11206,40.697921796656,-73.936950245153,Brooklyn,2026-04-06T09:02:07.000,Rat Activity,2026-04-12T11:18:45.000,"{'latitude': '40.697921796656', 'longitude': '-73.936950245153', 'human_address': '{""address"": """", ""city"": """", ""state"": """", ""zip"": """"}'}",3,36,287,3000000,Bedford-Stuyvesant (East),,
Initial,14274390,PC8688246,1,1006220023,1,00622,0023,386,BLEECKER STREET,10014,40.735394132169,-74.0049723505,Manhattan,2026-04-06T09:05:55.000,Rat Activity,2026-04-07T10:05:43.000,"{'latitude': '40.735394132169', 'longitude': '-74.0049723505', 'human_address': '{""address"": """", ""city"": """", ""state"": """", ""zip"": """"}'}",2,3,73,1011293,West Village,,
Compliance,14274497,PC8656299,2,3015480030,3,01548,0030,1980,FULTON STREET,11233,40.678744167592,-73.919583659236,Brooklyn,2026-04-06T09:12:00.000,Rat Activity,2026-04-07T09:49:31.000,"{'latitude': '40.678744167592', 'longitude': '-73.919583659236', 'human_address': '{""address"": """", ""city"": """", ""state"": """", ""zip"": """"}'}",3,41,301,3042093,Ocean Hill,,
Compliance,14274234,PC8681666,2,3012960052,3,01296,0052,377,MONTGOMERY STREET,11225,40.665458393031,-73.952001354521,Brooklyn,2026-04-06T09:13:00.000,Rat Activity,2026-04-07T09:55:26.000,"{'latitude': '40.665458393031', 'longitude': '-73.952001354521', 'human_address': '{""address"": """", ""city"": """", ""state"": """", ""zip"": """"}'}",9,35,321,3034169,Crown Heights (South),997566,181727
Treatments,3069909,PC8632096,4,2043420010,2,04342,0010,2280,OLINVILLE AVENUE,10467,40.859562835239,-73.868542435871,Bronx,2026-04-06T09:15:01.000,Bait applied,2026-04-06T13:45:11.000,"{'latitude': '40.859562835239', 'longitude': '-73.868542435871', 'human_address': '{""address"": """", ""city"": """", ""state"": """", ""zip"": """"}'}",11,15,33201,2093351,Allerton,1020613,252469
Initial,14276658,PC8695656,1,3015840001,3,01584,0001,23,LEWIS AVENUE,11206,40.697291026672,-73.937917335799,Brooklyn,2026-04-06T09:15:07.000,Rat Activity,2026-04-10T10:32:31.000,"{'latitude': '40.697291026672', 'longitude': '-73.937917335799', 'human_address': '{""address"": """", ""city"": """", ""state"": """", ""zip"": """"}'}",3,36,287,3000000,Bedford-Stuyvesant (East),,
Initial,14274233,PC8693119,1,4071170300,4,07117,0300,195-60,PECK AVENUE,11365,40.741670584039,-73.779301073181,Queens,2026-04-06T09:20:41.000,Failed for Other R,2026-04-08T16:09:16.000,"{'latitude': '40.741670584039', 'longitude': '-73.779301073181', 'human_address': '{""address"": """", ""city"": """", ""state"": """", ""zip"": """"}'}",8,23,134702,4444092,Fresh Meadows-Utopia,1045407,209567
Initial,14274545,PC8698976,1,3058670020,3,05867,0020,734,68 STREET,11220,40.631259273209,-74.014933315545,Brooklyn,2026-04-06T09:20:50.000,Rat Activity,2026-04-08T12:54:01.000,"{'latitude': '40.631259273209', 'longitude': '-74.014933315545', 'human_address': '{""address"": """", ""city"": """", ""state"": """", ""zip"": """"}'}",10,38,12801,3145430,Dyker Heights,980105,169264
Compliance,14274498,PC8656529,2,3015480032,3,01548,0032,1982,FULTON STREET,11233,40.678738627431,-73.919511559817,Brooklyn,2026-04-06T09:21:00.000,Failed for Other R,2026-04-07T09:51:05.000,"{'latitude': '40.678738627431', 'longitude': '-73.919511559817', 'human_address': '{""address"": """", ""city"": """", ""state"": """", ""zip"": """"}'}",3,41,301,3324703,Ocean Hill,,
Initial,14276671,PC8693987,1,3015840004,3,01584,0004,354,STOCKTON STREET,11206,40.697439134793,-73.937715243384,Brooklyn,2026-04-06T09:21:07.000,Rat Activity,2026-04-10T10:28:05.000,"{'latitude': '40.697439134793', 'longitude': '-73.937715243384', 'human_address': '{""address"": """", ""city"": """", ""state"": """", ""zip"": """"}'}",3,36,287,3000000,Bedford-Stuyvesant (East),,
Initial,14274598,PC8689667,1,1006210027,1,00621,0027,97,CHARLES STREET,10014,40.734570686666,-74.005333122547,Manhattan,2026-04-06T09:25:24.000,Rat Activity,2026-04-07T09:46:20.000,"{'latitude': '40.734570686666', 'longitude': '-74.005333122547', 'human_address': '{""address"": """", ""city"": """", ""state"": """", ""zip"": """"}'}",2,3,73,1011238,West Village,,
Compliance,14273988,PC8658059,2,3016240127,3,01624,0127,562,LEXINGTON AVENUE,11221,40.689163728875,-73.937874449886,Brooklyn,2026-04-06T09:28:04.000,Rat Activity,2026-04-07T08:25:42.000,"{'latitude': '40.689163728875', 'longitude': '-73.937874449886', 'human_address': '{""address"": """", ""city"": """", ""state"": """", ""zip"": """"}'}",3,36,279,3341789,Bedford-Stuyvesant (East),,
Initial,14274073,PC8693640,1,3015840007,3,01584,0007,362,STOCKTON STREET,11206,40.697471922826,-73.937441132115,Brooklyn,2026-04-06T09:28:07.000,Failed for Rat Act,2026-04-09T16:11:07.000,"{'latitude': '40.697471922826', 'longitude': '-73.937441132115', 'human_address': '{""address"": """", ""city"": """", ""state"": """", ""zip"": """"}'}",3,36,287,3042869,Bedford-Stuyvesant (East),,
Stoppage,3069967,PC8691570,1,3002700001,3,00270,0001,110,COURT STREET,11201,40.690440135956,-73.992016449026,Brooklyn,2026-04-06T09:29:00.000,Stoppage done,2026-04-09T09:35:38.000,"{'latitude': '40.690440135956', 'longitude': '-73.992016449026', 'human_address': '{""address"": """", ""city"": """", ""state"": """", ""zip"": """"}'}",2,33,9,3378157,Brooklyn Heights,,
Initial,14274546,PC8699479,1,3058670019,3,05867,0019,732,68 STREET,11220,40.631281226769,-74.014969347788,Brooklyn,2026-04-06T09:29:50.000,Rat Activity,2026-04-08T12:58:49.000,"{'latitude': '40.631281226769', 'longitude': '-74.014969347788', 'human_address': '{""address"": """", ""city"": """", ""state"": """", ""zip"": """"}'}",10,38,12801,3145429,Dyker Heights,,
Treatments,3069908,PC8617563,4,2043420010,2,04342,0010,2300,OLINVILLE AVENUE,10467,40.859801618217,-73.868534731744,Bronx,2026-04-06T09:30:09.000,Bait applied,2026-04-06T13:45:40.000,"{'latitude': '40.859801618217', 'longitude': '-73.868534731744', 'human_address': '{""address"": """", ""city"": """", ""state"": """", ""zip"": """"}'}",11,15,33201,2093350,Allerton,1020615,252556
Treatments,3069990,PC8654680,4,2033510024,2,03351,0024,3282,HULL AVENUE,10467,40.876252325258,-73.874830184076,Bronx,2026-04-06T09:30:45.000,Bait applied,2026-04-07T11:07:24.000,"{'latitude': '40.876252325258', 'longitude': '-73.874830184076', 'human_address': '{""address"": """", ""city"": """", ""state"": """", ""zip"": """"}'}",7,11,42902,2018467,Norwood,1018865,258547
Stoppage,3069919,PC8686744,1,3024370131,3,02437,0131,351,SOUTH 4 STREET,11211,40.708576803808,-73.953827753464,Brooklyn,2026-04-06T09:32:00.000,Stoppage done,2026-04-09T09:40:01.000,"{'latitude': '40.708576803808', 'longitude': '-73.953827753464', 'human_address': '{""address"": """", ""city"": """", ""state"": """", ""zip"": """"}'}",1,34,527,3347395,Williamsburg,,
Initial,14274599,PC8689006,1,1006210029,1,00621,0029,101,CHARLES STREET,10014,40.734543230492,-74.005513537132,Manhattan,2026-04-06T09:33:20.000,Rat Activity,2026-04-07T09:41:09.000,"{'latitude': '40.734543230492', 'longitude': '-74.005513537132', 'human_address': '{""address"": """", ""city"": """", ""state"": """", ""zip"": """"}'}",2,3,73,1011239,West Village,,
Treatments,3069900,PC8612762,7,3010530020,3,01053,0079,263,PROSPECT AVENUE,11215,40.663637214007,-73.989683962772,Brooklyn,2026-04-06T09:35:00.000,Bait applied,2026-04-06T13:41:42.000,"{'latitude': '40.663637214007', 'longitude': '-73.989683962772', 'human_address': '{""address"": """", ""city"": """", ""state"": """", ""zip"": """"}'}",7,39,14102,3000000,Windsor Terrace-South Slope,,
Initial,14274273,PC8689511,1,2028970049,2,02897,0049,1686,WEBSTER AVENUE,10457,40.842813590509,-73.903666262529,Bronx,2026-04-06T09:36:00.000,Failed for Other R,2026-04-08T08:12:06.000,"{'latitude': '40.842813590509', 'longitude': '-73.903666262529', 'human_address': '{""address"": """", ""city"": """", ""state"": """", ""zip"": """"}'}",3,15,167,2009408,Claremont Village-Claremont (East),,
Stoppage,3069965,PC8692256,1,3003450046,3,00345,0046,241,PRESIDENT STREET,11231,40.682049608666,-73.997349968925,Brooklyn,2026-04-06T09:36:00.000,Stoppage done,2026-04-09T09:35:44.000,"{'latitude': '40.682049608666', 'longitude': '-73.997349968925', 'human_address': '{""address"": """", ""city"": """", ""state"": """", ""zip"": """"}'}",6,39,67,3004590,Carroll Gardens-Cobble Hill-Gowanus-Red Hook,,
Initial,14274600,PC8689550,1,1006210030,1,00621,0030,103,CHARLES STREET,10014,40.734529502123,-74.005607352704,Manhattan,2026-04-06T09:37:22.000,Failed for Rat Act,2026-04-07T09:42:09.000,"{'latitude': '40.734529502123', 'longitude': '-74.005607352704', 'human_address': '{""address"": """", ""city"": """", ""state"": """", ""zip"": """"}'}",2,3,73,1011240,West Village,,
Compliance,14274499,PC8656528,2,3015240061,3,01524,0061,17,MAC DOUGAL STREET,11233,40.679006295223,-73.921566268361,Brooklyn,2026-04-06T09:39:00.000,Failed for Other R,2026-04-07T09:53:45.000,"{'latitude': '40.679006295223', 'longitude': '-73.921566268361', 'human_address': '{""address"": """", ""city"": """", ""state"": """", ""zip"": """"}'}",3,41,379,3041449,Bedford-Stuyvesant (East),,
Initial,14274274,PC8688827,1,2028970051,2,02897,0051,1688,WEBSTER AVENUE,10457,40.842838280992,-73.903651769698,Bronx,2026-04-06T09:40:00.000,Rat Activity,2026-04-08T08:11:28.000,"{'latitude': '40.842838280992', 'longitude': '-73.903651769698', 'human_address': '{""address"": """", ""city"": """", ""state"": """", ""zip"": """"}'}",3,15,167,2009409,Claremont Village-Claremont (East),,
Treatments,3069959,PC8378465,12,3036370057,3,03637,0057,664,OSBORN STREET,11212,40.655550783388,-73.905217154558,Brooklyn,2026-04-06T09:40:03.000,Bait applied,2026-04-06T14:10:36.000,"{'latitude': '40.655550783388', 'longitude': '-73.905217154558', 'human_address': '{""address"": """", ""city"": """", ""state"": """", ""zip"": """"}'}",16,42,922,3082955,Brownsville,1010549,178128
Initial,14274275,PC8690113,1,2028970052,2,02897,0052,410,EAST 173 STREET,10457,40.842865284655,-73.903124051949,Bronx,2026-04-06T09:43:00.000,Rat Activity,2026-04-08T08:34:51.000,"{'latitude': '40.842865284655', 'longitude': '-73.903124051949', 'human_address': '{""address"": """", ""city"": """", ""state"": """", ""zip"": """"}'}",3,15,167,2009410,Claremont Village-Claremont (East),,
Stoppage,3069921,PC8684140,1,3024330041,3,02433,0041,215,S 4 St,11211,40.710634791718,-73.959532655024,Brooklyn,2026-04-06T09:43:00.000,Stoppage done,2026-04-09T09:39:45.000,"{'latitude': '40.710634791718', 'longitude': '-73.959532655024', 'human_address': '{""address"": """", ""city"": """", ""state"": """", ""zip"": """"}'}",1,34,523,3063321,Williamsburg,,
Treatments,3069976,PC8345742,20,2028880039,2,02888,0039,380,EAST 173 STREET,10457,40.843093807485,-73.903969452063,Bronx,2026-04-06T09:45:07.000,Bait applied,2026-04-07T10:57:11.000,"{'latitude': '40.843093807485', 'longitude': '-73.903969452063', 'human_address': '{""address"": """", ""city"": """", ""state"": """", ""zip"": """"}'}",4,15,167,2009321,Claremont Village-Claremont (East),,
Treatments,3069913,PC8607281,5,2044290006,2,04429,0006,2504,OLINVILLE AVENUE,10467,40.863580973997,-73.868411539933,Bronx,2026-04-06T09:45:14.000,Bait applied,2026-04-06T13:42:40.000,"{'latitude': '40.863580973997', 'longitude': '-73.868411539933', 'human_address': '{""address"": """", ""city"": """", ""state"": """", ""zip"": """"}'}",11,15,33202,2051301,Allerton,1020647,253933
Compliance,14274237,PC8682453,2,3013180001,3,01318,0001,25,LEFFERTS AVENUE,11225,40.661786182731,-73.959933655049,Brooklyn,2026-04-06T09:47:25.000,Failed for Rat Act,2026-04-07T09:54:04.000,"{'latitude': '40.661786182731', 'longitude': '-73.959933655049', 'human_address': '{""address"": """", ""city"": """", ""state"": """", ""zip"": """"}'}",9,40,327,3034873,Prospect Lefferts Gardens-Wingate,995366,180388
Initial,14274688,PC8692181,1,1018770048,1,01877,0048,244,WEST 106 STREET,10025,40.800991938112,-73.967066223744,Manhattan,2026-04-06T09:48:00.000,Failed for Rat Act,2026-04-07T14:08:27.000,"{'latitude': '40.800991938112', 'longitude': '-73.967066223744', 'human_address': '{""address"": """", ""city"": """", ""state"": """", ""zip"": """"}'}",7,7,191,1056623,Upper West Side-Manhattan Valley,,
Compliance,14274500,PC8656286,2,3015240062,3,01524,0062,15,MAC DOUGAL STREET,11233,40.679006295223,-73.921566268361,Brooklyn,2026-04-06T09:48:00.000,Rat Activity,2026-04-07T09:55:27.000,"{'latitude': '40.679006295223', 'longitude': '-73.921566268361', 'human_address': '{""address"": """", ""city"": """", ""state"": """", ""zip"": """"}'}",3,41,379,3041450,Bedford-Stuyvesant (East),,
Stoppage,3069927,PC8681768,1,3024170003,3,02417,0003,303,Berry Street,11249,40.713389240782,-73.963859600172,Brooklyn,2026-04-06T09:48:00.000,Stoppage done,2026-04-09T09:38:31.000,"{'latitude': '40.713389240782', 'longitude': '-73.963859600172', 'human_address': '{""address"": """", ""city"": """", ""state"": """", ""zip"": """"}'}",1,34,551,3000000,Williamsburg,,
Compliance,14273991,PC8658098,2,3016240074,3,01624,0074,533,QUINCY STREET,11221,40.688417218941,-73.93800135218,Brooklyn,2026-04-06T09:48:04.000,Failed for Other R,2026-04-07T08:29:14.000,"{'latitude': '40.688417218941', 'longitude': '-73.93800135218', 'human_address': '{""address"": """", ""city"": """", ""state"": """", ""zip"": """"}'}",3,36,279,3044254,Bedford-Stuyvesant (East),,
Initial,14274276,PC8688977,1,2028970056,2,02897,0056,418,EAST 173 STREET,10457,40.842807468318,-73.902914510951,Bronx,2026-04-06T09:49:00.000,Failed for Other R,2026-04-08T08:38:29.000,"{'latitude': '40.842807468318', 'longitude': '-73.902914510951', 'human_address': '{""address"": """", ""city"": """", ""state"": """", ""zip"": """"}'}",3,15,167,2009414,Claremont Village-Claremont (East),,
Treatments,3070114,PC8666708,3,3031430014,3,03143,0014,942,FLUSHING AVENUE,11206,40.702767220506,-73.933681662543,Brooklyn,2026-04-06T09:49:12.000,Bait applied,2026-04-07T11:44:55.000,"{'latitude': '40.702767220506', 'longitude': '-73.933681662543', 'human_address': '{""address"": """", ""city"": """", ""state"": """", ""zip"": """"}'}",4,34,425,3071842,Bushwick (West),,
Initial,14274602,PC8688895,1,1006210031,1,00621,0031,105,CHARLES STREET,10014,40.734515773856,-74.005697559902,Manhattan,2026-04-06T09:49:32.000,Rat Activity,2026-04-07T09:42:36.000,"{'latitude': '40.734515773856', 'longitude': '-74.005697559902', 'human_address': '{""address"": """", ""city"": """", ""state"": """", ""zip"": """"}'}",2,3,73,1011241,West Village,,
Treatments,3069947,PC8554123,10,3060370006,3,06037,0006,8501,FORT HAMILTON PARKWAY,11209,40.620860532584,-74.023803116308,Brooklyn,2026-04-06T09:50:41.000,Bait applied,2026-04-06T15:07:51.000,"{'latitude': '40.620860532584', 'longitude': '-74.023803116308', 'human_address': '{""address"": """", ""city"": """", ""state"": """", ""zip"": """"}'}",10,47,142,3153222,Bay Ridge,977642,165476
Treatments,3070022,PC8620590,7,1003110013,1,00311,0013,385,GRAND STREET,10002,40.716336705158,-73.988052468824,Manhattan,2026-04-06T09:50:45.000,Bait applied,2026-04-07T10:30:44.000,"{'latitude': '40.716336705158', 'longitude': '-73.988052468824', 'human_address': '{""address"": """", ""city"": """", ""state"": """", ""zip"": """"}'}",3,1,1401,1077605,Lower East Side,987562,200260
Compliance,14274362,PC8684793,2,1015560036,1,01556,0036,328,EAST   94 STREET,10128,40.782580974569,-73.947215142716,Manhattan,2026-04-06T09:53:00.000,Failed for Rat Act,2026-04-08T08:22:06.000,"{'latitude': '40.782580974569', 'longitude': '-73.947215142716', 'human_address': '{""address"": """", ""city"": """", ""state"": """", ""zip"": """"}'}",8,5,15402,1050292,Upper East Side-Yorkville,998868,224399
Stoppage,3069961,PC8697252,1,3012660053,3,01266,0053,1101,UNION STREET,11225,40.669467659036,-73.95674958747,Brooklyn,2026-04-06T09:55:00.000,Stoppage done,2026-04-09T09:38:14.000,"{'latitude': '40.669467659036', 'longitude': '-73.95674958747', 'human_address': '{""address"": """", ""city"": """", ""state"": """", ""zip"": """"}'}",9,35,325,3032882,Crown Heights (South),,
Compliance,14274109,PC8657214,2,3015610036,3,01561,0036,264,SARATOGA AVENUE,11233,40.676935859827,-73.916445711493,Brooklyn,2026-04-06T09:56:00.000,Rat Activity,2026-04-07T08:47:53.000,"{'latitude': '40.676935859827', 'longitude': '-73.916445711493', 'human_address': '{""address"": """", ""city"": """", ""state"": """", ""zip"": """"}'}",3,41,301,3042424,Ocean Hill,,
Stoppage,3069920,PC8686743,1,3023870040,3,02387,0040,445,GRAND STREET,11211,40.711310178405,-73.952805050893,Brooklyn,2026-04-06T09:56:00.000,Stoppage done,2026-04-09T09:39:55.000,"{'latitude': '40.711310178405', 'longitude': '-73.952805050893', 'human_address': '{""address"": """", ""city"": """", ""state"": """", ""zip"": """"}'}",1,34,513,3062748,Williamsburg,,
Compliance,14273992,PC8657758,2,3016240073,3,01624,0073,533A,QUINCY STREET,11221,40.688417218941,-73.93800135218,Brooklyn,2026-04-06T09:56:04.000,Failed for Other R,2026-04-07T08:30:03.000,"{'latitude': '40.688417218941', 'longitude': '-73.93800135218', 'human_address': '{""address"": """", ""city"": """", ""state"": """", ""zip"": """"}'}",3,36,279,3044253,Bedford-Stuyvesant (East),,
Initial,14274690,PC8691686,1,1018770050,1,01877,0050,248,WEST 106 STREET,10025,40.801090814064,-73.967293727948,Manhattan,2026-04-06T09:57:00.000,Failed for Rat Act,2026-04-07T14:09:45.000,"{'latitude': '40.801090814064', 'longitude': '-73.967293727948', 'human_address': '{""address"": """", ""city"": """", ""state"": """", ""zip"": """"}'}",7,7,191,1056625,Upper West Side-Manhattan Valley,,
Treatments,3069936,PC8619867,11,1012180001,1,1218,0001,575,AMSTERDAM AVENUE,10024,40.788826279572,-73.974164837138,Manhattan,2026-04-06T09:59:17.000,Bait applied,2026-04-08T09:44:11.000,"{'latitude': '40.788826279572', 'longitude': '-73.974164837138', 'human_address': '{""address"": """", ""city"": """", ""state"": """", ""zip"": """"}'}",7,6,173,1032228,Upper West Side (Central),,
Compliance,14274337,PC8656354,2,3015240115,3,01524,0115,104,SUMPTER STREET,11233,40.679854076515,-73.921049699969,Brooklyn,2026-04-06T10:00:00.000,Failed for Other R,2026-04-15T17:10:49.000,"{'latitude': '40.679854076515', 'longitude': '-73.921049699969', 'human_address': '{""address"": """", ""city"": """", ""state"": """", ""zip"": """"}'}",3,41,379,3041462,Bedford-Stuyvesant (East),,
Treatments,3069910,PC8613164,4,2044280056,2,04428,0056,2515,OLINVILLE AVENUE,10467,40.863657851148,-73.868433079464,Bronx,2026-04-06T10:00:13.000,Bait applied,2026-04-06T13:44:41.000,"{'latitude': '40.863657851148', 'longitude': '-73.868433079464', 'human_address': '{""address"": """", ""city"": """", ""state"": """", ""zip"": """"}'}",11,15,33202,2051297,Allerton,1020641,253961
Initial,14274556,PC8693079,1,2049020009,2,04902,0009,1169,EAST  223 STREET,10466,40.881934276145,-73.847826854781,Bronx,2026-04-06T10:00:17.000,Failed for Other R,2026-04-07T11:05:40.000,"{'latitude': '40.881934276145', 'longitude': '-73.847826854781', 'human_address': '{""address"": """", ""city"": """", ""state"": """", ""zip"": """"}'}",12,12,386,2065879,Eastchester-Edenwald-Baychester,1026329,260629
Treatments,3070055,PC8697239,1,1018800061,1,01880,0061,2810,Broadway,10025,40.80326466421,-73.967328776455,Manhattan,2026-04-06T10:00:17.000,Bait applied,2026-04-07T11:20:31.000,"{'latitude': '40.80326466421', 'longitude': '-73.967328776455', 'human_address': '{""address"": """", ""city"": """", ""state"": """", ""zip"": """"}'}",7,7,195,1056690,Upper West Side-Manhattan Valley,,
Treatments,3070004,PC8622316,7,1021530072,1,02153,0072,538,WEST 181 STREET,10033,40.848847943359,-73.932639047134,Manhattan,2026-04-06T10:00:21.000,Bait applied,2026-04-09T09:35:17.000,"{'latitude': '40.848847943359', 'longitude': '-73.932639047134', 'human_address': '{""address"": """", ""city"": """", ""state"": """", ""zip"": """"}'}",12,10,269,1081874,Washington Heights (North),,
Initial,14274636,PC8696741,1,1019240036,1,01924,0036,200,WEST 119 STREET,10026,40.805246210122,-73.951365559727,Manhattan,2026-04-06T10:00:58.000,Failed for Rat Act,2026-04-07T10:14:53.000,"{'latitude': '40.805246210122', 'longitude': '-73.951365559727', 'human_address': '{""address"": """", ""city"": """", ""state"": """", ""zip"": """"}'}",10,9,220,1058427,Harlem (South),,
Treatments,3070113,PC8661090,3,3031540013,3,03154,0013,124,NOLL STREET,11206,40.702458568651,-73.931575720126,Brooklyn,2026-04-06T10:02:48.000,Bait applied,2026-04-07T11:44:31.000,"{'latitude': '40.702458568651', 'longitude': '-73.931575720126', 'human_address': '{""address"": """", ""city"": """", ""state"": """", ""zip"": """"}'}",4,34,425,3071916,Bushwick (West),,
Stoppage,3069964,PC8693047,1,3012880001,3,01288,0001,1607,BEDFORD AVENUE,11225,40.667337526059,-73.956260736655,Brooklyn,2026-04-06T10:04:00.000,Stoppage done,2026-04-09T09:35:50.000,"{'latitude': '40.667337526059', 'longitude': '-73.956260736655', 'human_address': '{""address"": """", ""city"": """", ""state"": """", ""zip"": """"}'}",9,35,323,3033796,Crown Heights (South),,
Compliance,14273993,PC8658270,2,3016240060,3,01624,0060,553,QUINCY STREET,11221,40.688493713808,-73.937341412946,Brooklyn,2026-04-06T10:04:04.000,Rat Activity,2026-04-07T08:31:05.000,"{'latitude': '40.688493713808', 'longitude': '-73.937341412946', 'human_address': '{""address"": """", ""city"": """", ""state"": """", ""zip"": """"}'}",3,36,279,3044243,Bedford-Stuyvesant (East),,
Initial,14274238,PC8698716,1,3011927502,3,01192,7502,961,WASHINGTON AVENUE,11225,40.665997200842,-73.961473890533,Brooklyn,2026-04-06T10:04:25.000,Failed for Rat Act,2026-04-07T09:53:29.000,"{'latitude': '40.665997200842', 'longitude': '-73.961473890533', 'human_address': '{""address"": """", ""city"": """", ""state"": """", ""zip"": """"}'}",9,35,213,3029725,Crown Heights (South),994938,181922
Clean Ups,3070086,PC8657262,3,4016980001,4,01698,0001,32-07,103 STREET,11369,40.759115758726,-73.865936725176,Queens,2026-04-06T10:05:00.000,Cleanup done,2026-04-14T09:12:37.000,"{'latitude': '40.759115758726', 'longitude': '-73.865936725176', 'human_address': '{""address"": """", ""city"": """", ""state"": """", ""zip"": """"}'}",3,21,365,4042029,East Elmhurst,1021390,215874
Initial,14274726,PC8696535,1,2029230016,2,02923,0016,1846,BATHGATE AVENUE,10457,40.845204797093,-73.897934019463,Bronx,2026-04-06T10:05:00.000,Failed for Rat Act,2026-04-07T10:53:05.000,"{'latitude': '40.845204797093', 'longitude': '-73.897934019463', 'human_address': '{""address"": """", ""city"": """", ""state"": """", ""zip"": """"}'}",6,15,395,2009593,Tremont,1012489,247227
Treatments,3069988,PC8297803,25,2028890015,2,02889,0015,1702,CLAY AVENUE,10457,40.844263806613,-73.904860491724,Bronx,2026-04-06T10:05:00.000,Bait applied,2026-04-07T10:57:10.000,"{'latitude': '40.844263806613', 'longitude': '-73.904860491724', 'human_address': '{""address"": """", ""city"": """", ""state"": """", ""zip"": """"}'}",4,15,165,2009330,Claremont Village-Claremont (East),1010573,246882
Initial,14274692,PC8691994,1,1018770015,1,01877,0015,2748,BROADWAY,10025,40.800808283349,-73.967925957139,Manhattan,2026-04-06T10:05:00.000,Rat Activity,2026-04-07T14:13:14.000,"{'latitude': '40.800808283349', 'longitude': '-73.967925957139', 'human_address': '{""address"": """", ""city"": """", ""state"": """", ""zip"": """"}'}",7,7,191,1056608,Upper West Side-Manhattan Valley,,
Initial,14274244,PC8692333,1,4097020062,4,09702,0062,147-01,HILLSIDE AVENUE,11435,40.705776552527,-73.809587497646,Queens,2026-04-06T10:05:17.000,Failed for Other R,2026-04-08T16:08:39.000,"{'latitude': '40.705776552527', 'longitude': '-73.809587497646', 'human_address': '{""address"": """", ""city"": """", ""state"": """", ""zip"": """"}'}",8,24,238,4207345,Jamaica,1037043,196470
Treatments,3069975,PC8297803,26,2028890015,2,02889,0015,1702,CLAY AVENUE,10457,40.844263806613,-73.904860491724,Bronx,2026-04-06T10:05:48.000,Bait applied,2026-04-06T14:24:23.000,"{'latitude': '40.844263806613', 'longitude': '-73.904860491724', 'human_address': '{""address"": """", ""city"": """", ""state"": """", ""zip"": """"}'}",4,15,165,2009330,Claremont Village-Claremont (East),1010573,246882
Initial,14274376,PC8693029,1,1008920013,1,00892,0013,123,EAST   36 STREET,10016,40.747938698149,-73.979381416265,Manhattan,2026-04-06T10:09:52.000,Rat Activity,2026-04-08T09:57:17.000,"{'latitude': '40.747938698149', 'longitude': '-73.979381416265', 'human_address': '{""address"": """", ""city"": """", ""state"": """", ""zip"": """"}'}",6,4,80,1018945,Murray Hill-Kips Bay,989963,211774
Treatments,3069850,PC8387274,29,3013890072,3,01389,0072,961,EASTERN PARKWAY,11213,40.669073761728,-73.936144915602,Brooklyn,2026-04-06T10:10:29.000,Bait applied,2026-04-06T10:16:44.000,"{'latitude': '40.669073761728', 'longitude': '-73.936144915602', 'human_address': '{""address"": """", ""city"": """", ""state"": """", ""zip"": """"}'}",8,35,35301,3037309,Crown Heights (North),1001964,183047
Treatments,3070030,PC8557782,9,3060100001,3,06010,0001,8220,FORT HAMILTON PARKWAY,11209,40.622290954277,-74.021851212101,Brooklyn,2026-04-06T10:10:48.000,Bait applied,2026-04-06T15:15:46.000,"{'latitude': '40.622290954277', 'longitude': '-74.021851212101', 'human_address': '{""address"": """", ""city"": """", ""state"": """", ""zip"": """"}'}",10,47,142,3152216,Bay Ridge,978184,165997
Initial,14274135,PC8699319,1,3030880021,3,03096,7501,85,GRAHAM AVENUE,11206,40.704569938032,-73.942761553159,Brooklyn,2026-04-06T10:12:00.000,Rat Activity,2026-04-14T11:20:18.000,"{'latitude': '40.704569938032', 'longitude': '-73.942761553159', 'human_address': '{""address"": """", ""city"": """", ""state"": """", ""zip"": """"}'}",1,34,491,3071403,East Williamsburg,,
Treatments,3070031,PC8653770,6,1004000042,1,00400,0042,231,EAST 4 STREET,10009,40.723442255411,-73.982895740324,Manhattan,2026-04-06T10:12:00.000,Bait applied,2026-04-16T09:27:41.000,"{'latitude': '40.723442255411', 'longitude': '-73.982895740324', 'human_address': '{""address"": """", ""city"": """", ""state"": """", ""zip"": """"}'}",3,2,32,1077634,East Village,,
Stoppage,3069963,PC8693057,1,3012810048,3,01281,0048,1079,CARROLL STREET,11225,40.667369649224,-73.954177205643,Brooklyn,2026-04-06T10:13:00.000,Stoppage done,2026-04-09T09:38:00.000,"{'latitude': '40.667369649224', 'longitude': '-73.954177205643', 'human_address': '{""address"": """", ""city"": """", ""state"": """", ""zip"": """"}'}",9,35,323,3033492,Crown Heights (South),,
Initial,14274638,PC8696815,1,1019240029,1,01924,0029,1960,ADAM C POWELL BLVD,10026,40.804617725844,-73.951514118848,Manhattan,2026-04-06T10:15:00.000,Rat Activity,2026-04-07T10:31:35.000,"{'latitude': '40.804617725844', 'longitude': '-73.951514118848', 'human_address': '{""address"": """", ""city"": """", ""state"": """", ""zip"": """"}'}",10,9,220,1058420,Harlem (South),,
Compliance,14274363,PC8684060,2,1015540039,1,01554,0039,320,EAST   92 STREET,10128,40.781381997716,-73.948270475124,Manhattan,2026-04-06T10:15:00.000,Rat Activity,2026-04-08T08:14:30.000,"{'latitude': '40.781381997716', 'longitude': '-73.948270475124', 'human_address': '{""address"": """", ""city"": """", ""state"": """", ""zip"": """"}'}",8,5,15402,1050226,Upper East Side-Yorkville,998576,223962
Stoppage,3069918,PC8672306,1,3016040002,3,01604,0002,35,Malcolm X Blvd,11221,40.693139768136,-73.931080468086,Brooklyn,2026-04-06T10:15:00.000,Stoppage done,2026-04-09T09:40:14.000,"{'latitude': '40.693139768136', 'longitude': '-73.931080468086', 'human_address': '{""address"": """", ""city"": """", ""state"": """", ""zip"": """"}'}",3,36,289,3043290,Bedford-Stuyvesant (East),,
Initial,14274358,PC8698077,1,1018490002,1,01849,0002,351,WEST  114 STREET,10026,40.803755626935,-73.957839541104,Manhattan,2026-04-06T10:15:17.000,Rat Activity,2026-04-07T13:41:26.000,"{'latitude': '40.803755626935', 'longitude': '-73.957839541104', 'human_address': '{""address"": """", ""city"": """", ""state"": """", ""zip"": """"}'}",10,9,20102,1055862,Harlem (South),,
Compliance,14274248,PC8651729,2,1016430033,1,01643,0033,2102,3 AVENUE,10029,40.797404796648,-73.9404204634,Manhattan,2026-04-06T10:15:20.000,Rat Activity,2026-04-07T09:20:02.000,"{'latitude': '40.797404796648', 'longitude': '-73.9404204634', 'human_address': '{""address"": """", ""city"": """", ""state"": """", ""zip"": """"}'}",11,8,182,1000000,East Harlem (North),,
Treatments,3070005,PC8622362,5,1021540007,1,02154,0007,1430,ST NICHOLAS AVENUE,10033,40.849663609093,-73.933462348069,Manhattan,2026-04-06T10:15:43.000,Bait applied,2026-04-09T09:35:05.000,"{'latitude': '40.849663609093', 'longitude': '-73.933462348069', 'human_address': '{""address"": """", ""city"": """", ""state"": """", ""zip"": """"}'}",12,10,269,1063642,Washington Heights (North),,
Treatments,3069912,PC8623006,4,2045060040,2,04506,0040,2859,BARKER AVENUE,10467,40.867419032227,-73.869221036401,Bronx,2026-04-06T10:15:46.000,Bait applied,2026-04-06T13:43:04.000,"{'latitude': '40.867419032227', 'longitude': '-73.869221036401', 'human_address': '{""address"": """", ""city"": """", ""state"": """", ""zip"": """"}'}",11,12,33601,2093463,Allerton,1020421,255331
Compliance,14273998,PC8657615,2,3016290010,3,01629,0010,556,QUINCY STREET,11221,40.688376160263,-73.938210528573,Brooklyn,2026-04-06T10:16:04.000,Rat Activity,2026-04-15T17:10:23.000,"{'latitude': '40.688376160263', 'longitude': '-73.938210528573', 'human_address': '{""address"": """", ""city"": """", ""state"": """", ""zip"": """"}'}",3,36,277,3044466,Bedford-Stuyvesant (East),,
Initial,14274158,PC8695286,1,3018090042,3,01809,0042,310,TOMPKINS AVENUE,11216,40.687212942813,-73.944694777047,Brooklyn,2026-04-06T10:18:51.000,Rat Activity,2026-04-07T09:38:28.000,"{'latitude': '40.687212942813', 'longitude': '-73.944694777047', 'human_address': '{""address"": """", ""city"": """", ""state"": """", ""zip"": """"}'}",3,36,265,3050962,Bedford-Stuyvesant (West),,
Stoppage,3069968,PC8691562,1,3012970006,3,01297,0006,903,NOSTRAND AVENUE,11225,40.665836692635,-73.950869235194,Brooklyn,2026-04-06T10:19:00.000,Stoppage done,2026-04-09T09:35:33.000,"{'latitude': '40.665836692635', 'longitude': '-73.950869235194', 'human_address': '{""address"": """", ""city"": """", ""state"": """", ""zip"": """"}'}",9,35,319,3034175,Crown Heights (South),,
Compliance,14274338,PC8656395,2,3015080003,3,01508,0003,237,RALPH AVENUE,11233,40.681477202773,-73.922461109229,Brooklyn,2026-04-06T10:20:00.000,Rat Activity,2026-04-07T10:35:38.000,"{'latitude': '40.681477202773', 'longitude': '-73.922461109229', 'human_address': '{""address"": """", ""city"": """", ""state"": """", ""zip"": """"}'}",3,41,379,3040758,Bedford-Stuyvesant (East),,
Compliance,14274263,PC8652022,2,1016430023,1,01643,0023,159,EAST 115 STREET,10029,40.797718295492,-73.941583173029,Manhattan,2026-04-06T10:20:00.000,Rat Activity,2026-04-07T09:22:18.000,"{'latitude': '40.797718295492', 'longitude': '-73.941583173029', 'human_address': '{""address"": """", ""city"": """", ""state"": """", ""zip"": """"}'}",11,8,182,1052241,East Harlem (North),,
Treatments,3070045,PC8558893,15,1011210041,1,1121,0041,18,WEST 69 STREET,10023,40.774579087486,-73.97811667723,Manhattan,2026-04-06T10:20:17.000,Bait applied,2026-04-07T11:13:56.000,"{'latitude': '40.774579087486', 'longitude': '-73.97811667723', 'human_address': '{""address"": """", ""city"": """", ""state"": """", ""zip"": """"}'}",7,6,15301,1028461,Upper West Side-Lincoln Square,,
Treatments,3069977,PC8444092,13,2028870114,2,02887,0114,396,EAST 171 STREET,10457,40.838624644994,-73.906411767311,Bronx,2026-04-06T10:20:20.000,Bait applied,2026-04-07T10:57:12.000,"{'latitude': '40.838624644994', 'longitude': '-73.906411767311', 'human_address': '{""address"": """", ""city"": """", ""state"": """", ""zip"": """"}'}",4,16,17702,2009299,Mount Eden-Claremont (West),,
Initial,14274403,PC8688112,1,1006220034,1,00622,0034,286,WEST 11 STREET,10014,40.735978770656,-74.004885792364,Manhattan,2026-04-06T10:20:25.000,Rat Activity,2026-04-07T10:06:25.000,"{'latitude': '40.735978770656', 'longitude': '-74.004885792364', 'human_address': '{""address"": """", ""city"": """", ""state"": """", ""zip"": """"}'}",2,3,73,1011302,West Village,,
Treatments,3069911,PC8632461,4,2045060001,2,04506,0001,2733,BARKER AVENUE,10467,40.865848963266,-73.869148210668,Bronx,2026-04-06T10:20:52.000,Bait applied,2026-04-06T13:43:40.000,"{'latitude': '40.865848963266', 'longitude': '-73.869148210668', 'human_address': '{""address"": """", ""city"": """", ""state"": """", ""zip"": """"}'}",11,12,33601,2093451,Allerton,1020442,254759
Initial,14274112,PC8656195,1,3015490020,3,01549,0020,2016,FULTON STREET,11233,40.67862740349,-73.917496331707,Brooklyn,2026-04-06T10:21:00.000,Failed for Other R,2026-04-07T08:50:04.000,"{'latitude': '40.67862740349', 'longitude': '-73.917496331707', 'human_address': '{""address"": """", ""city"": """", ""state"": """", ""zip"": """"}'}",3,41,301,3000000,Ocean Hill,,
Initial,14274239,PC8691566,1,3050260075,3,05026,0075,2111,BEEKMAN PLACE,11225,40.659994305949,-73.961282739214,Brooklyn,2026-04-06T10:21:25.000,Failed for Rat Act,2026-04-07T09:52:00.000,"{'latitude': '40.659994305949', 'longitude': '-73.961282739214', 'human_address': '{""address"": """", ""city"": """", ""state"": """", ""zip"": """"}'}",9,40,79802,3114596,Prospect Lefferts Gardens-Wingate,994992,179735
Initial,14274639,PC8697033,1,1019240027,1,01924,0027,203,WEST 118 STREET,10026,40.804642566875,-73.951842806434,Manhattan,2026-04-06T10:22:58.000,Rat Activity,2026-04-07T10:33:36.000,"{'latitude': '40.804642566875', 'longitude': '-73.951842806434', 'human_address': '{""address"": """", ""city"": """", ""state"": """", ""zip"": """"}'}",10,9,220,1000000,Harlem (South),,
Compliance,14274265,PC8652433,2,1016430021,1,01643,0021,151,EAST 115 STREET,10029,40.797789743346,-73.94174925188,Manhattan,2026-04-06T10:23:00.000,Failed for Other R,2026-04-07T09:25:24.000,"{'latitude': '40.797789743346', 'longitude': '-73.94174925188', 'human_address': '{""address"": """", ""city"": """", ""state"": """", ""zip"": """"}'}",11,8,182,1052239,East Harlem (North),,
Compliance,14273995,PC8658297,2,3016240051,3,01624,0051,567,QUINCY STREET,11221,40.68854561129,-73.936879816726,Brooklyn,2026-04-06T10:24:04.000,Rat Activity,2026-04-07T08:32:54.000,"{'latitude': '40.68854561129', 'longitude': '-73.936879816726', 'human_address': '{""address"": """", ""city"": """", ""state"": """", ""zip"": """"}'}",3,36,279,3044236,Bedford-Stuyvesant (East),,
Treatments,3070112,PC8638302,4,3031540001,3,03154,0001,43,CENTRAL AVENUE,11206,40.70178889631,-73.931662967486,Brooklyn,2026-04-06T10:24:04.000,Bait applied,2026-04-07T11:44:19.000,"{'latitude': '40.70178889631', 'longitude': '-73.931662967486', 'human_address': '{""address"": """", ""city"": """", ""state"": """", ""zip"": """"}'}",4,34,425,3387566,Bushwick (West),,
Initial,14274286,PC8689729,1,,2,02898,0053,EAST,173 STREET,10457,,,Bronx,2026-04-06T10:25:00.000,Failed for Other R,2026-04-08T09:56:11.000,,,,,,,,
Initial,14274138,PC8699315,1,3030960022,3,03096,0022,73,GRAHAM AVENUE,11206,40.704084072274,-73.942679018264,Brooklyn,2026-04-06T10:25:20.000,Rat Activity,2026-04-14T12:17:31.000,"{'latitude': '40.704084072274', 'longitude': '-73.942679018264', 'human_address': '{""address"": """", ""city"": """", ""state"": """", ""zip"": """"}'}",1,34,491,3071444,East Williamsburg,,
Initial,14274698,PC8692103,1,1018770022,1,01877,0022,225,WEST 105 STREET,10025,40.800121849967,-73.967055820166,Manhattan,2026-04-06T10:26:00.000,Rat Activity,2026-04-07T14:18:21.000,"{'latitude': '40.800121849967', 'longitude': '-73.967055820166', 'human_address': '{""address"": """", ""city"": """", ""state"": """", ""zip"": """"}'}",7,7,191,1085318,Upper West Side-Manhattan Valley,,
Stoppage,3069926,PC8683136,1,3031720030,3,03172,0030,94,CENTRAL AVENUE,11206,40.700560698158,-73.929540008357,Brooklyn,2026-04-06T10:26:00.000,Stoppage done,2026-04-09T09:38:38.000,"{'latitude': '40.700560698158', 'longitude': '-73.929540008357', 'human_address': '{""address"": """", ""city"": """", ""state"": """", ""zip"": """"}'}",4,34,425,3072252,Bushwick (West),,
Initial,14274557,PC8697227,1,2046430031,2,04643,0031,664,EAST  213 STREET,10467,40.879514352594,-73.866228221625,Bronx,2026-04-06T10:27:17.000,Rat Activity,2026-04-07T11:05:11.000,"{'latitude': '40.879514352594', 'longitude': '-73.866228221625', 'human_address': '{""address"": """", ""city"": """", ""state"": """", ""zip"": """"}'}",12,12,378,2057310,Williamsbridge-Olinville,1021242,259739
Initial,14274289,PC8689286,1,2028980058,2,02898,0058,403,EAST 173 STREET,10457,40.842936815156,-73.903322730587,Bronx,2026-04-06T10:29:00.000,Failed for Other R,2026-04-08T08:33:50.000,"{'latitude': '40.842936815156', 'longitude': '-73.903322730587', 'human_address': '{""address"": """", ""city"": """", ""state"": """", ""zip"": """"}'}",3,15,165,2009427,Claremont Village-Claremont (East),,
Treatments,3070032,PC8653854,6,1004000020,1,00400,0020,528,EAST 5 STREET,10009,40.724504582351,-73.98359537793,Manhattan,2026-04-06T10:30:00.000,Bait applied,2026-04-16T09:29:28.000,"{'latitude': '40.724504582351', 'longitude': '-73.98359537793', 'human_address': '{""address"": """", ""city"": """", ""state"": """", ""zip"": """"}'}",3,2,32,1005022,East Village,,
Initial,14274247,PC8699431,1,4097900003,4,09790,0003,160-15,84 ROAD,11432,40.714077331183,-73.805029401784,Queens,2026-04-06T10:30:16.000,Rat Activity,2026-04-08T15:51:01.000,"{'latitude': '40.714077331183', 'longitude': '-73.805029401784', 'human_address': '{""address"": """", ""city"": """", ""state"": """", ""zip"": """"}'}",8,24,450,4209490,Jamaica Hills-Briarwood,,
Treatments,3070046,PC8584774,11,1011420136,1,01142,0136,108,WEST 71 STREET,10023,40.776879479791,-73.979682935604,Manhattan,2026-04-06T10:30:17.000,Bait applied,2026-04-07T11:15:02.000,"{'latitude': '40.776879479791', 'longitude': '-73.979682935604', 'human_address': '{""address"": """", ""city"": """", ""state"": """", ""zip"": """"}'}",7,6,157,1029781,Upper West Side-Lincoln Square,,
Treatments,3070006,PC8622305,5,1021540072,1,02154,0072,1474,ST NICHOLAS AVENUE,10033,40.850950340551,-73.932521240161,Manhattan,2026-04-06T10:30:58.000,Bait applied,2026-04-09T09:34:48.000,"{'latitude': '40.850950340551', 'longitude': '-73.932521240161', 'human_address': '{""address"": """", ""city"": """", ""state"": """", ""zip"": """"}'}",12,10,269,1063673,Washington Heights (North),,
Initial,14274405,PC8687962,1,1006220036,1,00622,0036,282,WEST 11 STREET,10014,40.735997989912,-74.004745065598,Manhattan,2026-04-06T10:31:10.000,Rat Activity,2026-04-07T10:06:48.000,"{'latitude': '40.735997989912', 'longitude': '-74.004745065598', 'human_address': '{""address"": """", ""city"": """", ""state"": """", ""zip"": """"}'}",2,3,73,1011304,West Village,,
Initial,14274290,PC8689544,1,2028980001,2,02898,0001,1700,WEBSTER AVENUE,10457,40.843375996873,-73.903351003978,Bronx,2026-04-06T10:33:00.000,Rat Activity,2026-04-08T09:56:38.000,"{'latitude': '40.843375996873', 'longitude': '-73.903351003978', 'human_address': '{""address"": """", ""city"": """", ""state"": """", ""zip"": """"}'}",3,15,165,2094563,Claremont Village-Claremont (East),,
Compliance,14274364,PC8684477,2,1015530016,1,01553,0016,333,EAST   90 STREET,10128,40.780059343599,-73.948979225862,Manhattan,2026-04-06T10:33:00.000,Rat Activity,2026-04-08T08:06:56.000,"{'latitude': '40.780059343599', 'longitude': '-73.948979225862', 'human_address': '{""address"": """", ""city"": """", ""state"": """", ""zip"": """"}'}",8,5,15401,1050180,Upper East Side-Yorkville,998380,223480
Stoppage,3069971,PC8685893,1,3013110038,3,01311,0038,658,MONTGOMERY STREET,11225,40.664968574619,-73.943264259106,Brooklyn,2026-04-06T10:33:00.000,Stoppage done,2026-04-09T09:35:13.000,"{'latitude': '40.664968574619', 'longitude': '-73.943264259106', 'human_address': '{""address"": """", ""city"": """", ""state"": """", ""zip"": """"}'}",9,35,331,3034643,Crown Heights (South),,
Compliance,14274311,PC8652429,2,1016430007,1,01643,0007,115,EAST 115 STREET,10029,40.798399811943,-73.943215111361,Manhattan,2026-04-06T10:34:20.000,Failed for Rat Act,2026-04-07T09:33:18.000,"{'latitude': '40.798399811943', 'longitude': '-73.943215111361', 'human_address': '{""address"": """", ""city"": """", ""state"": """", ""zip"": """"}'}",11,8,182,1052232,East Harlem (North),,
Compliance,14274339,PC8656627,2,3015080005,3,01508,0005,235,RALPH AVENUE,11233,40.681548574212,-73.922471842298,Brooklyn,2026-04-06T10:35:00.000,Rat Activity,2026-04-07T10:39:23.000,"{'latitude': '40.681548574212', 'longitude': '-73.922471842298', 'human_address': '{""address"": """", ""city"": """", ""state"": """", ""zip"": """"}'}",3,41,379,3040759,Bedford-Stuyvesant (East),,
Initial,14274727,PC8692289,1,2030710035,2,03071,0035,611,EAST  182 STREET,10457,40.851748609319,-73.889425729656,Bronx,2026-04-06T10:35:00.000,Failed for Other R,2026-04-07T10:50:54.000,"{'latitude': '40.851748609319', 'longitude': '-73.889425729656', 'human_address': '{""address"": """", ""city"": """", ""state"": """", ""zip"": """"}'}",6,15,391,2012081,Belmont,1014840,249614
Treatments,3069943,PC8674495,3,1012210007,1,01221,0007,136,WEST   91 STREET,10024,40.790425882409,-73.971675975666,Manhattan,2026-04-06T10:35:05.000,Bait applied,2026-04-13T15:15:37.000,"{'latitude': '40.790425882409', 'longitude': '-73.971675975666', 'human_address': '{""address"": """", ""city"": """", ""state"": """", ""zip"": """"}'}",7,6,177,1077129,Upper West Side (Central),992093,227254
Initial,14274174,PC8695922,1,3018090029,3,01809,0029,382,QUINCY STREET,11216,40.687509876358,-73.945736600686,Brooklyn,2026-04-06T10:35:11.000,Rat Activity,2026-04-07T09:28:06.000,"{'latitude': '40.687509876358', 'longitude': '-73.945736600686', 'human_address': '{""address"": """", ""city"": """", ""state"": """", ""zip"": """"}'}",3,36,265,3050949,Bedford-Stuyvesant (West),,
Treatments,3069914,PC8593709,6,2045120052,2,04512,0052,2723,BARNES AVENUE,10467,40.86602904973,-73.863511287277,Bronx,2026-04-06T10:35:16.000,Bait applied,2026-04-06T13:41:03.000,"{'latitude': '40.86602904973', 'longitude': '-73.863511287277', 'human_address': '{""address"": """", ""city"": """", ""state"": """", ""zip"": """"}'}",11,13,340,2053736,Allerton,1022001,254827
Treatments,3069979,PC8647336,6,2024500107,2,02450,0107,1248,GRANT AVENUE,10456,40.834148882976,-73.914624937731,Bronx,2026-04-06T10:35:16.000,Bait applied,2026-04-07T10:57:12.000,"{'latitude': '40.834148882976', 'longitude': '-73.914624937731', 'human_address': '{""address"": """", ""city"": """", ""state"": """", ""zip"": """"}'}",4,16,17901,2103403,Concourse-Concourse Village,,
Compliance,14274503,PC8655109,2,3014930006,3,01493,0006,784,HALSEY STREET,11233,40.684943827483,-73.922421006263,Brooklyn,2026-04-06T10:36:00.000,Rat Activity,2026-04-07T10:00:14.000,"{'latitude': '40.684943827483', 'longitude': '-73.922421006263', 'human_address': '{""address"": """", ""city"": """", ""state"": """", ""zip"": """"}'}",3,41,377,3039993,Bedford-Stuyvesant (East),,
Stoppage,3069924,PC8684513,1,3031960008,3,03196,0008,127,CENTRAL AVENUE,11221,40.699818780031,-73.928202802425,Brooklyn,2026-04-06T10:38:00.000,Stoppage done,2026-04-09T09:38:50.000,"{'latitude': '40.699818780031', 'longitude': '-73.928202802425', 'human_address': '{""address"": """", ""city"": """", ""state"": """", ""zip"": """"}'}",4,34,423,3325275,Bushwick (West),,
Initial,14274767,PC8694471,1,3018090026,3,01809,0026,378,QUINCY STREET,11216,40.687496205349,-73.945848391058,Brooklyn,2026-04-06T10:38:34.000,Rat Activity,2026-04-08T06:54:53.000,"{'latitude': '40.687496205349', 'longitude': '-73.945848391058', 'human_address': '{""address"": """", ""city"": """", ""state"": """", ""zip"": """"}'}",3,36,265,3050946,Bedford-Stuyvesant (West),,
Treatments,3070068,PC8663618,3,3016040104,3,01604,0104,31,MALCOLM X BOULEVARD,11221,40.693285258393,-73.931109165881,Brooklyn,2026-04-06T10:39:39.000,Bait applied,2026-04-09T10:29:35.000,"{'latitude': '40.693285258393', 'longitude': '-73.931109165881', 'human_address': '{""address"": """", ""city"": """", ""state"": """", ""zip"": """"}'}",3,36,289,3043292,Bedford-Stuyvesant (East),,
Initial,14274291,PC8688866,1,2028980010,2,02898,0010,1714,WEBSTER AVENUE,10457,40.843664060028,-73.903191555534,Bronx,2026-04-06T10:40:00.000,Failed for Other R,2026-04-08T09:57:05.000,"{'latitude': '40.843664060028', 'longitude': '-73.903191555534', 'human_address': '{""address"": """", ""city"": """", ""state"": """", ""zip"": """"}'}",3,15,165,2117920,Claremont Village-Claremont (East),,
Initial,14274831,PC8698064,1,3044520446,3,04452,0446,504,VANDALIA AVENUE,11239,40.655339716837,-73.874150645848,Brooklyn,2026-04-06T10:40:11.000,Rat Activity,2026-04-08T10:58:07.000,"{'latitude': '40.655339716837', 'longitude': '-73.874150645848', 'human_address': '{""address"": """", ""city"": """", ""state"": """", ""zip"": """"}'}",5,42,107001,3421915,Spring Creek-Starrett City,,
Treatments,3070029,PC8608496,11,1004170066,1,00417,0066,177,ORCHARD STREET,10002,40.721749420863,-73.988379790034,Manhattan,2026-04-06T10:40:45.000,Bait applied,2026-04-07T10:39:01.000,"{'latitude': '40.721749420863', 'longitude': '-73.988379790034', 'human_address': '{""address"": """", ""city"": """", ""state"": """", ""zip"": """"}'}",3,1,3001,1005556,Lower East Side,,
Treatments,3069891,PC8503584,10,3006610004,3,00661,0004,793,4 ave,11232,40.659007236057,-73.999509824141,Brooklyn,2026-04-06T10:41:00.000,Bait applied,2026-04-06T13:51:00.000,"{'latitude': '40.659007236057', 'longitude': '-73.999509824141', 'human_address': '{""address"": """", ""city"": """", ""state"": """", ""zip"": """"}'}",7,38,101,3009756,Sunset Park (West),,
Initial,14274702,PC8691921,1,1018770031,1,01877,0031,920,AMSTERDAM AVENUE,10025,40.799858088363,-73.966142142988,Manhattan,2026-04-06T10:41:00.000,Rat Activity,2026-04-07T14:20:09.000,"{'latitude': '40.799858088363', 'longitude': '-73.966142142988', 'human_address': '{""address"": """", ""city"": """", ""state"": """", ""zip"": """"}'}",7,7,191,1056614,Upper West Side-Manhattan Valley,,
Stoppage,3069973,PC8685155,1,3014220001,3,01422,0001,675,EMPIRE BLVD,11213,40.66388246837,-73.939512902472,Brooklyn,2026-04-06T10:41:00.000,Stoppage done,2026-04-09T09:34:58.000,"{'latitude': '40.66388246837', 'longitude': '-73.939512902472', 'human_address': '{""address"": """", ""city"": """", ""state"": """", ""zip"": """"}'}",9,35,331,3038330,Crown Heights (South),,
Initial,14274550,PC8698670,1,3060370006,3,06037,0006,602,85 STREET,11209,40.620874298998,-74.023597797698,Brooklyn,2026-04-06T10:42:25.000,Failed for Other R,2026-04-08T13:18:42.000,"{'latitude': '40.620874298998', 'longitude': '-74.023597797698', 'human_address': '{""address"": """", ""city"": """", ""state"": """", ""zip"": """"}'}",10,47,142,3153222,Bay Ridge,977699,165481
Compliance,14274357,PC8651724,2,1016430071,1,01643,0071,100,EAST 116 STREET,10029,40.799140729057,-73.942882186542,Manhattan,2026-04-06T10:43:20.000,Rat Activity,2026-04-07T10:05:10.000,"{'latitude': '40.799140729057', 'longitude': '-73.942882186542', 'human_address': '{""address"": """", ""city"": """", ""state"": """", ""zip"": """"}'}",11,8,182,1052275,East Harlem (North),,
Initial,14274408,PC8688544,1,1006220039,1,00622,0039,276,WEST 11 STREET,10014,40.736025446019,-74.004535779409,Manhattan,2026-04-06T10:43:35.000,Failed for Other R,2026-04-07T10:11:03.000,"{'latitude': '40.736025446019', 'longitude': '-74.004535779409', 'human_address': '{""address"": """", ""city"": """", ""state"": """", ""zip"": """"}'}",2,3,73,1011307,West Village,,
Compliance,14274504,PC8655855,2,3014930002,3,01493,0002,776,HALSEY STREET,11233,40.684916530827,-73.922644587914,Brooklyn,2026-04-06T10:44:00.000,Rat Activity,2026-04-07T10:01:48.000,"{'latitude': '40.684916530827', 'longitude': '-73.922644587914', 'human_address': '{""address"": """", ""city"": """", ""state"": """", ""zip"": """"}'}",3,41,377,3039989,Bedford-Stuyvesant (East),,
Compliance,14274115,PC8656305,2,3015490001,3,01549,0001,1986,FULTON STREET,11233,40.678705250448,-73.918887882578,Brooklyn,2026-04-06T10:44:00.000,Rat Activity,2026-04-07T08:54:11.000,"{'latitude': '40.678705250448', 'longitude': '-73.918887882578', 'human_address': '{""address"": """", ""city"": """", ""state"": """", ""zip"": """"}'}",3,41,301,3337944,Ocean Hill,,
Initial,14274292,PC8689579,1,2028980024,2,02898,0024,424,EAST 174 STREET,10457,40.84396238198,-73.902182731111,Bronx,2026-04-06T10:45:00.000,Failed for Other R,2026-04-08T10:03:33.000,"{'latitude': '40.84396238198', 'longitude': '-73.902182731111', 'human_address': '{""address"": """", ""city"": """", ""state"": """", ""zip"": """"}'}",3,15,165,2000000,Claremont Village-Claremont (East),,
Stoppage,3069929,PC8656736,1,3032430042,2,03243,0042,214,Central Ave,,0.00000000000000000000,0.00000000000000000000,Bronx,2026-04-06T10:45:00.000,Stoppage done,2026-04-09T09:38:26.000,"{'latitude': '0.0', 'longitude': '0.0', 'human_address': '{""address"": """", ""city"": """", ""state"": """", ""zip"": """"}'}",4,34,421,3073771,Bushwick (West),,
Initial,14274097,PC8693869,1,3016130009,3,01613,0009,1182,BROADWAY,11221,40.692552891159,-73.927449778867,Brooklyn,2026-04-06T10:45:00.000,Rat Activity,2026-04-10T10:38:54.000,"{'latitude': '40.692552891159', 'longitude': '-73.927449778867', 'human_address': '{""address"": """", ""city"": """", ""state"": """", ""zip"": """"}'}",3,41,387,3043688,Bedford-Stuyvesant (East),,
Treatments,3069931,PC8611052,3,3035880001,3,03588,0001,175B,RIVERDALE AVENUE,11212,40.660778047642,-73.910115194908,Brooklyn,2026-04-06T10:45:03.000,Bait applied,2026-04-06T14:06:48.000,"{'latitude': '40.660778047642', 'longitude': '-73.910115194908', 'human_address': '{""address"": """", ""city"": """", ""state"": """", ""zip"": """"}'}",16,41,916,3345358,Brownsville,1009188,180031
Treatments,3070047,PC8613564,13,1012140061,1,01214,0061,495,AMSTERDAM AVENUE,10024,40.786164291482,-73.976108669702,Manhattan,2026-04-06T10:45:17.000,Bait applied,2026-04-07T11:15:26.000,"{'latitude': '40.786164291482', 'longitude': '-73.976108669702', 'human_address': '{""address"": """", ""city"": """", ""state"": """", ""zip"": """"}'}",7,6,169,1032123,Upper West Side (Central),,
Treatments,3070007,PC8623220,6,1021570067,1,02157,0067,1520,ST NICHOLAS AVENUE,10033,40.852473009755,-73.931409958374,Manhattan,2026-04-06T10:45:29.000,Bait applied,2026-04-16T09:20:01.000,"{'latitude': '40.852473009755', 'longitude': '-73.931409958374', 'human_address': '{""address"": """", ""city"": """", ""state"": """", ""zip"": """"}'}",12,10,269,1063788,Washington Heights (North),,
Compliance,14274761,PC8671649,2,2038990049,2,03899,0049,1443,TAYLOR AVENUE,10460,40.836268259274,-73.866170956814,Bronx,2026-04-06T10:45:37.000,Failed for Other R,2026-04-08T11:32:56.000,"{'latitude': '40.836268259274', 'longitude': '-73.866170956814', 'human_address': '{""address"": """", ""city"": """", ""state"": """", ""zip"": """"}'}",9,17,218,2028224,Soundview-Bruckner-Bronx River,1021282,243983
Compliance,14274249,PC8660475,2,4097920047,4,09792,0047,161-13,84 ROAD,11432,40.714295190511,-73.804018733597,Queens,2026-04-06T10:45:48.000,Rat Activity,2026-04-08T15:50:29.000,"{'latitude': '40.714295190511', 'longitude': '-73.804018733597', 'human_address': '{""address"": """", ""city"": """", ""state"": """", ""zip"": """"}'}",8,24,450,4209551,Jamaica Hills-Briarwood,1038580,199577
Initial,14274644,PC8696875,1,1019260027,1,01926,0027,203,WEST 120 STREET,10027,40.805973454325,-73.951097721749,Manhattan,2026-04-06T10:45:58.000,Rat Activity,2026-04-07T10:41:36.000,"{'latitude': '40.805973454325', 'longitude': '-73.951097721749', 'human_address': '{""address"": """", ""city"": """", ""state"": """", ""zip"": """"}'}",10,9,220,1000000,Harlem (South),,
Initial,14274703,PC8691643,1,1018770032,1,01877,0032,926,AMSTERDAM AVENUE,10025,40.800061155948,-73.965993951351,Manhattan,2026-04-06T10:46:00.000,Rat Activity,2026-04-07T14:22:02.000,"{'latitude': '40.800061155948', 'longitude': '-73.965993951351', 'human_address': '{""address"": """", ""city"": """", ""state"": """", ""zip"": """"}'}",7,7,191,1056615,Upper West Side-Manhattan Valley,,
Compliance,14274240,PC8682483,2,3050260070,3,05026,0070,2121,BEEKMAN PLACE,11225,40.66001066701,-73.960965552245,Brooklyn,2026-04-06T10:46:25.000,Failed for Rat Act,2026-04-07T09:50:10.000,"{'latitude': '40.66001066701', 'longitude': '-73.960965552245', 'human_address': '{""address"": """", ""city"": """", ""state"": """", ""zip"": """"}'}",9,40,79802,3114595,Prospect Lefferts Gardens-Wingate,995080,179741
Stoppage,3069972,PC8688741,1,,3,01299,0047,398B,KINGSTON AVENUE,,0.00000000000000000000,0.00000000000000000000,Brooklyn,2026-04-06T10:49:00.000,Stoppage done,2026-04-09T09:35:05.000,"{'latitude': '0.0', 'longitude': '0.0', 'human_address': '{""address"": """", ""city"": """", ""state"": """", ""zip"": """"}'}",,,,,,,
Initial,14274029,PC8693671,1,3020200037,3,02020,0037,200,LEFFERTS PLACE,11238,40.680402776437,-73.956558592942,Brooklyn,2026-04-06T10:49:02.000,Rat Activity,2026-04-08T05:40:05.000,"{'latitude': '40.680402776437', 'longitude': '-73.956558592942', 'human_address': '{""address"": """", ""city"": """", ""state"": """", ""zip"": """"}'}",3,36,227,3057875,Bedford-Stuyvesant (West),,
Initial,14274293,PC8690004,1,2028980031,2,02898,0031,4026,PARK AVENUE,10457,40.84327585638,-73.901782561777,Bronx,2026-04-06T10:50:00.000,Failed for Other R,2026-04-07T13:13:02.000,"{'latitude': '40.84327585638', 'longitude': '-73.901782561777', 'human_address': '{""address"": """", ""city"": """", ""state"": """", ""zip"": """"}'}",3,15,165,2000000,Claremont Village-Claremont (East),,
Stoppage,3069925,PC8684127,1,3031970012,3,03197,0012,78,STARR STREET,11237,40.701939232965,-73.926224112028,Brooklyn,2026-04-06T10:50:00.000,Stoppage done,2026-04-09T09:38:44.000,"{'latitude': '40.701939232965', 'longitude': '-73.926224112028', 'human_address': '{""address"": """", ""city"": """", ""state"": """", ""zip"": """"}'}",4,34,429,3072725,Bushwick (West),,
Initial,14274551,PC8699480,1,3060370001,3,06037,0001,8523,Fort Hamilton Parkway,11209,40.620500852268,-74.024343309615,Brooklyn,2026-04-06T10:50:25.000,Rat Activity,2026-04-08T13:26:39.000,"{'latitude': '40.620500852268', 'longitude': '-74.024343309615', 'human_address': '{""address"": """", ""city"": """", ""state"": """", ""zip"": """"}'}",10,47,142,3153221,Bay Ridge,,
Treatments,3069906,PC8639987,4,2044410046,2,04441,0046,2561,BRONXWOOD AVENUE,10469,40.863987458245,-73.861624644183,Bronx,2026-04-06T10:50:38.000,Bait applied,2026-04-06T13:46:37.000,"{'latitude': '40.863987458245', 'longitude': '-73.861624644183', 'human_address': '{""address"": """", ""city"": """", ""state"": """", ""zip"": """"}'}",11,13,328,2051555,Allerton,1022524,254084
Treatments,3070057,PC8632190,5,3016070040,3,01607,0040,40,MALCOLM X BOULEVARD,11221,40.692785662177,-73.931030350567,Brooklyn,2026-04-06T10:52:00.000,Bait applied,2026-04-09T10:33:32.000,"{'latitude': '40.692785662177', 'longitude': '-73.931030350567', 'human_address': '{""address"": """", ""city"": """", ""state"": """", ""zip"": """"}'}",3,36,289,3043464,Bedford-Stuyvesant (East),1003376,191687
Compliance,14274361,PC8667350,2,1016210035,1,01621,0035,81,EAST 115 STREET,10029,40.798757049299,-73.944070809327,Manhattan,2026-04-06T10:52:20.000,Rat Activity,2026-04-07T10:41:21.000,"{'latitude': '40.798757049299', 'longitude': '-73.944070809327', 'human_address': '{""address"": """", ""city"": """", ""state"": """", ""zip"": """"}'}",11,8,184,1051645,East Harlem (North),,
Initial,14274359,PC8698076,1,,1,01922,0036,000,7 AVENUE,,0.00000000000000000000,0.00000000000000000000,Manhattan,2026-04-06T10:53:34.000,Rat Activity,2026-04-07T13:48:55.000,"{'latitude': '0.0', 'longitude': '0.0', 'human_address': '{""address"": """", ""city"": """", ""state"": """", ""zip"": """"}'}",,,,,,,
Initial,14274294,PC8688991,1,1013100001,2,02898,0051,425,PARK AVENUE,,0.00000000000000000000,0.00000000000000000000,Bronx,2026-04-06T10:55:00.000,Failed for Other R,2026-04-07T13:16:03.000,"{'latitude': '0.0', 'longitude': '0.0', 'human_address': '{""address"": """", ""city"": """", ""state"": """", ""zip"": """"}'}",5,4,100,1036505,East Midtown-Turtle Bay,,
Initial,14274365,PC8697298,1,1015530007,1,01553,0007,309,EAST   90 STREET,10128,40.780229697312,-73.949383506861,Manhattan,2026-04-06T10:55:00.000,Rat Activity,2026-04-08T07:58:47.000,"{'latitude': '40.780229697312', 'longitude': '-73.949383506861', 'human_address': '{""address"": """", ""city"": """", ""state"": """", ""zip"": """"}'}",8,5,15401,1050171,Upper East Side-Yorkville,998268,223542
Initial,14274757,PC8699348,1,2025270061,2,02527,0061,1055,UNIVERSITY AVENUE,10452,40.834669964212,-73.930268356981,Bronx,2026-04-06T10:55:12.000,Rat Activity,2026-04-07T11:07:34.000,"{'latitude': '40.834669964212', 'longitude': '-73.930268356981', 'human_address': '{""address"": """", ""city"": """", ""state"": """", ""zip"": """"}'}",4,16,193,2003497,Highbridge,,
Treatments,3070025,PC8479711,19,1003980052,1,00398,0052,174,EAST 2 STREET,10009,40.722550458104,-73.984678166007,Manhattan,2026-04-06T10:55:45.000,Bait applied,2026-04-07T10:31:40.000,"{'latitude': '40.722550458104', 'longitude': '-73.984678166007', 'human_address': '{""address"": """", ""city"": """", ""state"": """", ""zip"": """"}'}",3,2,3002,1004983,East Village,,
Initial,14274035,PC8695769,1,3020200043,3,02020,0043,212,LEFFERTS PLACE,11238,40.680342281711,-73.956270201121,Brooklyn,2026-04-06T10:56:24.000,Rat Activity,2026-04-08T05:27:13.000,"{'latitude': '40.680342281711', 'longitude': '-73.956270201121', 'human_address': '{""address"": """", ""city"": """", ""state"": """", ""zip"": """"}'}",3,36,227,3057881,Bedford-Stuyvesant (West),,
Treatments,3070039,PC8667583,4,1003780009,1,00378,0009,140,AVENUE C,10009,40.725137700401,-73.978071641896,Manhattan,2026-04-06T10:57:00.000,Bait applied,2026-04-16T09:31:04.000,"{'latitude': '40.725137700401', 'longitude': '-73.978071641896', 'human_address': '{""address"": """", ""city"": """", ""state"": """", ""zip"": """"}'}",3,2,2602,1004529,East Village,,
Stoppage,3069970,PC8690837,1,3012760072,3,01276,0072,1201,President Street,11225,40.668054237873,-73.9503232819,Brooklyn,2026-04-06T10:57:00.000,Stoppage done,2026-04-09T09:35:19.000,"{'latitude': '40.668054237873', 'longitude': '-73.9503232819', 'human_address': '{""address"": """", ""city"": """", ""state"": """", ""zip"": """"}'}",9,35,319,3000000,Crown Heights (South),,
Initial,14274441,PC8691931,1,3013060037,3,01306,0037,103,EMPIRE BOULEVARD,11225,40.663429846268,-73.958642262084,Brooklyn,2026-04-06T10:58:00.000,Failed for Rat Act,2026-04-07T09:33:41.000,"{'latitude': '40.663429846268', 'longitude': '-73.958642262084', 'human_address': '{""address"": """", ""city"": """", ""state"": """", ""zip"": """"}'}",9,35,327,3034457,Prospect Lefferts Gardens-Wingate,,
Stoppage,3069922,PC8684488,1,3032800008,3,03280,0008,203,Irving Avenue,11237,40.701338353531,-73.918452700741,Brooklyn,2026-04-06T10:59:00.000,Stoppage done,2026-04-09T09:39:38.000,"{'latitude': '40.701338353531', 'longitude': '-73.918452700741', 'human_address': '{""address"": """", ""city"": """", ""state"": """", ""zip"": """"}'}",4,37,443,3074853,Bushwick (West),,
Initial,14274198,PC8695848,1,3018090009,3,01809,0009,348,QUINCY STREET,11216,40.687359519268,-73.94703119615,Brooklyn,2026-04-06T10:59:11.000,Failed for Other R,2026-04-07T09:41:41.000,"{'latitude': '40.687359519268', 'longitude': '-73.94703119615', 'human_address': '{""address"": """", ""city"": """", ""state"": """", ""zip"": """"}'}",3,36,265,3050930,Bedford-Stuyvesant (West),,
Treatments,3069978,PC8647704,6,2024210011,2,02421,0011,904,MORRIS AVENUE,10451,40.82629592421,-73.918042424676,Bronx,2026-04-06T11:00:15.000,Bait applied,2026-04-07T10:57:13.000,"{'latitude': '40.82629592421', 'longitude': '-73.918042424676', 'human_address': '{""address"": """", ""city"": """", ""state"": """", ""zip"": """"}'}",4,16,173,2001926,Concourse-Concourse Village,,
Treatments,3070048,PC8671681,4,1010710023,1,01071,0023,515,WEST   42 STREET,10036,40.759954303744,-73.996249503281,Manhattan,2026-04-06T11:00:17.000,Bait applied,2026-04-07T11:15:42.000,"{'latitude': '40.759954303744', 'longitude': '-73.996249503281', 'human_address': '{""address"": """", ""city"": """", ""state"": """", ""zip"": """"}'}",4,3,12901,1026914,Hell's Kitchen,985289,216151
Initial,14274770,PC8696638,1,1019260029,1,01926,0029,2006,ADAM C POWELL BLVD,10027,40.805932049572,-73.95055230686,Manhattan,2026-04-06T11:00:58.000,Rat Activity,2026-04-09T08:56:41.000,"{'latitude': '40.805932049572', 'longitude': '-73.95055230686', 'human_address': '{""address"": """", ""city"": """", ""state"": """", ""zip"": """"}'}",10,9,220,1079501,Harlem (South),,
Treatments,3069890,PC8503428,11,3006550013,3,00655,0013,214,25 STREET,11232,40.660154527705,-73.99751663972,Brooklyn,2026-04-06T11:02:00.000,Bait applied,2026-04-06T13:51:54.000,"{'latitude': '40.660154527705', 'longitude': '-73.99751663972', 'human_address': '{""address"": """", ""city"": """", ""state"": """", ""zip"": """"}'}",7,38,101,3336871,Sunset Park (West),,
Stoppage,3069923,PC8684487,1,3032800006,3,03280,0006,207,Irving Avenue,11237,40.701253157825,-73.918301331154,Brooklyn,2026-04-06T11:02:00.000,Stoppage done,2026-04-09T09:38:58.000,"{'latitude': '40.701253157825', 'longitude': '-73.918301331154', 'human_address': '{""address"": """", ""city"": """", ""state"": """", ""zip"": """"}'}",4,37,443,3074851,Bushwick (West),,
Compliance,14274374,PC8667221,2,1016210029,1,01621,0029,69,EAST 115 STREET,10029,40.798795521471,-73.944164684532,Manhattan,2026-04-06T11:02:20.000,Failed for Rat Act,2026-04-07T10:44:44.000,"{'latitude': '40.798795521471', 'longitude': '-73.944164684532', 'human_address': '{""address"": """", ""city"": """", ""state"": """", ""zip"": """"}'}",11,8,184,1051642,East Harlem (North),,
Initial,14274241,PC8698622,1,3050560010,3,05056,0010,2007,BEDFORD AVENUE,11226,40.655702446171,-73.956358495878,Brooklyn,2026-04-06T11:03:25.000,Failed for Rat Act,2026-04-07T09:49:44.000,"{'latitude': '40.655702446171', 'longitude': '-73.956358495878', 'human_address': '{""address"": """", ""city"": """", ""state"": """", ""zip"": """"}'}",9,40,822,3115998,East Flatbush-Erasmus,996359,178172
Initial,14274200,PC8696119,1,,3,01809,0001,783,MARCY AVENUE,11216,40.687019397848,-73.947532667299,Brooklyn,2026-04-06T11:03:58.000,Rat Activity,2026-04-07T09:44:22.000,"{'latitude': '40.687019397848', 'longitude': '-73.947532667299', 'human_address': '{""address"": """", ""city"": """", ""state"": """", ""zip"": """"}'}",3,36,265,,Bedford-Stuyvesant (West),,
Stoppage,3069969,PC8691563,1,3013090001,3,01309,0001,353,EMPIRE BOULEVARD,11225,40.66394259591,-73.95040565484,Brooklyn,2026-04-06T11:04:00.000,Stoppage done,2026-04-09T09:35:26.000,"{'latitude': '40.66394259591', 'longitude': '-73.95040565484', 'human_address': '{""address"": """", ""city"": """", ""state"": """", ""zip"": """"}'}",9,35,319,3324553,Crown Heights (South),,
Initial,14274151,PC8695587,1,3031380020,3,03138,0020,848,FLUSHING AVENUE,11206,40.701614111236,-73.938043130123,Brooklyn,2026-04-06T11:05:20.000,Rat Activity,2026-04-14T12:22:56.000,"{'latitude': '40.701614111236', 'longitude': '-73.938043130123', 'human_address': '{""address"": """", ""city"": """", ""state"": """", ""zip"": """"}'}",4,34,389,3000000,Bushwick (West),,
Compliance,14274226,PC8672279,2,2037770161,2,03777,0161,1223,MORRISON AVENUE,10472,40.830203859991,-73.87478705837,Bronx,2026-04-06T11:05:37.000,Rat Activity,2026-04-07T10:38:37.000,"{'latitude': '40.830203859991', 'longitude': '-73.87478705837', 'human_address': '{""address"": """", ""city"": """", ""state"": """", ""zip"": """"}'}",9,17,62,2116879,Soundview-Bruckner-Bronx River,1018901,241770
Treatments,3069945,PC8635091,4,3059190011,3,05919,0011,412,73 Street,11209,40.631875321633,-74.023936759627,Brooklyn,2026-04-06T11:05:41.000,Bait applied,2026-04-06T15:04:10.000,"{'latitude': '40.631875321633', 'longitude': '-74.023936759627', 'human_address': '{""address"": """", ""city"": """", ""state"": """", ""zip"": """"}'}",10,47,134,3345925,Bay Ridge,,
Treatments,3069916,PC8580337,6,2046150018,2,04615,0018,3222,YATES AVENUE,10469,40.871858837761,-73.854542886731,Bronx,2026-04-06T11:05:42.000,Bait applied,2026-04-06T13:39:58.000,"{'latitude': '40.871858837761', 'longitude': '-73.854542886731', 'human_address': '{""address"": """", ""city"": """", ""state"": """", ""zip"": """"}'}",11,12,348,2103464,Pelham Gardens,1024478,256955
Compliance,14274437,PC8667408,2,1016210028,1,01621,0028,63,EAST 115 STREET,10029,40.798814759283,-73.944215234007,Manhattan,2026-04-06T11:06:20.000,Failed for Rat Act,2026-04-07T10:53:03.000,"{'latitude': '40.798814759283', 'longitude': '-73.944215234007', 'human_address': '{""address"": """", ""city"": """", ""state"": """", ""zip"": """"}'}",11,8,184,1051641,East Harlem (North),,
Compliance,14274505,PC8655929,2,3014780014,3,01478,0014,847,QUINCY STREET,11221,40.690022710526,-73.92398725477,Brooklyn,2026-04-06T11:07:00.000,Rat Activity,2026-04-07T10:03:42.000,"{'latitude': '40.690022710526', 'longitude': '-73.92398725477', 'human_address': '{""address"": """", ""city"": """", ""state"": """", ""zip"": """"}'}",3,41,375,3039614,Bedford-Stuyvesant (East),,
Initial,14274314,PC8699076,1,5012000060,5,01200,0060,303,VAN PELT AVENUE,10303,40.628302814062,-74.155530221397,Staten Island,2026-04-06T11:07:39.000,Failed for Other R,2026-04-07T09:40:24.000,"{'latitude': '40.628302814062', 'longitude': '-74.155530221397', 'human_address': '{""address"": """", ""city"": """", ""state"": """", ""zip"": """"}'}",1,49,231,5110318,Mariner's Harbor-Arlington-Graniteville,941078,168225
Treatments,3070058,PC8645723,4,3016120006,3,01612,0006,61,MALCOLM X BOULEVARD,11221,40.691964864506,-73.930847295661,Brooklyn,2026-04-06T11:08:39.000,Bait applied,2026-04-09T10:33:22.000,"{'latitude': '40.691964864506', 'longitude': '-73.930847295661', 'human_address': '{""address"": """", ""city"": """", ""state"": """", ""zip"": """"}'}",3,36,387,3043639,Bedford-Stuyvesant (East),1003427,191388
Initial,14274201,PC8693944,1,3018090062,3,01809,0062,499,GATES AVENUE,11216,40.686659475066,-73.946757718495,Brooklyn,2026-04-06T11:09:13.000,Rat Activity,2026-04-07T09:45:27.000,"{'latitude': '40.686659475066', 'longitude': '-73.946757718495', 'human_address': '{""address"": """", ""city"": """", ""state"": """", ""zip"": """"}'}",3,36,265,3322236,Bedford-Stuyvesant (West),,
Initial,14274155,PC8693184,1,3031380023,3,03138,0023,850,FLUSHING AVENUE,11206,40.701641500426,-73.937934908099,Brooklyn,2026-04-06T11:10:20.000,Rat Activity,2026-04-14T12:38:10.000,"{'latitude': '40.701641500426', 'longitude': '-73.937934908099', 'human_address': '{""address"": """", ""city"": """", ""state"": """", ""zip"": """"}'}",4,34,389,3071815,Bushwick (West),,
Compliance,14274760,PC8669293,2,2032060120,2,03206,0120,2076,HARRISON AVENUE,10453,40.855087311084,-73.909515404107,Bronx,2026-04-06T11:10:39.000,Rat Activity,2026-04-08T10:02:00.000,"{'latitude': '40.855087311084', 'longitude': '-73.909515404107', 'human_address': '{""address"": """", ""city"": """", ""state"": """", ""zip"": """"}'}",5,14,251,2100003,University Heights (South)-Morris Heights,,
Treatments,3070110,PC8304593,18,3031570101,3,03157,0101,63,CENTRAL AVENUE,11206,40.701258603797,-73.930743848408,Brooklyn,2026-04-06T11:10:45.000,Bait applied,2026-04-07T11:41:54.000,"{'latitude': '40.701258603797', 'longitude': '-73.930743848408', 'human_address': '{""address"": """", ""city"": """", ""state"": """", ""zip"": """"}'}",4,34,425,3389471,Bushwick (West),,
Treatments,3069940,PC8622831,5,1018510008,1,01851,0008,120,WEST   97 STREET,10025,40.793888751821,-73.967857072442,Manhattan,2026-04-06T11:10:48.000,Bait applied,2026-04-13T15:14:24.000,"{'latitude': '40.793888751821', 'longitude': '-73.967857072442', 'human_address': '{""address"": """", ""city"": """", ""state"": """", ""zip"": """"}'}",7,7,181,1085591,Upper West Side (Central),993141,228521
Initial,14274646,PC8696948,1,1019260033,1,01926,0033,2014,ADAM C POWELL BLVD,10027,40.806151560704,-73.95039320489,Manhattan,2026-04-06T11:10:58.000,Rat Activity,2026-04-07T12:12:41.000,"{'latitude': '40.806151560704', 'longitude': '-73.95039320489', 'human_address': '{""address"": """", ""city"": """", ""state"": """", ""zip"": """"}'}",10,9,220,1058472,Harlem (South),,
Initial,14274509,PC8695547,1,2024460001,2,02446,0001,225,EAST 163 STREET,10451,40.827754136239,-73.919106578052,Bronx,2026-04-06T11:12:07.000,Failed for Rat Act,2026-04-08T10:44:41.000,"{'latitude': '40.827754136239', 'longitude': '-73.919106578052', 'human_address': '{""address"": """", ""city"": """", ""state"": """", ""zip"": """"}'}",4,16,18302,2002475,Concourse-Concourse Village,,
Initial,14274442,PC8691881,1,3013060041,3,01306,0041,115,EMPIRE BOULEVARD,11225,40.663448955277,-73.958353892143,Brooklyn,2026-04-06T11:13:00.000,Rat Activity,2026-04-07T09:32:56.000,"{'latitude': '40.663448955277', 'longitude': '-73.958353892143', 'human_address': '{""address"": """", ""city"": """", ""state"": """", ""zip"": """"}'}",9,35,327,3034458,Prospect Lefferts Gardens-Wingate,,
Initial,14274366,PC8699010,1,1015680031,1,01568,0031,436,EAST   89 STREET,10128,40.778172568838,-73.946500119479,Manhattan,2026-04-06T11:13:00.000,Rat Activity,2026-04-08T07:51:14.000,"{'latitude': '40.778172568838', 'longitude': '-73.946500119479', 'human_address': '{""address"": """", ""city"": """", ""state"": """", ""zip"": """"}'}",8,5,14402,1078693,Upper East Side-Yorkville,999067,222793
Compliance,14274250,PC8671309,2,4098400029,4,09840,0029,168-10,HIGHLAND AVENUE,11432,40.711872707005,-73.795253383997,Queens,2026-04-06T11:13:06.000,Failed for Other R,2026-04-08T15:09:13.000,"{'latitude': '40.711872707005', 'longitude': '-73.795253383997', 'human_address': '{""address"": """", ""city"": """", ""state"": """", ""zip"": """"}'}",8,24,454,4210515,Jamaica Hills-Briarwood,,
Compliance,14274342,PC8656266,2,3015080055,3,01508,0055,347,CHAUNCEY STREET,11233,40.681418298901,-73.920615186739,Brooklyn,2026-04-06T11:15:00.000,Rat Activity,2026-04-07T10:51:30.000,"{'latitude': '40.681418298901', 'longitude': '-73.920615186739', 'human_address': '{""address"": """", ""city"": """", ""state"": """", ""zip"": """"}'}",3,41,379,3040807,Bedford-Stuyvesant (East),,
Stoppage,3069962,PC8696506,1,3013070041,3,01307,0041,208,SULLIVAN PL,11225,40.664471185977,-73.954233272422,Brooklyn,2026-04-06T11:15:00.000,Stoppage done,2026-04-09T09:38:08.000,"{'latitude': '40.664471185977', 'longitude': '-73.954233272422', 'human_address': '{""address"": """", ""city"": """", ""state"": """", ""zip"": """"}'}",9,35,323,3034491,Crown Heights (South),,
Initial,14274207,PC8694736,1,3018090060,3,01809,0060,523,GATES AVENUE,11216,40.686777028665,-73.945751622326,Brooklyn,2026-04-06T11:15:02.000,Failed for Other R,2026-04-07T09:47:07.000,"{'latitude': '40.686777028665', 'longitude': '-73.945751622326', 'human_address': '{""address"": """", ""city"": """", ""state"": """", ""zip"": """"}'}",3,36,265,3050971,Bedford-Stuyvesant (West),,
Treatments,3070049,PC8393899,27,1011250160,1,01125,0160,44,WEST 73 STREET,10023,40.777707971082,-73.977411561644,Manhattan,2026-04-06T11:15:17.000,Bait applied,2026-04-07T11:16:06.000,"{'latitude': '40.777707971082', 'longitude': '-73.977411561644', 'human_address': '{""address"": """", ""city"": """", ""state"": """", ""zip"": """"}'}",7,6,157,1028648,Upper West Side-Lincoln Square,,
Initial,14274259,PC8698663,1,1016560100,1,01656,0100,2095,2 AVENUE,10029,40.792074990561,-73.941389513234,Manhattan,2026-04-06T11:15:26.000,Rat Activity,2026-04-07T13:57:55.000,"{'latitude': '40.792074990561', 'longitude': '-73.941389513234', 'human_address': '{""address"": """", ""city"": """", ""state"": """", ""zip"": """"}'}",11,8,170,1052433,East Harlem (South),,
Initial,14274260,PC8698664,1,1016560050,1,01656,0050,1967,3 AVENUE,10029,40.792954440468,-73.943645932693,Manhattan,2026-04-06T11:15:26.000,Rat Activity,2026-04-07T13:56:03.000,"{'latitude': '40.792954440468', 'longitude': '-73.943645932693', 'human_address': '{""address"": """", ""city"": """", ""state"": """", ""zip"": """"}'}",11,8,170,1052432,East Harlem (South),,
Treatments,14305753,,17897,2024740054,2,02474,0054,843,WALTON AVENUE,10451,40.826338851791,-73.924615026777,Bronx,2026-04-06T11:15:50.000,Monitoring visit,2026-04-07T10:57:13.000,"{'latitude': '40.826338851791', 'longitude': '-73.924615026777', 'human_address': '{""address"": """", ""city"": """", ""state"": """", ""zip"": """"}'}",4,16,6301,2002913,Concourse-Concourse Village,,
Treatments,3070009,PC8623168,8,1021630044,1,02163,0044,4240,BROADWAY,10033,40.849624041993,-73.936292622472,Manhattan,2026-04-06T11:15:50.000,Bait applied,2026-04-16T09:21:06.000,"{'latitude': '40.849624041993', 'longitude': '-73.936292622472', 'human_address': '{""address"": """", ""city"": """", ""state"": """", ""zip"": """"}'}",12,10,271,1063921,Washington Heights (North),,
Compliance,14274475,PC8677605,2,3033210151,3,03321,0151,15,LINDEN STREET,11221,40.69039490482,-73.922353338529,Brooklyn,2026-04-06T11:15:53.000,Rat Activity,2026-04-07T07:16:43.000,"{'latitude': '40.69039490482', 'longitude': '-73.922353338529', 'human_address': '{""address"": """", ""city"": """", ""state"": """", ""zip"": """"}'}",4,37,397,3076058,Bushwick (East),,
Initial,14274552,PC8697185,1,3060520039,3,06052,0039,8646,FORT HAMILTON PARKWAY,11209,40.619625083802,-74.025185880315,Brooklyn,2026-04-06T11:17:25.000,Rat Activity,2026-04-08T13:32:27.000,"{'latitude': '40.619625083802', 'longitude': '-74.025185880315', 'human_address': '{""address"": """", ""city"": """", ""state"": """", ""zip"": """"}'}",10,47,160,3153826,Bay Ridge,977258,165026
Stoppage,3069960,PC8697287,2,3013040024,3,01304,0024,2,STODDARD PLACE,11225,40.665470953232,-73.955937552675,Brooklyn,2026-04-06T11:18:00.000,Stoppage done,2026-04-09T09:38:20.000,"{'latitude': '40.665470953232', 'longitude': '-73.955937552675', 'human_address': '{""address"": """", ""city"": """", ""state"": """", ""zip"": """"}'}",9,35,323,3034361,Crown Heights (South),,
Initial,14274510,PC8694867,1,2024460003,2,02446,0003,946,SHERMAN AVENUE,10456,40.827973806877,-73.919236393208,Bronx,2026-04-06T11:19:07.000,Failed for Other R,2026-04-08T10:45:44.000,"{'latitude': '40.827973806877', 'longitude': '-73.919236393208', 'human_address': '{""address"": """", ""city"": """", ""state"": """", ""zip"": """"}'}",4,16,18302,2002476,Concourse-Concourse Village,,
Initial,14274647,PC8697051,1,1019260035,1,01926,0035,2018,ADAM C POWELL BLVD,10027,40.806261316186,-73.95031365351,Manhattan,2026-04-06T11:19:58.000,Rat Activity,2026-04-07T13:21:15.000,"{'latitude': '40.806261316186', 'longitude': '-73.95031365351', 'human_address': '{""address"": """", ""city"": """", ""state"": """", ""zip"": """"}'}",10,9,220,1058474,Harlem (South),,
Treatments,3069958,PC8487167,7,3038630010,3,03863,0010,130,NEW LOTS AVENUE,11212,40.658453637331,-73.900650088812,Brooklyn,2026-04-06T11:20:00.000,Bait applied,2026-04-06T14:08:37.000,"{'latitude': '40.658453637331', 'longitude': '-73.900650088812', 'human_address': '{""address"": """", ""city"": """", ""state"": """", ""zip"": """"}'}",16,42,920,3421599,Brownsville,1011815,179187
Compliance,14274506,PC8655233,2,3014780012,3,01478,0012,849,QUINCY STREET,11221,40.69003636979,-73.923889879316,Brooklyn,2026-04-06T11:20:00.000,Rat Activity,2026-04-07T10:10:52.000,"{'latitude': '40.69003636979', 'longitude': '-73.923889879316', 'human_address': '{""address"": """", ""city"": """", ""state"": """", ""zip"": """"}'}",3,41,375,3039613,Bedford-Stuyvesant (East),,
Initial,14274728,PC8698035,1,2033307501,2,03330,7501,410,EAST  203 STREET,10467,40.870296155803,-73.877274828281,Bronx,2026-04-06T11:20:00.000,Rat Activity,2026-04-07T10:50:13.000,"{'latitude': '40.870296155803', 'longitude': '-73.877274828281', 'human_address': '{""address"": """", ""city"": """", ""state"": """", ""zip"": """"}'}",7,11,425,2129249,Norwood,1018192,256376
Treatments,3069907,PC8654893,4,2045070001,2,04507,0001,665,ALLERTON AVENUE,10467,40.865403719814,-73.86862484732,Bronx,2026-04-06T11:20:28.000,Bait applied,2026-04-06T13:45:55.000,"{'latitude': '40.865403719814', 'longitude': '-73.86862484732', 'human_address': '{""address"": """", ""city"": """", ""state"": """", ""zip"": """"}'}",11,12,33601,2053527,Allerton,1020587,254597
Initial,14274255,PC8699441,1,,1,00284,0001,13,HENRY STREET,10002,40.712834955777,-73.996721095092,Manhattan,2026-04-06T11:20:56.000,Failed for Rat Act,2026-04-07T09:25:02.000,"{'latitude': '40.712834955777', 'longitude': '-73.996721095092', 'human_address': '{""address"": """", ""city"": """", ""state"": """", ""zip"": """"}'}",3,1,8,,Chinatown-Two Bridges,,
Treatments,3069899,PC8414703,10,3010420018,3,01042,0018,280,14 STREET,11215,40.665706600874,-73.987888551845,Brooklyn,2026-04-06T11:21:00.000,Bait applied,2026-04-06T13:42:26.000,"{'latitude': '40.665706600874', 'longitude': '-73.987888551845', 'human_address': '{""address"": """", ""city"": """", ""state"": """", ""zip"": """"}'}",6,39,14101,3023701,Park Slope,987610,181814
Initial,14274103,PC8699119,1,4006620041,4,00662,0041,38-11,30 AVENUE,11103,40.764207942819,-73.915660744817,Queens,2026-04-06T11:21:00.000,Rat Activity,2026-04-08T16:29:12.000,"{'latitude': '40.764207942819', 'longitude': '-73.915660744817', 'human_address': '{""address"": """", ""city"": """", ""state"": """", ""zip"": """"}'}",1,22,6502,4010768,Astoria (Central),1007613,217712
Treatments,3070059,PC8648829,4,3016120050,3,01612,0050,24,PATCHEN AVENUE,11221,40.691932838882,-73.927872360746,Brooklyn,2026-04-06T11:22:39.000,Bait applied,2026-04-09T10:33:08.000,"{'latitude': '40.691932838882', 'longitude': '-73.927872360746', 'human_address': '{""address"": """", ""city"": """", ""state"": """", ""zip"": """"}'}",3,36,387,3043659,Bedford-Stuyvesant (East),,
Compliance,14274576,PC8651518,3,1022270001,1,02227,0001,145,VERMILYEA AVENUE,10034,40.866875650035,-73.920255550517,Manhattan,2026-04-06T11:22:42.000,Failed for Rat Act,2026-04-07T12:47:16.000,"{'latitude': '40.866875650035', 'longitude': '-73.920255550517', 'human_address': '{""address"": """", ""city"": """", ""state"": """", ""zip"": """"}'}",12,10,293,1064847,Inwood,1006306,255116
Initial,14274417,PC8687963,1,1006220056,1,00622,0056,53,PERRY STREET,10014,40.73551495616,-74.003500136984,Manhattan,2026-04-06T11:22:48.000,Rat Activity,2026-04-07T10:02:45.000,"{'latitude': '40.73551495616', 'longitude': '-74.003500136984', 'human_address': '{""address"": """", ""city"": """", ""state"": """", ""zip"": """"}'}",2,3,73,1011317,West Village,,
Initial,14274213,PC8694289,1,3018090054,3,01809,0054,529A,GATES AVENUE,11216,40.686798896256,-73.945560500091,Brooklyn,2026-04-06T11:22:53.000,Rat Activity,2026-04-07T09:36:48.000,"{'latitude': '40.686798896256', 'longitude': '-73.945560500091', 'human_address': '{""address"": """", ""city"": """", ""state"": """", ""zip"": """"}'}",3,36,265,3322233,Bedford-Stuyvesant (West),,
Initial,14274242,PC8696536,1,3048090041,3,04809,0041,394,RUTLAND ROAD,11225,40.659541685531,-73.948080584856,Brooklyn,2026-04-06T11:23:25.000,Rat Activity,2026-04-07T09:49:17.000,"{'latitude': '40.659541685531', 'longitude': '-73.948080584856', 'human_address': '{""address"": """", ""city"": """", ""state"": """", ""zip"": """"}'}",9,40,804,3107177,Prospect Lefferts Gardens-Wingate,998655,179572
Initial,14274443,PC8691695,1,3013060001,3,01306,0001,57,EMPIRE BOULEVARD,11225,40.66332885091,-73.96022829133,Brooklyn,2026-04-06T11:24:00.000,Rat Activity,2026-04-07T09:32:19.000,"{'latitude': '40.66332885091', 'longitude': '-73.96022829133', 'human_address': '{""address"": """", ""city"": """", ""state"": """", ""zip"": """"}'}",9,35,327,3034454,Prospect Lefferts Gardens-Wingate,,
Treatments,3069952,PC8667460,3,3058740072,3,05874,0072,547,OVINGTON AVENUE,11209,40.631941955452,-74.019977342664,Brooklyn,2026-04-06T11:25:06.000,Bait applied,2026-04-06T15:10:53.000,"{'latitude': '40.631941955452', 'longitude': '-74.019977342664', 'human_address': '{""address"": """", ""city"": """", ""state"": """", ""zip"": """"}'}",10,47,130,3145819,Bay Ridge,978705,169513
Initial,14274559,PC8698705,1,2042640012,2,04264,0012,1910,MULINER AVENUE,10462,40.849256661534,-73.861785532046,Bronx,2026-04-06T11:25:17.000,Failed for Other R,2026-04-07T11:00:47.000,"{'latitude': '40.849256661534', 'longitude': '-73.861785532046', 'human_address': '{""address"": """", ""city"": """", ""state"": """", ""zip"": """"}'}",11,13,246,2093243,Morris Park,1022488,248717
Treatments,3070026,PC8607167,10,1004667502,1,00466,7502,55,3 AVENUE,10003,40.730988349684,-73.988840014972,Manhattan,2026-04-06T11:25:45.000,Bait applied,2026-04-07T10:32:45.000,"{'latitude': '40.730988349684', 'longitude': '-73.988840014972', 'human_address': '{""address"": """", ""city"": """", ""state"": """", ""zip"": """"}'}",3,2,4002,1006807,East Village,,
Treatments,3069937,PC8608767,6,1018697501,1,01869,7501,2576,BROADWAY,10025,40.795410232331,-73.971207944231,Manhattan,2026-04-06T11:26:20.000,Bait applied,2026-04-08T09:44:45.000,"{'latitude': '40.795410232331', 'longitude': '-73.971207944231', 'human_address': '{""address"": """", ""city"": """", ""state"": """", ""zip"": """"}'}",7,7,183,1075313,Upper West Side (Central),,
Initial,14274512,PC8693910,1,2024460007,2,02446,0007,956,SHERMAN AVENUE,10456,40.828058860747,-73.919189315006,Bronx,2026-04-06T11:27:07.000,Failed for Rat Act,2026-04-08T10:46:32.000,"{'latitude': '40.828058860747', 'longitude': '-73.919189315006', 'human_address': '{""address"": """", ""city"": """", ""state"": """", ""zip"": """"}'}",4,16,18302,2002478,Concourse-Concourse Village,,
Compliance,14274507,PC8655743,2,3014780008,3,01478,0008,1320,BROADWAY,11221,40.690307852665,-73.923514551085,Brooklyn,2026-04-06T11:29:00.000,Rat Activity,2026-04-07T10:11:56.000,"{'latitude': '40.690307852665', 'longitude': '-73.923514551085', 'human_address': '{""address"": """", ""city"": """", ""state"": """", ""zip"": """"}'}",3,41,375,3039612,Bedford-Stuyvesant (East),,
Treatments,3070050,PC8558707,8,1010420005,1,01042,0005,363,West 51st Street,10019,40.763804607326,-73.987755126873,Manhattan,2026-04-06T11:30:17.000,Bait applied,2026-04-07T11:16:25.000,"{'latitude': '40.763804607326', 'longitude': '-73.987755126873', 'human_address': '{""address"": """", ""city"": """", ""state"": """", ""zip"": """"}'}",4,3,133,1025195,Hell's Kitchen,,
Treatments,3069981,PC8636462,7,2024740028,2,02474,0028,835,WALTON AVENUE,10451,40.8261111308,-73.924756205312,Bronx,2026-04-06T11:30:50.000,Bait applied,2026-04-07T10:57:13.000,"{'latitude': '40.8261111308', 'longitude': '-73.924756205312', 'human_address': '{""address"": """", ""city"": """", ""state"": """", ""zip"": """"}'}",4,16,6301,2002904,Concourse-Concourse Village,,
Compliance,14274375,PC8683684,2,3033130016,3,03313,0016,432,EVERGREEN AVENUE,11221,40.692864523743,-73.92135878136,Brooklyn,2026-04-06T11:31:53.000,Failed for Rat Act,2026-04-09T08:53:07.000,"{'latitude': '40.692864523743', 'longitude': '-73.92135878136', 'human_address': '{""address"": """", ""city"": """", ""state"": """", ""zip"": """"}'}",4,37,395,3075867,Bushwick (East),1006058,191718
Initial,14274709,PC8696754,1,1018260036,1,01826,0036,1810,ADAM C POWELL BLVD,10026,40.799675905947,-73.955133224633,Manhattan,2026-04-06T11:33:00.000,Rat Activity,2026-04-07T14:26:19.000,"{'latitude': '40.799675905947', 'longitude': '-73.955133224633', 'human_address': '{""address"": """", ""city"": """", ""state"": """", ""zip"": """"}'}",10,9,216,1055067,Harlem (South),,
Initial,14274304,PC8689857,1,,2,02898,0060,PARK,AVENUE,10457,,,Bronx,2026-04-06T11:35:00.000,Failed for Other R,2026-04-07T13:16:21.000,,,,,,,,
Treatments,3069953,PC8646965,3,3058930028,3,05893,0028,540,OVINGTON AVENUE,11209,40.631983104498,-74.020107054722,Brooklyn,2026-04-06T11:35:06.000,Bait applied,2026-04-06T15:11:33.000,"{'latitude': '40.631983104498', 'longitude': '-74.020107054722', 'human_address': '{""address"": """", ""city"": """", ""state"": """", ""zip"": """"}'}",10,47,130,3146663,Bay Ridge,,
Compliance,14274229,PC8672809,2,2038010036,2,03801,0036,2070,POWELL AVENUE,10472,40.830720529049,-73.854387445166,Bronx,2026-04-06T11:35:37.000,Rat Activity,2026-04-07T10:27:31.000,"{'latitude': '40.830720529049', 'longitude': '-73.854387445166', 'human_address': '{""address"": """", ""city"": """", ""state"": """", ""zip"": """"}'}",9,18,78,2026162,Castle Hill-Unionport,1024546,241967
Treatments,3070069,PC8672839,3,3016220042,3,01622,0042,42,PATCHEN AVENUE,11221,40.690983027271,-73.927682275724,Brooklyn,2026-04-06T11:35:39.000,Bait applied,2026-04-09T10:29:25.000,"{'latitude': '40.690983027271', 'longitude': '-73.927682275724', 'human_address': '{""address"": """", ""city"": """", ""state"": """", ""zip"": """"}'}",3,36,387,3044156,Bedford-Stuyvesant (East),,
Compliance,14274577,PC8661827,2,1022420037,1,02242,0037,101,COOPER STREET,10034,40.86872066016,-73.921056002878,Manhattan,2026-04-06T11:35:42.000,Rat Activity,2026-04-07T12:52:27.000,"{'latitude': '40.86872066016', 'longitude': '-73.921056002878', 'human_address': '{""address"": """", ""city"": """", ""state"": """", ""zip"": """"}'}",12,10,303,1064993,Inwood,1006084,255788
Compliance,14274573,PC8669428,2,2032060065,2,03206,0065,2109,GRAND AVENUE,10453,40.855426538967,-73.908105121559,Bronx,2026-04-06T11:35:52.000,Rat Activity,2026-04-07T10:29:07.000,"{'latitude': '40.855426538967', 'longitude': '-73.908105121559', 'human_address': '{""address"": """", ""city"": """", ""state"": """", ""zip"": """"}'}",5,14,251,2090661,University Heights (South)-Morris Heights,,
Initial,14274651,PC8697062,1,1019260050,1,01926,0050,242,WEST 121 STREET,10027,40.806934274739,-73.951472689801,Manhattan,2026-04-06T11:36:00.000,Rat Activity,2026-04-07T13:36:52.000,"{'latitude': '40.806934274739', 'longitude': '-73.951472689801', 'human_address': '{""address"": """", ""city"": """", ""state"": """", ""zip"": """"}'}",10,9,220,1058476,Harlem (South),,
Treatments,3069901,PC8554071,7,3010890015,3,01089,0015,558,7 STREET,11215,40.66655589325,-73.977398883579,Brooklyn,2026-04-06T11:37:00.000,Bait applied,2026-04-06T13:40:07.000,"{'latitude': '40.66655589325', 'longitude': '-73.977398883579', 'human_address': '{""address"": """", ""city"": """", ""state"": """", ""zip"": """"}'}",6,39,167,3025813,Park Slope,990520,182124
Treatments,3070034,PC8617696,6,1003930021,1,00393,0021,628,EAST 11 STREET,10009,40.726984982863,-73.978359665703,Manhattan,2026-04-06T11:37:00.000,Monitoring visit,2026-04-15T13:44:46.000,"{'latitude': '40.726984982863', 'longitude': '-73.978359665703', 'human_address': '{""address"": """", ""city"": """", ""state"": """", ""zip"": """"}'}",3,2,28,1004884,East Village,,
Initial,14274256,PC8699442,1,4098170033,4,09817,0033,166-39,89 AVENUE,11432,40.708147897412,-73.795171089303,Queens,2026-04-06T11:38:57.000,Rat Activity,2026-04-08T13:50:29.000,"{'latitude': '40.708147897412', 'longitude': '-73.795171089303', 'human_address': '{""address"": """", ""city"": """", ""state"": """", ""zip"": """"}'}",12,24,460,4210076,Jamaica,,
Compliance,14274243,PC8573972,5,3013230017,3,01323,0017,441,BROOKLYN AVENUE,11225,40.664140717654,-73.945460114651,Brooklyn,2026-04-06T11:39:25.000,Failed for Rat Act,2026-04-07T09:48:21.000,"{'latitude': '40.664140717654', 'longitude': '-73.945460114651', 'human_address': '{""address"": """", ""city"": """", ""state"": """", ""zip"": """"}'}",9,40,329,3035135,Prospect Lefferts Gardens-Wingate,999381,181248
Initial,14274380,PC8684061,1,1008030060,1,00803,0060,136,WEST   28 STREET,10001,40.746512972911,-73.991677676829,Manhattan,2026-04-06T11:40:00.000,Failed for Rat Act,2026-04-08T10:03:51.000,"{'latitude': '40.746512972911', 'longitude': '-73.991677676829', 'human_address': '{""address"": """", ""city"": """", ""state"": """", ""zip"": """"}'}",5,3,95,1015092,Midtown South-Flatiron-Union Square,986556,211254
Stoppage,3069974,PC8683134,1,3020970084,3,02097,0084,701,FULTON STREET,11217,40.687482056159,-73.977355705573,Brooklyn,2026-04-06T11:40:00.000,Stoppage done,2026-04-09T09:34:52.000,"{'latitude': '40.687482056159', 'longitude': '-73.977355705573', 'human_address': '{""address"": """", ""city"": """", ""state"": """", ""zip"": """"}'}",2,35,33,3058739,Fort Greene,,
Compliance,14274508,PC8655567,2,3014780001,3,01478,0001,1306,BROADWAY,11221,40.690604630955,-73.924029860219,Brooklyn,2026-04-06T11:41:00.000,Rat Activity,2026-04-07T10:13:08.000,"{'latitude': '40.690604630955', 'longitude': '-73.924029860219', 'human_address': '{""address"": """", ""city"": """", ""state"": """", ""zip"": """"}'}",3,41,375,3039609,Bedford-Stuyvesant (East),,
Compliance,14274121,PC8671495,2,3017130020,3,01713,0020,916,HERKIMER STREET,11233,40.678181228906,-73.923207643015,Brooklyn,2026-04-06T11:44:00.000,Failed for Other R,2026-04-07T08:59:20.000,"{'latitude': '40.678181228906', 'longitude': '-73.923207643015', 'human_address': '{""address"": """", ""city"": """", ""state"": """", ""zip"": """"}'}",3,41,299,3048266,Bedford-Stuyvesant (East),,
Compliance,14274574,PC8669139,2,2032060061,2,03206,0061,2117,GRAND AVENUE,10453,40.855574644463,-73.907967548825,Bronx,2026-04-06T11:44:05.000,Failed for Rat Act,2026-04-07T10:31:09.000,"{'latitude': '40.855574644463', 'longitude': '-73.907967548825', 'human_address': '{""address"": """", ""city"": """", ""state"": """", ""zip"": """"}'}",5,14,251,2014480,University Heights (South)-Morris Heights,,
Treatments,3069938,PC8613230,6,1018360021,1,01836,0021,2,MANHATTAN AVENUE,10025,40.794875785891,-73.964219693862,Manhattan,2026-04-06T11:44:10.000,Bait applied,2026-04-08T09:45:11.000,"{'latitude': '40.794875785891', 'longitude': '-73.964219693862', 'human_address': '{""address"": """", ""city"": """", ""state"": """", ""zip"": """"}'}",7,7,189,1055293,Upper West Side-Manhattan Valley,,
Initial,14274305,PC8689277,1,,2,02897,0124,PARK,AVENUE,10457,,,Bronx,2026-04-06T11:45:00.000,Failed for Other R,2026-04-07T13:12:26.000,,,,,,,,
Treatments,3070011,PC8623345,7,1021650019,1,2165,0019,611,WEST 181 STREET,10033,40.8494800786,-73.934098701234,Manhattan,2026-04-06T11:45:18.000,Bait applied,2026-04-09T09:35:27.000,"{'latitude': '40.8494800786', 'longitude': '-73.934098701234', 'human_address': '{""address"": """", ""city"": """", ""state"": """", ""zip"": """"}'}",12,10,271,1063946,Washington Heights (North),,
Compliance,14274474,PC8677410,2,3033210113,3,03321,0113,30,GROVE STREET,11221,40.690982752933,-73.923044997718,Brooklyn,2026-04-06T11:45:53.000,Rat Activity,2026-04-07T07:18:00.000,"{'latitude': '40.690982752933', 'longitude': '-73.923044997718', 'human_address': '{""address"": """", ""city"": """", ""state"": """", ""zip"": """"}'}",4,37,397,3390306,Bushwick (East),,
Treatments,3069987,PC8615206,7,2024710034,2,02471,0034,1025,GRAND CONCOURSE,10452,40.83035457207,-73.920780093035,Bronx,2026-04-06T11:45:58.000,Monitoring visit,2026-04-07T10:57:13.000,"{'latitude': '40.83035457207', 'longitude': '-73.920780093035', 'human_address': '{""address"": """", ""city"": """", ""state"": """", ""zip"": """"}'}",4,16,195,2002876,Concourse-Concourse Village,,
Initial,14274517,PC8695992,1,2024460021,2,02446,0021,977,GRANT AVENUE,10456,40.828491653505,-73.917952986831,Bronx,2026-04-06T11:46:07.000,Failed for Other R,2026-04-08T10:10:29.000,"{'latitude': '40.828491653505', 'longitude': '-73.917952986831', 'human_address': '{""address"": """", ""city"": """", ""state"": """", ""zip"": """"}'}",4,16,18302,2002484,Concourse-Concourse Village,,
Compliance,14274723,PC8635550,3,1016160021,1,01616,0021,1655,MADISON AVENUE,10029,40.796376211281,-73.947467816225,Manhattan,2026-04-06T11:47:20.000,Failed for Rat Act,2026-04-07T11:13:12.000,"{'latitude': '40.796376211281', 'longitude': '-73.947467816225', 'human_address': '{""address"": """", ""city"": """", ""state"": """", ""zip"": """"}'}",11,8,17402,1087962,East Harlem (South),,
