inspection_type,job_ticket_or_work_order_id,job_id,job_progress,bbl,boro_code,block,lot,house_number,street_name,zip_code,latitude,longitude,borough,inspection_date,result,approved_date,location,community_board,council_district,census_tract,bin,nta,x_coord,y_coord
Initial,14284328,PC8703377,1,3011740044,3,01174,0044,794,CLASSON AVENUE,11238,40.673251374114,-73.960669372379,Brooklyn,2026-04-20T08:00:00.000,Rat Activity,2026-04-21T09:17:28.000,"{'latitude': '40.673251374114', 'longitude': '-73.960669372379', 'human_address': '{""address"": """", ""city"": """", ""state"": """", ""zip"": """"}'}",8,35,215,3427395,Prospect Heights,,
Compliance,14284554,PC8687958,2,1007740013,1,00774,0013,245,WEST 24 STREET,10011,40.745330229312,-73.996510172127,Manhattan,2026-04-20T08:00:22.000,Rat Activity,2026-04-21T10:04:25.000,"{'latitude': '40.745330229312', 'longitude': '-73.996510172127', 'human_address': '{""address"": """", ""city"": """", ""state"": """", ""zip"": """"}'}",4,3,91,1014171,Chelsea-Hudson Yards,,
Initial,14284270,PC8697812,1,2028530001,2,02853,0001,1900,JEROME AVENUE,10453,40.850413697235,-73.910367613919,Bronx,2026-04-20T08:00:24.000,Failed for Other R,2026-04-22T16:17:05.000,"{'latitude': '40.850413697235', 'longitude': '-73.910367613919', 'human_address': '{""address"": """", ""city"": """", ""state"": """", ""zip"": """"}'}",5,14,23301,2008247,Mount Hope,,
Initial,14284329,PC8703365,1,3011747502,3,01174,7502,792,CLASSON AVENUE,11238,40.673287052493,-73.96065853623,Brooklyn,2026-04-20T08:08:14.000,Rat Activity,2026-04-21T09:17:08.000,"{'latitude': '40.673287052493', 'longitude': '-73.96065853623', 'human_address': '{""address"": """", ""city"": """", ""state"": """", ""zip"": """"}'}",8,35,215,3426356,Prospect Heights,,
Compliance,14284553,PC8688329,2,1007740014,1,00774,0014,243,WEST 24 STREET,10011,40.745311014653,-73.996466866083,Manhattan,2026-04-20T08:09:22.000,Rat Activity,2026-04-21T10:04:49.000,"{'latitude': '40.745311014653', 'longitude': '-73.996466866083', 'human_address': '{""address"": """", ""city"": """", ""state"": """", ""zip"": """"}'}",4,3,91,1014172,Chelsea-Hudson Yards,,
Initial,14284331,PC8703458,1,3011740042,3,01174,0042,790,CLASSON AVENUE,11238,40.673322729633,-73.960644095059,Brooklyn,2026-04-20T08:17:00.000,Rat Activity,2026-04-21T09:16:39.000,"{'latitude': '40.673322729633', 'longitude': '-73.960644095059', 'human_address': '{""address"": """", ""city"": """", ""state"": """", ""zip"": """"}'}",8,35,215,3029449,Prospect Heights,,
Compliance,14284552,PC8688256,2,1007740015,1,774,0015,241,WEST 24 STREET,10011,40.745294544739,-73.996423559915,Manhattan,2026-04-20T08:18:22.000,Rat Activity,2026-04-21T10:05:19.000,"{'latitude': '40.745294544739', 'longitude': '-73.996423559915', 'human_address': '{""address"": """", ""city"": """", ""state"": """", ""zip"": """"}'}",4,3,91,1014173,Chelsea-Hudson Yards,,
Initial,14284010,PC8690267,1,4090800001,4,09080,0001,80-16,101 AVENUE,11416,40.680765267357,-73.858249451392,Queens,2026-04-20T08:21:16.000,Failed for Rat Act,2026-04-21T17:22:13.000,"{'latitude': '40.680765267357', 'longitude': '-73.858249451392', 'human_address': '{""address"": """", ""city"": """", ""state"": """", ""zip"": """"}'}",9,32,52,4188765,Ozone Park (North),1023566,187332
Initial,14284332,PC8703740,1,3011740041,3,01174,0041,788,CLASSON AVENUE,11238,40.673358408008,-73.960633258884,Brooklyn,2026-04-20T08:21:55.000,Rat Activity,2026-04-21T09:16:04.000,"{'latitude': '40.673358408008', 'longitude': '-73.960633258884', 'human_address': '{""address"": """", ""city"": """", ""state"": """", ""zip"": """"}'}",8,35,215,3029448,Prospect Heights,,
Initial,14284292,PC8697770,1,2028530017,2,02853,0017,1946,JEROME AVENUE,10453,40.851228344766,-73.909679720407,Bronx,2026-04-20T08:23:52.000,Failed for Other R,2026-04-22T16:10:19.000,"{'latitude': '40.851228344766', 'longitude': '-73.909679720407', 'human_address': '{""address"": """", ""city"": """", ""state"": """", ""zip"": """"}'}",5,14,23301,2008253,Mount Hope,,
Treatments,3072193,PC8652847,3,2037360049,2,03736,0049,1173,COLGATE AVENUE,10472,40.827441824591,-73.88178058488,Bronx,2026-04-20T08:25:25.000,Bait applied,2026-04-20T13:32:36.000,"{'latitude': '40.827441824591', 'longitude': '-73.88178058488', 'human_address': '{""address"": """", ""city"": """", ""state"": """", ""zip"": """"}'}",9,17,52,2023723,Soundview-Bruckner-Bronx River,,
Initial,14284333,PC8703549,1,3011740040,3,01174,0040,776,CLASSON AVENUE,11238,40.673575218055,-73.960553819869,Brooklyn,2026-04-20T08:26:03.000,Rat Activity,2026-04-21T09:15:40.000,"{'latitude': '40.673575218055', 'longitude': '-73.960553819869', 'human_address': '{""address"": """", ""city"": """", ""state"": """", ""zip"": """"}'}",8,35,215,3029447,Prospect Heights,,
Initial,14284293,PC8697439,1,2028530022,2,02853,0022,1956,JEROME AVENUE,10453,40.851406635727,-73.909531274596,Bronx,2026-04-20T08:29:27.000,Failed for Other R,2026-04-22T16:03:12.000,"{'latitude': '40.851406635727', 'longitude': '-73.909531274596', 'human_address': '{""address"": """", ""city"": """", ""state"": """", ""zip"": """"}'}",5,14,23301,2000000,Mount Hope,,
Compliance,14284314,PC8688671,2,3051530009,3,05153,0009,1022,CORTELYOU ROAD,11218,40.639364007007,-73.968515507061,Brooklyn,2026-04-20T08:30:10.000,Rat Activity,2026-04-21T13:07:17.000,"{'latitude': '40.639364007007', 'longitude': '-73.968515507061', 'human_address': '{""address"": """", ""city"": """", ""state"": """", ""zip"": """"}'}",14,39,526,3118567,Flatbush (West)-Ditmas Park-Parkville,993154,172320
Compliance,14284197,PC8561769,6,3011670012,3,01167,0012,448,PARK PLACE,11238,40.675384706028,-73.962582429803,Brooklyn,2026-04-20T08:30:41.000,Rat Activity,2026-04-21T09:26:58.000,"{'latitude': '40.675384706028', 'longitude': '-73.962582429803', 'human_address': '{""address"": """", ""city"": """", ""state"": """", ""zip"": """"}'}",8,35,215,3322584,Prospect Heights,,
Initial,14284334,PC8703564,1,3011740039,3,01174,0039,774,CLASSON AVENUE,11238,40.673610895181,-73.960539378579,Brooklyn,2026-04-20T08:31:13.000,Rat Activity,2026-04-21T09:14:43.000,"{'latitude': '40.673610895181', 'longitude': '-73.960539378579', 'human_address': '{""address"": """", ""city"": """", ""state"": """", ""zip"": """"}'}",8,35,215,3029446,Prospect Heights,,
Initial,14284012,PC8705843,1,4090800002,4,09080,0002,101-04,81 STREET,11416,40.680748312051,-73.857856496944,Queens,2026-04-20T08:32:29.000,Rat Activity,2026-04-21T17:21:21.000,"{'latitude': '40.680748312051', 'longitude': '-73.857856496944', 'human_address': '{""address"": """", ""city"": """", ""state"": """", ""zip"": """"}'}",9,32,52,4188766,Ozone Park (North),,
Compliance,14283969,PC8688431,2,1008000009,1,800,0009,157,WEST 24 STREET,10011,40.744223979615,-73.993872152061,Manhattan,2026-04-20T08:33:00.000,Failed for Other R,2026-04-21T08:57:18.000,"{'latitude': '40.744223979615', 'longitude': '-73.993872152061', 'human_address': '{""address"": """", ""city"": """", ""state"": """", ""zip"": """"}'}",4,3,91,1014972,Chelsea-Hudson Yards,,
Initial,14284335,PC8703290,1,3011740038,3,01174,0038,766,CLASSON AVENUE,11238,40.67375360615,-73.960488823332,Brooklyn,2026-04-20T08:35:37.000,Rat Activity,2026-04-21T09:14:08.000,"{'latitude': '40.67375360615', 'longitude': '-73.960488823332', 'human_address': '{""address"": """", ""city"": """", ""state"": """", ""zip"": """"}'}",8,35,215,3029445,Prospect Heights,,
Initial,14283705,PC8662377,1,3034030062,3,03403,0062,1097,HALSEY STREET,11207,40.688984863374,-73.91202419068,Brooklyn,2026-04-20T08:37:42.000,Rat Activity,2026-04-23T07:55:04.000,"{'latitude': '40.688984863374', 'longitude': '-73.91202419068', 'human_address': '{""address"": """", ""city"": """", ""state"": """", ""zip"": """"}'}",4,37,413,3078594,Bushwick (East),,
Treatments,3072182,PC8645796,4,2037370018,2,03737,0018,1130,COLGATE AVENUE,10472,40.82663465209,-73.881568836704,Bronx,2026-04-20T08:40:45.000,Bait applied,2026-04-20T13:23:07.000,"{'latitude': '40.82663465209', 'longitude': '-73.881568836704', 'human_address': '{""address"": """", ""city"": """", ""state"": """", ""zip"": """"}'}",9,17,52,2092814,Soundview-Bruckner-Bronx River,1017026,240467
Initial,14284198,PC8670001,1,3011670067,3,01167,0067,495,STERLING PLACE,11238,40.674303015848,-73.961829580553,Brooklyn,2026-04-20T08:41:11.000,Failed for Rat Act,2026-04-21T09:26:09.000,"{'latitude': '40.674303015848', 'longitude': '-73.961829580553', 'human_address': '{""address"": """", ""city"": """", ""state"": """", ""zip"": """"}'}",8,35,215,3029247,Prospect Heights,994838,184948
Initial,14284337,PC8703647,1,3011740037,3,01174,0037,764,CLASSON AVENUE,11238,40.673792028043,-73.960474380335,Brooklyn,2026-04-20T08:44:00.000,Rat Activity,2026-04-21T09:13:32.000,"{'latitude': '40.673792028043', 'longitude': '-73.960474380335', 'human_address': '{""address"": """", ""city"": """", ""state"": """", ""zip"": """"}'}",8,35,215,3259313,Prospect Heights,,
Initial,14283710,PC8662408,1,3034030057,3,03403,0057,1107,HALSEY STREET,11207,40.689163140611,-73.911850872678,Brooklyn,2026-04-20T08:45:42.000,Rat Activity,2026-04-23T08:00:30.000,"{'latitude': '40.689163140611', 'longitude': '-73.911850872678', 'human_address': '{""address"": """", ""city"": """", ""state"": """", ""zip"": """"}'}",4,37,413,3078590,Bushwick (East),,
Treatments,3072217,PC8564396,6,3019420052,3,01942,0052,469,LAFAYETTE AVENUE,11205,40.689353246591,-73.955928921697,Brooklyn,2026-04-20T08:48:35.000,Bait applied,2026-04-20T13:51:10.000,"{'latitude': '40.689353246591', 'longitude': '-73.955928921697', 'human_address': '{""address"": """", ""city"": """", ""state"": """", ""zip"": """"}'}",3,36,233,3334977,Bedford-Stuyvesant (West),,
Compliance,14284315,PC8687928,2,3052200047,3,05220,0047,650,EAST   21 STREET,11226,40.637856364355,-73.957649308391,Brooklyn,2026-04-20T08:50:00.000,Failed for Rat Act,2026-04-21T13:07:41.000,"{'latitude': '40.637856364355', 'longitude': '-73.957649308391', 'human_address': '{""address"": """", ""city"": """", ""state"": """", ""zip"": """"}'}",14,45,51601,3120585,Flatbush,,
Initial,14284339,PC8703387,1,3011740036,3,01174,0036,762,CLASSON AVENUE,11238,40.673827706402,-73.960463543993,Brooklyn,2026-04-20T08:52:39.000,Rat Activity,2026-04-21T09:13:09.000,"{'latitude': '40.673827706402', 'longitude': '-73.960463543993', 'human_address': '{""address"": """", ""city"": """", ""state"": """", ""zip"": """"}'}",8,35,215,3259312,Prospect Heights,,
Treatments,3072272,PC8670699,4,2030910001,2,03091,0001,2480,BELMONT AVENUE,10458,40.856736524095,-73.884587773472,Bronx,2026-04-20T08:53:25.000,Bait applied,2026-04-21T10:08:54.000,"{'latitude': '40.856736524095', 'longitude': '-73.884587773472', 'human_address': '{""address"": """", ""city"": """", ""state"": """", ""zip"": """"}'}",6,15,389,2012561,Belmont,,
Treatments,3072323,PC8641745,4,2032340063,2,03234,0063,208,WEST FORDHAM ROAD,10468,40.862372009322,-73.909744064172,Bronx,2026-04-20T08:55:00.000,Bait applied,2026-04-21T10:35:00.000,"{'latitude': '40.862372009322', 'longitude': '-73.909744064172', 'human_address': '{""address"": """", ""city"": """", ""state"": """", ""zip"": """"}'}",7,14,257,2015106,University Heights (North)-Fordham,,
Treatments,3072181,PC8617561,5,2036500001,2,03650,0001,950,EVERGREEN AVENUE,10473,40.822339837809,-73.879610973483,Bronx,2026-04-20T08:55:34.000,Bait applied,2026-04-20T13:22:43.000,"{'latitude': '40.822339837809', 'longitude': '-73.879610973483', 'human_address': '{""address"": """", ""city"": """", ""state"": """", ""zip"": """"}'}",9,18,28,2022564,Soundview-Bruckner-Bronx River,1017570,238903
Initial,14284340,PC8703766,1,,3,01174,0021,494,STERLING PLACE,11238,40.67430029626,-73.961905288464,Brooklyn,2026-04-20T08:56:00.000,Rat Activity,2026-04-21T09:11:54.000,"{'latitude': '40.67430029626', 'longitude': '-73.961905288464', 'human_address': '{""address"": """", ""city"": """", ""state"": """", ""zip"": """"}'}",8,35,215,,Prospect Heights,,
Initial,14284102,PC8701051,1,1004190071,1,00419,0071,127,ELDRIDGE STREET,10002,40.718799080128,-73.991645075965,Manhattan,2026-04-20T08:59:00.000,Rat Activity,2026-04-21T10:03:02.000,"{'latitude': '40.718799080128', 'longitude': '-73.991645075965', 'human_address': '{""address"": """", ""city"": """", ""state"": """", ""zip"": """"}'}",3,1,18,1005595,Lower East Side,986566,201157
Treatments,3072238,PC8633526,4,3013020001,3,01302,0001,1700,BEDFORD AVENUE,11225,40.664999302704,-73.957127370149,Brooklyn,2026-04-20T09:00:56.000,Bait applied,2026-04-20T14:26:33.000,"{'latitude': '40.664999302704', 'longitude': '-73.957127370149', 'human_address': '{""address"": """", ""city"": """", ""state"": """", ""zip"": """"}'}",9,35,325,3388702,Crown Heights (South),996159,181617
Treatments,3072200,PC8535683,9,3007140044,3,00714,0044,4018,5 AVENUE,11232,40.650547731969,-74.004659681719,Brooklyn,2026-04-20T09:04:00.000,Bait applied,2026-04-20T14:08:37.000,"{'latitude': '40.650547731969', 'longitude': '-74.004659681719', 'human_address': '{""address"": """", ""city"": """", ""state"": """", ""zip"": """"}'}",7,38,82,3324369,Sunset Park (West),,
Treatments,3072212,PC8545916,7,3017840089,3,01784,0089,591,Lafayette Avenue,11216,40.689949496433,-73.950743222052,Brooklyn,2026-04-20T09:04:58.000,Monitoring visit,2026-04-20T13:54:50.000,"{'latitude': '40.689949496433', 'longitude': '-73.950743222052', 'human_address': '{""address"": """", ""city"": """", ""state"": """", ""zip"": """"}'}",3,36,253,3049771,Bedford-Stuyvesant (West),,
Compliance,14284613,PC8398207,14,3052210069,3,05221,0069,2117,FOSTER AVENUE,11210,40.636901016944,-73.957210346631,Brooklyn,2026-04-20T09:07:28.000,Failed for Rat Act,2026-04-22T14:03:39.000,"{'latitude': '40.636901016944', 'longitude': '-73.957210346631', 'human_address': '{""address"": """", ""city"": """", ""state"": """", ""zip"": """"}'}",14,45,51601,3120627,Flatbush,996126,171322
Treatments,3072277,PC8621976,5,2032730283,2,03273,0283,590,EAST 191 STREET,10458,40.859069713643,-73.884753619678,Bronx,2026-04-20T09:08:40.000,Bait applied,2026-04-21T10:04:46.000,"{'latitude': '40.859069713643', 'longitude': '-73.884753619678', 'human_address': '{""address"": """", ""city"": """", ""state"": """", ""zip"": """"}'}",6,15,397,2016269,Belmont,,
Initial,14284302,PC8697304,1,2028540026,2,02854,0026,15,EAST TREMONT AVENUE,10453,40.851631224018,-73.908923695977,Bronx,2026-04-20T09:09:08.000,Rat Activity,2026-04-22T12:32:20.000,"{'latitude': '40.851631224018', 'longitude': '-73.908923695977', 'human_address': '{""address"": """", ""city"": """", ""state"": """", ""zip"": """"}'}",5,14,241,2117794,Mount Hope,,
Treatments,3072185,PC8656660,4,2037410063,2,03741,0063,1135,WARD AVENUE,10472,40.827269341699,-73.876967860952,Bronx,2026-04-20T09:10:39.000,Bait applied,2026-04-20T13:27:36.000,"{'latitude': '40.827269341699', 'longitude': '-73.876967860952', 'human_address': '{""address"": """", ""city"": """", ""state"": """", ""zip"": """"}'}",9,18,5002,2023912,Soundview-Bruckner-Bronx River,1018299,240700
Treatments,3072358,PC8516469,16,2024280033,2,02428,0033,1047,CLAY AVENUE,10456,40.82852076723,-73.912764031532,Bronx,2026-04-20T09:10:41.000,Bait applied,2026-04-21T07:42:00.000,"{'latitude': '40.82852076723', 'longitude': '-73.912764031532', 'human_address': '{""address"": """", ""city"": """", ""state"": """", ""zip"": """"}'}",4,16,175,2002136,Concourse-Concourse Village,,
Treatments,3072237,PC8494710,8,3013040014,3,01304,0014,1679,BEDFORD AVENUE,11225,40.665559154836,-73.956907128924,Brooklyn,2026-04-20T09:10:56.000,Bait applied,2026-04-20T14:25:42.000,"{'latitude': '40.665559154836', 'longitude': '-73.956907128924', 'human_address': '{""address"": """", ""city"": """", ""state"": """", ""zip"": """"}'}",9,35,323,3034359,Crown Heights (South),,
Initial,14284304,PC8697954,1,2028540024,2,02854,0024,17,EAST TREMONT AVENUE,10453,40.851617483172,-73.908902026585,Bronx,2026-04-20T09:12:59.000,Failed for Rat Act,2026-04-22T12:31:06.000,"{'latitude': '40.851617483172', 'longitude': '-73.908902026585', 'human_address': '{""address"": """", ""city"": """", ""state"": """", ""zip"": """"}'}",5,14,241,2008266,Mount Hope,,
Initial,14283734,PC8662337,1,3034030038,3,03403,0038,562,CENTRAL AVENUE,11207,40.690211257061,-73.911348257525,Brooklyn,2026-04-20T09:15:42.000,Failed for Rat Act,2026-04-22T16:59:10.000,"{'latitude': '40.690211257061', 'longitude': '-73.911348257525', 'human_address': '{""address"": """", ""city"": """", ""state"": """", ""zip"": """"}'}",4,37,413,3393204,Bushwick (East),,
Compliance,14284103,PC8659132,3,1004090029,1,00409,0029,250,BROOME STREET,10002,40.71800020453,-73.98981259862,Manhattan,2026-04-20T09:17:00.000,Rat Activity,2026-04-21T10:01:59.000,"{'latitude': '40.71800020453', 'longitude': '-73.98981259862', 'human_address': '{""address"": """", ""city"": """", ""state"": """", ""zip"": """"}'}",3,1,18,1005295,Lower East Side,987088,200860
Initial,14284306,PC8697646,1,2028540021,2,02854,0021,1975,WALTON AVENUE,10453,40.85168270912,-73.908088625593,Bronx,2026-04-20T09:19:12.000,Failed for Other R,2026-04-22T12:30:08.000,"{'latitude': '40.85168270912', 'longitude': '-73.908088625593', 'human_address': '{""address"": """", ""city"": """", ""state"": """", ""zip"": """"}'}",5,14,241,2008265,Mount Hope,,
Treatments,3072201,PC8595179,9,3007290006,3,00729,0006,4311,4 AVENUE,11232,40.650253810956,-74.008620192878,Brooklyn,2026-04-20T09:20:00.000,Bait applied,2026-04-20T14:07:44.000,"{'latitude': '40.650253810956', 'longitude': '-74.008620192878', 'human_address': '{""address"": """", ""city"": """", ""state"": """", ""zip"": """"}'}",7,38,82,3010948,Sunset Park (West),981858,176184
Treatments,3072213,PC8637461,5,3017890035,3,01789,0035,642,LAFAYETTE AVENUE,11216,40.690110764525,-73.949199767577,Brooklyn,2026-04-20T09:20:04.000,Bait applied,2026-04-20T13:54:19.000,"{'latitude': '40.690110764525', 'longitude': '-73.949199767577', 'human_address': '{""address"": """", ""city"": """", ""state"": """", ""zip"": """"}'}",3,36,251,3049954,Bedford-Stuyvesant (West),,
Initial,14284345,PC8703386,1,3011740011,3,01174,0011,745,WASHINGTON AVENUE,11238,40.674421456819,-73.963098497432,Brooklyn,2026-04-20T09:21:14.000,Rat Activity,2026-04-21T09:12:36.000,"{'latitude': '40.674421456819', 'longitude': '-73.963098497432', 'human_address': '{""address"": """", ""city"": """", ""state"": """", ""zip"": """"}'}",8,35,215,3029433,Prospect Heights,,
Initial,14283736,PC8662530,1,3034030036,3,03403,0036,558,CENTRAL AVENUE,11207,40.690277223549,-73.911467165267,Brooklyn,2026-04-20T09:21:42.000,Rat Activity,2026-04-22T17:07:42.000,"{'latitude': '40.690277223549', 'longitude': '-73.911467165267', 'human_address': '{""address"": """", ""city"": """", ""state"": """", ""zip"": """"}'}",4,37,413,3078578,Bushwick (East),,
Treatments,3072274,PC8606824,8,2031020062,2,03102,0062,743,EAST 183 STREET,10458,40.851636504105,-73.884285791322,Bronx,2026-04-20T09:23:14.000,Bait applied,2026-04-21T10:08:03.000,"{'latitude': '40.851636504105', 'longitude': '-73.884285791322', 'human_address': '{""address"": """", ""city"": """", ""state"": """", ""zip"": """"}'}",6,15,393,2012853,Belmont,,
Initial,14283737,PC8662438,1,3034030035,3,03403,0035,556,CENTRAL AVENUE,11207,40.690310205356,-73.911524816261,Brooklyn,2026-04-20T09:24:42.000,Rat Activity,2026-04-22T17:07:06.000,"{'latitude': '40.690310205356', 'longitude': '-73.911524816261', 'human_address': '{""address"": """", ""city"": """", ""state"": """", ""zip"": """"}'}",4,37,413,3078577,Bushwick (East),,
Initial,14284308,PC8697912,1,2028540018,2,02854,0018,1979,WALTON AVENUE,10453,40.851748533505,-73.908027084034,Bronx,2026-04-20T09:24:53.000,Rat Activity,2026-04-22T12:29:08.000,"{'latitude': '40.851748533505', 'longitude': '-73.908027084034', 'human_address': '{""address"": """", ""city"": """", ""state"": """", ""zip"": """"}'}",5,14,241,2008264,Mount Hope,,
Stoppage,3072158,PC8704908,1,1020600044,1,02060,0044,420,WEST 146 STREET,10031,40.825011001749,-73.945031464444,Manhattan,2026-04-20T09:25:00.000,Stoppage done,2026-04-20T15:28:35.000,"{'latitude': '40.825011001749', 'longitude': '-73.945031464444', 'human_address': '{""address"": """", ""city"": """", ""state"": """", ""zip"": """"}'}",9,9,231,1061360,Hamilton Heights-Sugar Hill,,
Treatments,3072192,PC8527044,7,2037750007,2,03775,0007,1561,WESTCHESTER AVENUE,10472,40.828779163752,-73.877167412725,Bronx,2026-04-20T09:25:38.000,Bait applied,2026-04-20T13:31:30.000,"{'latitude': '40.828779163752', 'longitude': '-73.877167412725', 'human_address': '{""address"": """", ""city"": """", ""state"": """", ""zip"": """"}'}",9,17,54,2090512,Soundview-Bruckner-Bronx River,,
Treatments,3072357,PC8617000,9,2024280034,2,02428,0034,1045,CLAY AVENUE,10456,40.82848784683,-73.91278575557,Bronx,2026-04-20T09:25:41.000,Bait applied,2026-04-21T07:42:17.000,"{'latitude': '40.82848784683', 'longitude': '-73.91278575557', 'human_address': '{""address"": """", ""city"": """", ""state"": """", ""zip"": """"}'}",4,16,175,2002137,Concourse-Concourse Village,,
Stoppage,3072264,PC8690245,1,3032110041,3,03211,0041,401,Suydam Street,11237,40.70559679741,-73.920304955031,Brooklyn,2026-04-20T09:27:00.000,Stoppage done,2026-04-20T15:22:39.000,"{'latitude': '40.70559679741', 'longitude': '-73.920304955031', 'human_address': '{""address"": """", ""city"": """", ""state"": """", ""zip"": """"}'}",4,34,445,3073016,Bushwick (West),,
Initial,14283856,PC8696033,1,3032290043,3,03229,0043,1089,BROADWAY,11221,40.694366391856,-73.93059957674,Brooklyn,2026-04-20T09:28:25.000,Rat Activity,2026-04-24T11:32:03.000,"{'latitude': '40.694366391856', 'longitude': '-73.93059957674', 'human_address': '{""address"": """", ""city"": """", ""state"": """", ""zip"": """"}'}",4,34,393,3073440,Bushwick (West),,
Initial,14284312,PC8697825,1,2028540015,2,02854,0015,20,EAST 179 STREET,10453,40.852451225141,-73.908076715254,Bronx,2026-04-20T09:29:57.000,Rat Activity,2026-04-22T12:25:37.000,"{'latitude': '40.852451225141', 'longitude': '-73.908076715254', 'human_address': '{""address"": """", ""city"": """", ""state"": """", ""zip"": """"}'}",5,14,241,2008263,Mount Hope,,
Initial,14284682,PC8703938,1,,1,00256,0003,000,MADISON STREET,,0.00000000000000000000,0.00000000000000000000,Manhattan,2026-04-20T09:30:30.000,Rat Activity,2026-04-22T14:44:42.000,"{'latitude': '0.0', 'longitude': '0.0', 'human_address': '{""address"": """", ""city"": """", ""state"": """", ""zip"": """"}'}",,,,,,,
Compliance,14284184,PC8488952,9,3019090032,3,01909,0032,584,MYRTLE AVENUE,11205,40.693974625602,-73.961259324748,Brooklyn,2026-04-20T09:31:00.000,Rat Activity,2026-04-21T08:12:33.000,"{'latitude': '40.693974625602', 'longitude': '-73.961259324748', 'human_address': '{""address"": """", ""city"": """", ""state"": """", ""zip"": """"}'}",2,35,193,3054905,Clinton Hill,,
Compliance,14284551,PC8688012,2,1006250032,1,00625,0032,44,JANE STREET,10014,40.738122441707,-74.004633353033,Manhattan,2026-04-20T09:31:22.000,Rat Activity,2026-04-21T10:05:48.000,"{'latitude': '40.738122441707', 'longitude': '-74.004633353033', 'human_address': '{""address"": """", ""city"": """", ""state"": """", ""zip"": """"}'}",2,3,77,1011436,West Village,,
Initial,14283761,PC8700883,1,2032730310,2,03273,0310,2530,BATHGATE AVENUE,10458,40.859878821727,-73.886924926508,Bronx,2026-04-20T09:32:00.000,Failed for Other R,2026-04-21T11:51:52.000,"{'latitude': '40.859878821727', 'longitude': '-73.886924926508', 'human_address': '{""address"": """", ""city"": """", ""state"": """", ""zip"": """"}'}",6,15,397,2016274,Belmont,,
Initial,14284107,PC8680081,1,3011620016,3,01162,0016,420,PROSPECT PLACE,11238,40.676235437319,-73.962127699331,Brooklyn,2026-04-20T09:32:19.000,Rat Activity,2026-04-21T09:30:39.000,"{'latitude': '40.676235437319', 'longitude': '-73.962127699331', 'human_address': '{""address"": """", ""city"": """", ""state"": """", ""zip"": """"}'}",8,35,305,3028922,Crown Heights (North),994755,185652
Treatments,3072214,PC8637325,5,3017897504,3,01789,7504,652,LAFAYETTE AVENUE,11216,40.690165446459,-73.948720137648,Brooklyn,2026-04-20T09:33:35.000,Monitoring visit,2026-04-20T13:53:10.000,"{'latitude': '40.690165446459', 'longitude': '-73.948720137648', 'human_address': '{""address"": """", ""city"": """", ""state"": """", ""zip"": """"}'}",3,36,251,3049958,Bedford-Stuyvesant (West),,
Stoppage,3072168,PC8686703,1,3018170009,3,01817,0009,1129,BEDFORD AVE,11216,40.684875843761,-73.954204791483,Brooklyn,2026-04-20T09:34:00.000,Stoppage done,2026-04-20T15:27:41.000,"{'latitude': '40.684875843761', 'longitude': '-73.954204791483', 'human_address': '{""address"": """", ""city"": """", ""state"": """", ""zip"": """"}'}",3,36,245,3051293,Bedford-Stuyvesant (West),,
Compliance,14284317,PC8687485,2,3051850016,3,05185,0016,430,EAST   22 STREET,11226,40.641144492173,-73.957322919465,Brooklyn,2026-04-20T09:34:28.000,Rat Activity,2026-04-21T13:19:51.000,"{'latitude': '40.641144492173', 'longitude': '-73.957322919465', 'human_address': '{""address"": """", ""city"": """", ""state"": """", ""zip"": """"}'}",14,40,51602,3345437,Flatbush,996094,172868
Treatments,3072245,PC8544771,4,3013020001,3,01302,0001,77,SULLIVAN PLACE,11225,40.664223088335,-73.958645372878,Brooklyn,2026-04-20T09:35:56.000,Bait applied,2026-04-20T14:35:35.000,"{'latitude': '40.664223088335', 'longitude': '-73.958645372878', 'human_address': '{""address"": """", ""city"": """", ""state"": """", ""zip"": """"}'}",9,35,325,3388697,Crown Heights (South),995695,181274
Stoppage,3072253,PC8702009,1,3032800031,3,03280,0031,146,Wyckoff Avenue,11237,40.70287160305,-73.916950465494,Brooklyn,2026-04-20T09:37:00.000,Stoppage done,2026-04-20T15:24:41.000,"{'latitude': '40.70287160305', 'longitude': '-73.916950465494', 'human_address': '{""address"": """", ""city"": """", ""state"": """", ""zip"": """"}'}",4,37,443,3074859,Bushwick (West),,
Treatments,3072380,PC8649343,3,1020060029,1,02006,0029,537,LENOX AVENUE,10037,40.815492382331,-73.939851458541,Manhattan,2026-04-20T09:37:00.000,Bait applied,2026-04-21T08:56:10.000,"{'latitude': '40.815492382331', 'longitude': '-73.939851458541', 'human_address': '{""address"": """", ""city"": """", ""state"": """", ""zip"": """"}'}",10,9,228,1060002,Harlem (North),,
Treatments,3072273,PC8670822,4,2030980021,2,03098,0021,2164,CROTONA AVENUE,10457,40.849792051455,-73.887054192789,Bronx,2026-04-20T09:38:22.000,Bait applied,2026-04-21T10:08:22.000,"{'latitude': '40.849792051455', 'longitude': '-73.887054192789', 'human_address': '{""address"": """", ""city"": """", ""state"": """", ""zip"": """"}'}",6,15,371,2012765,Tremont,,
Treatments,3072199,PC8584738,8,3006920046,3,00692,0046,373,36 STREET,11232,40.654736246277,-74.005121287736,Brooklyn,2026-04-20T09:39:00.000,Bait applied,2026-04-20T14:09:44.000,"{'latitude': '40.654736246277', 'longitude': '-74.005121287736', 'human_address': '{""address"": """", ""city"": """", ""state"": """", ""zip"": """"}'}",7,38,84,3010269,Sunset Park (West),982829,177817
Treatments,3072392,PC8631698,10,1004520046,1,00452,0046,223,EAST 10 STREET,10003,40.729256038582,-73.985575022346,Manhattan,2026-04-20T09:39:38.000,Bait applied,2026-04-22T13:45:19.000,"{'latitude': '40.729256038582', 'longitude': '-73.985575022346', 'human_address': '{""address"": """", ""city"": """", ""state"": """", ""zip"": """"}'}",3,2,4001,1006461,East Village,,
Treatments,3072355,PC8614823,10,2024320086,2,02432,0086,302,EAST 165 STREET,10456,40.828920695183,-73.915357980495,Bronx,2026-04-20T09:40:41.000,Bait applied,2026-04-21T07:42:53.000,"{'latitude': '40.828920695183', 'longitude': '-73.915357980495', 'human_address': '{""address"": """", ""city"": """", ""state"": """", ""zip"": """"}'}",4,16,173,2002205,Concourse-Concourse Village,,
Treatments,3072191,PC8526938,8,2037760040,2,03776,0040,1584,EAST 172 STREET,10472,40.831537136357,-73.876706985387,Bronx,2026-04-20T09:40:59.000,Bait applied,2026-04-20T13:31:06.000,"{'latitude': '40.831537136357', 'longitude': '-73.876706985387', 'human_address': '{""address"": """", ""city"": """", ""state"": """", ""zip"": """"}'}",9,17,54,2025347,Soundview-Bruckner-Bronx River,,
Initial,14284426,PC8703847,1,3054160117,3,05416,0117,127,WEBSTER AVENUE,11230,40.630897924322,-73.974874697834,Brooklyn,2026-04-20T09:41:38.000,Rat Activity,2026-04-21T18:47:39.000,"{'latitude': '40.630897924322', 'longitude': '-73.974874697834', 'human_address': '{""address"": """", ""city"": """", ""state"": """", ""zip"": """"}'}",14,40,480,3127724,Flatbush (West)-Ditmas Park-Parkville,991224,169133
Treatments,3072325,PC8613687,5,2033310048,2,03331,0048,3103,WEBSTER AVENUE,10467,40.870951994149,-73.877132598145,Bronx,2026-04-20T09:42:00.000,Bait applied,2026-04-21T10:34:44.000,"{'latitude': '40.870951994149', 'longitude': '-73.877132598145', 'human_address': '{""address"": """", ""city"": """", ""state"": """", ""zip"": """"}'}",7,11,425,2017896,Norwood,1018231,256615
Initial,14283763,PC8700754,1,2032730321,2,03273,0321,558,EAST 191 STREET,10458,40.859603215765,-73.885779394296,Bronx,2026-04-20T09:43:00.000,Failed for Other R,2026-04-21T11:53:20.000,"{'latitude': '40.859603215765', 'longitude': '-73.885779394296', 'human_address': '{""address"": """", ""city"": """", ""state"": """", ""zip"": """"}'}",6,15,397,2016284,Belmont,,
Compliance,14284572,PC8557204,5,3011620014,3,01162,0014,629,GRAND AVENUE,11238,40.676263137411,-73.962899190082,Brooklyn,2026-04-20T09:44:00.000,Rat Activity,2026-04-22T09:39:31.000,"{'latitude': '40.676263137411', 'longitude': '-73.962899190082', 'human_address': '{""address"": """", ""city"": """", ""state"": """", ""zip"": """"}'}",8,35,305,3028921,Crown Heights (North),,
Treatments,3072296,PC8624220,8,3032480012,3,03248,0012,1562,DEKALB AVENUE,11237,40.703181410194,-73.920322280209,Brooklyn,2026-04-20T09:45:01.000,Monitoring visit,2026-04-21T10:06:05.000,"{'latitude': '40.703181410194', 'longitude': '-73.920322280209', 'human_address': '{""address"": """", ""city"": """", ""state"": """", ""zip"": """"}'}",4,37,445,3073909,Bushwick (West),1006342,195477
Initial,14283764,PC8700573,1,2032730323,2,03273,0323,562,EAST 191 STREET,10458,40.859545468648,-73.885671039444,Bronx,2026-04-20T09:46:00.000,Failed for Other R,2026-04-21T11:53:59.000,"{'latitude': '40.859545468648', 'longitude': '-73.885671039444', 'human_address': '{""address"": """", ""city"": """", ""state"": """", ""zip"": """"}'}",6,15,397,2016285,Belmont,,
Treatments,3072338,PC8654684,6,3011480031,3,01148,0031,820,BERGAN STREET,11238,40.677807675932,-73.960590964581,Brooklyn,2026-04-20T09:47:09.000,Bait applied,2026-04-21T09:39:37.000,"{'latitude': '40.677807675932', 'longitude': '-73.960590964581', 'human_address': '{""address"": """", ""city"": """", ""state"": """", ""zip"": """"}'}",8,35,305,3000000,Crown Heights (North),995181,186225
Treatments,3072215,PC8548828,7,3017920017,3,01792,0017,782,LAFAYETTE AVENUE,11221,40.690985462215,-73.941579683503,Brooklyn,2026-04-20T09:47:39.000,Monitoring visit,2026-04-20T13:52:26.000,"{'latitude': '40.690985462215', 'longitude': '-73.941579683503', 'human_address': '{""address"": """", ""city"": """", ""state"": """", ""zip"": """"}'}",3,36,279,3050033,Bedford-Stuyvesant (East),,
Stoppage,3072252,PC8704421,1,3032580001,3,03258,0001,383,Knickerbocker Avenue,11237,40.700310837382,-73.920985709568,Brooklyn,2026-04-20T09:48:00.000,Stoppage done,2026-04-20T15:26:44.000,"{'latitude': '40.700310837382', 'longitude': '-73.920985709568', 'human_address': '{""address"": """", ""city"": """", ""state"": """", ""zip"": """"}'}",4,37,431,3074169,Bushwick (West),,
Initial,14283862,PC8694803,1,3032290050,3,03229,0050,1073,BROADWAY,11221,40.694591700414,-73.930992413453,Brooklyn,2026-04-20T09:48:25.000,Rat Activity,2026-04-24T11:51:00.000,"{'latitude': '40.694591700414', 'longitude': '-73.930992413453', 'human_address': '{""address"": """", ""city"": """", ""state"": """", ""zip"": """"}'}",4,34,393,3073446,Bushwick (West),,
Initial,14284014,PC8690834,1,4091820041,4,09182,0041,102-29,85 AVENUE,11418,40.698245177768,-73.846372433876,Queens,2026-04-20T09:48:42.000,Failed for Other R,2026-04-21T17:19:34.000,"{'latitude': '40.698245177768', 'longitude': '-73.846372433876', 'human_address': '{""address"": """", ""city"": """", ""state"": """", ""zip"": """"}'}",9,29,24,4191483,Richmond Hill,1026849,193706
Initial,14283765,PC8700830,1,2032730324,2,03273,0324,564,EAST 191 STREET,10458,40.859515222687,-73.885616864458,Bronx,2026-04-20T09:49:00.000,Failed for Other R,2026-04-21T11:54:40.000,"{'latitude': '40.859515222687', 'longitude': '-73.885616864458', 'human_address': '{""address"": """", ""city"": """", ""state"": """", ""zip"": """"}'}",6,15,397,2016286,Belmont,,
Initial,14284105,PC8703137,1,1003530054,1,00353,0054,107,SUFFOLK STREET,10002,40.718935783178,-73.986121995238,Manhattan,2026-04-20T09:49:08.000,Rat Activity,2026-04-21T09:59:41.000,"{'latitude': '40.718935783178', 'longitude': '-73.986121995238', 'human_address': '{""address"": """", ""city"": """", ""state"": """", ""zip"": """"}'}",3,1,1402,1004301,Lower East Side,988097,201207
Compliance,14284185,PC8488801,7,3018900062,3,01890,0062,100,HALL STREET,11205,40.694967059965,-73.966228070174,Brooklyn,2026-04-20T09:50:00.000,Rat Activity,2026-04-21T08:21:54.000,"{'latitude': '40.694967059965', 'longitude': '-73.966228070174', 'human_address': '{""address"": """", ""city"": """", ""state"": """", ""zip"": """"}'}",2,35,191,3054436,Clinton Hill,,
Treatments,3072281,PC8671628,4,4065350025,4,06535,0025,68-58,147 STREET,11367,40.732196232633,-73.822328095511,Queens,2026-04-20T09:50:23.000,Bait applied,2026-04-23T13:34:06.000,"{'latitude': '40.732196232633', 'longitude': '-73.822328095511', 'human_address': '{""address"": """", ""city"": """", ""state"": """", ""zip"": """"}'}",8,24,809,4142078,Kew Gardens Hills,1033491,206088
Treatments,3072240,PC8597836,5,3013020001,3,01302,0001,11,MCKEEVER PLACE,11225,40.665595530353,-73.958792306974,Brooklyn,2026-04-20T09:50:56.000,Bait applied,2026-04-20T14:28:22.000,"{'latitude': '40.665595530353', 'longitude': '-73.958792306974', 'human_address': '{""address"": """", ""city"": """", ""state"": """", ""zip"": """"}'}",9,35,325,3388699,Crown Heights (South),995703,181850
Compliance,14284039,PC8653468,6,,1,01779,0007,107,EAST 130 STREET,10037,40.808046717765,-73.936300061221,Manhattan,2026-04-20T09:51:00.000,Failed for Rat Act,2026-04-21T08:42:04.000,"{'latitude': '40.808046717765', 'longitude': '-73.936300061221', 'human_address': '{""address"": """", ""city"": """", ""state"": """", ""zip"": """"}'}",11,9,242,,East Harlem (North),,
Treatments,3072311,PC8647064,3,4033940043,4,03394,0043,18-89,TROUTMAN STREET,11385,40.711627969841,-73.917707824124,Queens,2026-04-20T09:52:28.000,Bait applied,2026-04-22T11:30:19.000,"{'latitude': '40.711627969841', 'longitude': '-73.917707824124', 'human_address': '{""address"": """", ""city"": """", ""state"": """", ""zip"": """"}'}",5,34,53901,4080975,Ridgewood,,
Initial,14283863,PC8693149,1,3032297502,3,03229,7502,12,LAWTON STREET,11221,40.695082862329,-73.930739469612,Brooklyn,2026-04-20T09:53:25.000,Rat Activity,2026-04-24T12:04:32.000,"{'latitude': '40.695082862329', 'longitude': '-73.930739469612', 'human_address': '{""address"": """", ""city"": """", ""state"": """", ""zip"": """"}'}",4,34,393,3073412,Bushwick (West),,
Initial,14283766,PC8700636,1,2032730325,2,03273,0325,2551,HOFFMAN STREET,10458,40.859292784543,-73.885501564233,Bronx,2026-04-20T09:54:00.000,Failed for Other R,2026-04-21T11:58:28.000,"{'latitude': '40.859292784543', 'longitude': '-73.885501564233', 'human_address': '{""address"": """", ""city"": """", ""state"": """", ""zip"": """"}'}",6,15,397,2016287,Belmont,,
Initial,14283833,PC8701781,1,1018850036,1,01885,0036,1084,AMSTERDAM AVENUE,10025,40.805074669482,-73.962339471781,Manhattan,2026-04-20T09:54:00.000,Rat Activity,2026-04-21T12:43:04.000,"{'latitude': '40.805074669482', 'longitude': '-73.962339471781', 'human_address': '{""address"": """", ""city"": """", ""state"": """", ""zip"": """"}'}",9,7,199,1057032,Morningside Heights,,
Treatments,3072210,PC8668700,3,3008700003,3,00870,0003,1677,8 AVENUE,11215,40.659876238513,-73.984169996034,Brooklyn,2026-04-20T09:55:00.000,Bait applied,2026-04-20T13:57:48.000,"{'latitude': '40.659876238513', 'longitude': '-73.984169996034', 'human_address': '{""address"": """", ""city"": """", ""state"": """", ""zip"": """"}'}",7,39,169,3016557,Windsor Terrace-South Slope,988642,179690
Treatments,3072183,PC8587500,9,2038700028,2,03870,0028,1670,EAST 174 STREET,10472,40.834330158864,-73.873153065204,Bronx,2026-04-20T09:55:15.000,Bait applied,2026-04-20T13:23:45.000,"{'latitude': '40.834330158864', 'longitude': '-73.873153065204', 'human_address': '{""address"": """", ""city"": """", ""state"": """", ""zip"": """"}'}",9,18,64,2027599,Soundview-Bruckner-Bronx River,,
Treatments,3072394,PC8668779,4,1004040033,1,00404,0033,345,EAST 10 STREET,10009,40.727012771625,-73.980250210182,Manhattan,2026-04-20T09:55:38.000,Bait applied,2026-04-22T13:45:47.000,"{'latitude': '40.727012771625', 'longitude': '-73.980250210182', 'human_address': '{""address"": """", ""city"": """", ""state"": """", ""zip"": """"}'}",3,2,34,1005141,East Village,,
Initial,14284027,PC8702298,1,5010680072,5,01068,0072,2111,RICHMOND TERRACE,10302,40.640314472842,-74.133391282143,Staten Island,2026-04-20T09:55:46.000,Failed for Other R,2026-04-21T12:27:05.000,"{'latitude': '40.640314472842', 'longitude': '-74.133391282143', 'human_address': '{""address"": """", ""city"": """", ""state"": """", ""zip"": """"}'}",1,49,20702,5107019,Port Richmond,947230,172591
Initial,14284427,PC8703193,1,3066960001,3,06696,0001,1200,AVENUE H,11230,40.629651927008,-73.964939079274,Brooklyn,2026-04-20T09:57:38.000,Failed for Other R,2026-04-21T18:47:15.000,"{'latitude': '40.629651927008', 'longitude': '-73.964939079274', 'human_address': '{""address"": """", ""city"": """", ""state"": """", ""zip"": """"}'}",14,45,530,3179199,Midwood,993982,168680
Treatments,3072298,PC8637119,5,3032590008,3,03259,0008,171,IRVING AVENUE,11237,40.702193036796,-73.919955594937,Brooklyn,2026-04-20T09:59:00.000,Bait applied,2026-04-21T10:06:40.000,"{'latitude': '40.702193036796', 'longitude': '-73.919955594937', 'human_address': '{""address"": """", ""city"": """", ""state"": """", ""zip"": """"}'}",4,37,443,3325596,Bushwick (West),,
Compliance,14284111,PC8611183,6,3011620013,3,01162,0013,631,GRAND AVENUE,11238,40.676213737282,-73.962917243509,Brooklyn,2026-04-20T09:59:07.000,Rat Activity,2026-04-21T09:36:59.000,"{'latitude': '40.676213737282', 'longitude': '-73.962917243509', 'human_address': '{""address"": """", ""city"": """", ""state"": """", ""zip"": """"}'}",8,35,305,3028920,Crown Heights (North),994551,185711
Stoppage,3072173,PC8679438,1,3017510020,3,01751,0020,706,Myrtle Avenue,11205,40.694688748843,-73.955059900265,Brooklyn,2026-04-20T10:00:00.000,Stoppage done,2026-04-20T15:26:50.000,"{'latitude': '40.694688748843', 'longitude': '-73.955059900265', 'human_address': '{""address"": """", ""city"": """", ""state"": """", ""zip"": """"}'}",3,33,241,3048563,Bedford-Stuyvesant (West),,
Treatments,3072375,PC8635287,10,1019487503,1,01948,7503,313,WEST 121 STREET,10027,40.807917837127,-73.953758574514,Manhattan,2026-04-20T10:00:00.000,Bait applied,2026-04-21T08:57:30.000,"{'latitude': '40.807917837127', 'longitude': '-73.953758574514', 'human_address': '{""address"": """", ""city"": """", ""state"": """", ""zip"": """"}'}",10,9,257,1089888,Harlem (South),,
Treatments,3072339,PC8459197,17,3011680018,3,01168,0018,564,PARK PLACE,11238,40.674661661972,-73.959161612421,Brooklyn,2026-04-20T10:00:17.000,Bait applied,2026-04-21T09:58:20.000,"{'latitude': '40.674661661972', 'longitude': '-73.959161612421', 'human_address': '{""address"": """", ""city"": """", ""state"": """", ""zip"": """"}'}",8,35,217,3029256,Crown Heights (North),,
Stoppage,3072259,PC8701684,1,3032550035,3,03255,0035,117,STANHOPE STREET,11221,40.697699445753,-73.923390635841,Brooklyn,2026-04-20T10:01:00.000,Stoppage done,2026-04-20T15:23:33.000,"{'latitude': '40.697699445753', 'longitude': '-73.923390635841', 'human_address': '{""address"": """", ""city"": """", ""state"": """", ""zip"": """"}'}",4,37,421,3074106,Bushwick (West),,
Compliance,14284390,PC8663517,2,2028950068,2,02895,0068,1520,BROOK AVENUE,10457,40.838958202405,-73.904828354175,Bronx,2026-04-20T10:02:19.000,Rat Activity,2026-04-21T09:11:27.000,"{'latitude': '40.838958202405', 'longitude': '-73.904828354175', 'human_address': '{""address"": """", ""city"": """", ""state"": """", ""zip"": """"}'}",3,16,169,2096010,Claremont Village-Claremont (East),,
Treatments,3072216,PC8548831,7,3017920020,3,01792,0020,788,LAFAYETTE AVENUE,11221,40.691007321,-73.941384941815,Brooklyn,2026-04-20T10:03:00.000,Monitoring visit,2026-04-20T13:51:45.000,"{'latitude': '40.691007321', 'longitude': '-73.941384941815', 'human_address': '{""address"": """", ""city"": """", ""state"": """", ""zip"": """"}'}",3,36,279,3050036,Bedford-Stuyvesant (East),,
Compliance,14284186,PC8680058,2,3018870063,3,01887,0063,82,CLINTON AVENUE,11205,40.694962405301,-73.969192357173,Brooklyn,2026-04-20T10:04:00.000,Rat Activity,2026-04-21T08:25:09.000,"{'latitude': '40.694962405301', 'longitude': '-73.969192357173', 'human_address': '{""address"": """", ""city"": """", ""state"": """", ""zip"": """"}'}",2,35,187,3054274,Fort Greene,992793,192474
Treatments,3072266,PC8669249,4,2030680028,2,03068,0028,586,EAST 179 STREET,10457,40.848194666965,-73.892840159665,Bronx,2026-04-20T10:04:28.000,Bait applied,2026-04-21T10:12:06.000,"{'latitude': '40.848194666965', 'longitude': '-73.892840159665', 'human_address': '{""address"": """", ""city"": """", ""state"": """", ""zip"": """"}'}",6,15,37504,2011968,Tremont,,
Treatments,3072283,PC8365300,11,4067040001,4,06704,0001,150-18,75 AVENUE,11367,40.72535967371,-73.815790939202,Queens,2026-04-20T10:05:23.000,Bait applied,2026-04-23T13:34:49.000,"{'latitude': '40.72535967371', 'longitude': '-73.815790939202', 'human_address': '{""address"": """", ""city"": """", ""state"": """", ""zip"": """"}'}",8,24,77908,4448169,Kew Gardens Hills,1035210,203566
Compliance,14284527,PC8658547,2,2026120058,2,02612,0058,1229,FRANKLIN AVENUE,10456,40.830552482562,-73.903239614736,Bronx,2026-04-20T10:05:39.000,Rat Activity,2026-04-22T12:26:06.000,"{'latitude': '40.830552482562', 'longitude': '-73.903239614736', 'human_address': '{""address"": """", ""city"": """", ""state"": """", ""zip"": """"}'}",3,17,149,2004257,Morrisania,1011024,241884
Treatments,3072241,PC8431541,9,3013020001,3,01302,0001,220,MONTGOMERY STREET,11225,40.66582011609,-73.957462068734,Brooklyn,2026-04-20T10:05:56.000,Bait applied,2026-04-20T14:29:55.000,"{'latitude': '40.66582011609', 'longitude': '-73.957462068734', 'human_address': '{""address"": """", ""city"": """", ""state"": """", ""zip"": """"}'}",9,35,325,3388700,Crown Heights (South),996051,181858
Initial,14284199,PC8703607,1,3011590041,3,01159,0041,306,PROSPECT PLACE,11238,40.677194781298,-73.966691362577,Brooklyn,2026-04-20T10:07:11.000,Failed for Rat Act,2026-04-21T09:25:02.000,"{'latitude': '40.677194781298', 'longitude': '-73.966691362577', 'human_address': '{""address"": """", ""city"": """", ""state"": """", ""zip"": """"}'}",8,35,205,3028814,Prospect Heights,,
Treatments,3072233,PC8656788,3,1017250005,1,01725,0005,79,WEST  127 STREET,10027,40.808651600568,-73.943531444457,Manhattan,2026-04-20T10:09:47.000,Bait applied,2026-04-21T09:10:49.000,"{'latitude': '40.808651600568', 'longitude': '-73.943531444457', 'human_address': '{""address"": """", ""city"": """", ""state"": """", ""zip"": """"}'}",10,9,208,1053614,Harlem (North),999882,233898
Treatments,3072190,PC8589278,6,2038790041,2,03879,0041,1327,LELAND AVENUE,10472,40.833270916468,-73.863763047412,Bronx,2026-04-20T10:10:05.000,Bait applied,2026-04-20T13:30:36.000,"{'latitude': '40.833270916468', 'longitude': '-73.863763047412', 'human_address': '{""address"": """", ""city"": """", ""state"": """", ""zip"": """"}'}",9,18,76,2027991,Soundview-Bruckner-Bronx River,,
Treatments,3072369,PC8632412,7,1021160001,1,2116,0001,3780,BROADWAY,10032,40.834142641001,-73.944799837788,Manhattan,2026-04-20T10:10:31.000,Bait applied,2026-04-23T08:24:41.000,"{'latitude': '40.834142641001', 'longitude': '-73.944799837788', 'human_address': '{""address"": """", ""city"": """", ""state"": """", ""zip"": """"}'}",12,10,241,1084194,Washington Heights (South),,
Treatments,3072389,PC8667583,5,1003780009,1,00378,0009,140,AVENUE C,10009,40.725137700401,-73.978071641896,Manhattan,2026-04-20T10:10:38.000,Bait applied,2026-04-22T13:44:48.000,"{'latitude': '40.725137700401', 'longitude': '-73.978071641896', 'human_address': '{""address"": """", ""city"": """", ""state"": """", ""zip"": """"}'}",3,2,2602,1004529,East Village,,
Treatments,3072349,PC8615462,7,2024280019,2,02428,0019,350,EAST 166 STREET,10456,40.829607776843,-73.912885460303,Bronx,2026-04-20T10:10:41.000,Bait applied,2026-04-21T07:44:49.000,"{'latitude': '40.829607776843', 'longitude': '-73.912885460303', 'human_address': '{""address"": """", ""city"": """", ""state"": """", ""zip"": """"}'}",4,16,175,2000000,Concourse-Concourse Village,,
Stoppage,3072256,PC8703959,1,3032650001,3,03265,0001,291,Evergreen Avenue,11221,40.694920121906,-73.925103173147,Brooklyn,2026-04-20T10:11:00.000,Stoppage done,2026-04-20T15:23:56.000,"{'latitude': '40.694920121906', 'longitude': '-73.925103173147', 'human_address': '{""address"": """", ""city"": """", ""state"": """", ""zip"": """"}'}",4,37,421,3074370,Bushwick (West),,
Initial,14284015,PC8697150,1,4091970035,4,09197,0035,107-09,86 AVENUE,11418,40.697730524355,-73.841328352584,Queens,2026-04-20T10:11:39.000,Failed for Other R,2026-04-21T17:18:47.000,"{'latitude': '40.697730524355', 'longitude': '-73.841328352584', 'human_address': '{""address"": """", ""city"": """", ""state"": """", ""zip"": """"}'}",9,29,128,4457309,Richmond Hill,1028248,193521
Treatments,3072197,PC8503428,13,3006550013,3,00655,0013,214,25 STREET,11232,40.660154527705,-73.99751663972,Brooklyn,2026-04-20T10:12:00.000,Bait applied,2026-04-20T14:11:30.000,"{'latitude': '40.660154527705', 'longitude': '-73.99751663972', 'human_address': '{""address"": """", ""city"": """", ""state"": """", ""zip"": """"}'}",7,38,101,3336871,Sunset Park (West),,
Initial,14283869,PC8695873,1,3032290111,3,03229,0111,28A,LAWTON STREET,11221,40.69543673696,-73.930407329048,Brooklyn,2026-04-20T10:12:25.000,Rat Activity,2026-04-24T12:09:13.000,"{'latitude': '40.69543673696', 'longitude': '-73.930407329048', 'human_address': '{""address"": """", ""city"": """", ""state"": """", ""zip"": """"}'}",4,34,393,3428887,Bushwick (West),,
Compliance,14284106,PC8684461,2,1003720056,1,00372,0056,286,EAST    2 STREET,10009,40.720277046985,-73.979866204919,Manhattan,2026-04-20T10:13:15.000,Rat Activity,2026-04-21T09:58:33.000,"{'latitude': '40.720277046985', 'longitude': '-73.979866204919', 'human_address': '{""address"": """", ""city"": """", ""state"": """", ""zip"": """"}'}",3,2,2202,1004376,East Village,989831,201696
Compliance,14284322,PC8681756,2,3051010029,3,05101,0029,575,OCEAN AVENUE,11226,40.648888753751,-73.960773881549,Brooklyn,2026-04-20T10:13:28.000,Rat Activity,2026-04-21T13:06:04.000,"{'latitude': '40.648888753751', 'longitude': '-73.960773881549', 'human_address': '{""address"": """", ""city"": """", ""state"": """", ""zip"": """"}'}",14,40,51002,3117143,Flatbush,995135,175689
Stoppage,3072171,PC8681035,1,3018230021,3,01823,0021,240,Madison Street,11216,40.684870963168,-73.949138873253,Brooklyn,2026-04-20T10:14:00.000,Stoppage done,2026-04-20T15:27:11.000,"{'latitude': '40.684870963168', 'longitude': '-73.949138873253', 'human_address': '{""address"": """", ""city"": """", ""state"": """", ""zip"": """"}'}",3,36,249,3051634,Bedford-Stuyvesant (West),,
Initial,14283771,PC8700597,1,2032730257,2,03273,0257,609,EAST FORDHAM ROAD,10458,40.858342465789,-73.884859722095,Bronx,2026-04-20T10:14:00.000,Failed for Other R,2026-04-21T12:04:41.000,"{'latitude': '40.858342465789', 'longitude': '-73.884859722095', 'human_address': '{""address"": """", ""city"": """", ""state"": """", ""zip"": """"}'}",6,15,397,2016261,Belmont,,
Compliance,14284428,PC8687896,2,3067000012,3,06700,0012,850,EAST   17 STREET,11230,40.629861782046,-73.960359994723,Brooklyn,2026-04-20T10:14:38.000,Failed for Rat Act,2026-04-21T18:46:25.000,"{'latitude': '40.629861782046', 'longitude': '-73.960359994723', 'human_address': '{""address"": """", ""city"": """", ""state"": """", ""zip"": """"}'}",14,45,532,3179387,Midwood,995253,168757
Treatments,3072174,PC8624332,7,1018470066,1,01847,0066,312,WEST  114 STREET,10026,40.803302357077,-73.956799550851,Manhattan,2026-04-20T10:15:38.000,Bait applied,2026-04-21T13:59:17.000,"{'latitude': '40.803302357077', 'longitude': '-73.956799550851', 'human_address': '{""address"": """", ""city"": """", ""state"": """", ""zip"": """"}'}",10,9,19702,1055820,Harlem (South),996210,231947
Treatments,3072297,PC8513396,10,3032540075,3,03254,0075,47,STANHOPE STREET,11221,40.695858894963,-73.925195876618,Brooklyn,2026-04-20T10:16:01.000,Bait applied,2026-04-21T10:08:47.000,"{'latitude': '40.695858894963', 'longitude': '-73.925195876618', 'human_address': '{""address"": """", ""city"": """", ""state"": """", ""zip"": """"}'}",4,34,421,3074093,Bushwick (West),,
Treatments,3072379,PC8673468,3,1019440064,1,01944,0064,35,MORNINGSIDE AVENUE,10026,40.806590819389,-73.957483737117,Manhattan,2026-04-20T10:19:00.000,Bait applied,2026-04-21T08:58:13.000,"{'latitude': '40.806590819389', 'longitude': '-73.957483737117', 'human_address': '{""address"": """", ""city"": """", ""state"": """", ""zip"": """"}'}",10,9,20102,1059085,Harlem (South),996021,233147
Treatments,3072269,PC8637633,4,2030690102,2,03069,0102,617,EAST 179 STREET,10457,40.847765639196,-73.891933612973,Bronx,2026-04-20T10:19:17.000,Bait applied,2026-04-21T10:10:14.000,"{'latitude': '40.847765639196', 'longitude': '-73.891933612973', 'human_address': '{""address"": """", ""city"": """", ""state"": """", ""zip"": """"}'}",6,15,373,2092249,Tremont,,
Initial,14284607,PC8700825,1,2032730301,2,03273,0301,545,EAST FORDHAM ROAD,10458,40.859340815942,-73.886886078262,Bronx,2026-04-20T10:20:00.000,Failed for Other R,2026-04-23T13:04:10.000,"{'latitude': '40.859340815942', 'longitude': '-73.886886078262', 'human_address': '{""address"": """", ""city"": """", ""state"": """", ""zip"": """"}'}",6,15,397,2016273,Belmont,,
Treatments,3072317,PC8612067,6,2033270142,2,03327,0142,3407,DEKALB AVENUE,10467,40.880500948044,-73.88242721511,Bronx,2026-04-20T10:20:00.000,Bait applied,2026-04-21T10:35:50.000,"{'latitude': '40.880500948044', 'longitude': '-73.88242721511', 'human_address': '{""address"": """", ""city"": """", ""state"": """", ""zip"": """"}'}",7,11,421,2017786,Norwood,,
Initial,14284200,PC8703710,1,3011590038,3,01159,0038,300,PROSPECT PLACE,11238,40.677222269829,-73.966831952481,Brooklyn,2026-04-20T10:20:13.000,Rat Activity,2026-04-21T09:24:26.000,"{'latitude': '40.677222269829', 'longitude': '-73.966831952481', 'human_address': '{""address"": """", ""city"": """", ""state"": """", ""zip"": """"}'}",8,35,205,3028811,Prospect Heights,,
Treatments,3072285,PC8534342,4,4097110056,4,09711,0056,141-50,85 ROAD,11435,40.709586621701,-73.814810311582,Queens,2026-04-20T10:20:23.000,Bait applied,2026-04-23T13:35:22.000,"{'latitude': '40.709586621701', 'longitude': '-73.814810311582', 'human_address': '{""address"": """", ""city"": """", ""state"": """", ""zip"": """"}'}",8,24,214,4207706,Jamaica Hills-Briarwood,,
Treatments,3072243,PC8634317,3,3011890017,3,01189,0017,916,CARROLL STREET,11225,40.668472884028,-73.961158841964,Brooklyn,2026-04-20T10:20:56.000,Bait applied,2026-04-20T14:32:48.000,"{'latitude': '40.668472884028', 'longitude': '-73.961158841964', 'human_address': '{""address"": """", ""city"": """", ""state"": """", ""zip"": """"}'}",9,35,213,3029712,Crown Heights (South),995023,182825
Stoppage,3072170,PC8681036,1,3018230029,3,01823,0029,248,Madison street,11216,40.684901035376,-73.94886842724,Brooklyn,2026-04-20T10:22:00.000,Stoppage done,2026-04-20T15:27:20.000,"{'latitude': '40.684901035376', 'longitude': '-73.94886842724', 'human_address': '{""address"": """", ""city"": """", ""state"": """", ""zip"": """"}'}",3,36,249,3051638,Bedford-Stuyvesant (West),,
Treatments,3072313,PC8658359,3,4034210019,4,03421,0019,1725,HART STREET,11385,40.707175804992,-73.917504144188,Queens,2026-04-20T10:23:28.000,Bait applied,2026-04-22T11:30:47.000,"{'latitude': '40.707175804992', 'longitude': '-73.917504144188', 'human_address': '{""address"": """", ""city"": """", ""state"": """", ""zip"": """"}'}",5,34,53901,4081650,Ridgewood,,
Initial,14284448,PC8699638,1,2029310013,2,02931,0013,1326,FULTON AVENUE,10456,40.833049885422,-73.902870984922,Bronx,2026-04-20T10:24:19.000,Failed for Other R,2026-04-23T10:20:26.000,"{'latitude': '40.833049885422', 'longitude': '-73.902870984922', 'human_address': '{""address"": """", ""city"": """", ""state"": """", ""zip"": """"}'}",3,16,149,2009684,Morrisania,,
Stoppage,3072157,PC8704425,1,1021220021,1,02122,0021,543,WEST 162 STREET,10032,40.836556168456,-73.941089975682,Manhattan,2026-04-20T10:25:00.000,Stoppage done,2026-04-20T15:28:41.000,"{'latitude': '40.836556168456', 'longitude': '-73.941089975682', 'human_address': '{""address"": """", ""city"": """", ""state"": """", ""zip"": """"}'}",12,10,245,1062921,Washington Heights (South),,
Treatments,3072194,PC8672809,3,2038010036,2,03801,0036,2070,POWELL AVENUE,10472,40.830720529049,-73.854387445166,Bronx,2026-04-20T10:25:00.000,Bait applied,2026-04-20T13:32:48.000,"{'latitude': '40.830720529049', 'longitude': '-73.854387445166', 'human_address': '{""address"": """", ""city"": """", ""state"": """", ""zip"": """"}'}",9,18,78,2026162,Castle Hill-Unionport,1024546,241967
Compliance,14284187,PC8572125,5,3020440012,3,02044,0012,115,CARLTON AVENUE,11205,40.694236027778,-73.973116181162,Brooklyn,2026-04-20T10:25:00.000,Rat Activity,2026-04-21T08:26:22.000,"{'latitude': '40.694236027778', 'longitude': '-73.973116181162', 'human_address': '{""address"": """", ""city"": """", ""state"": """", ""zip"": """"}'}",2,35,18501,3058045,Fort Greene,991705,192209
Initial,14284154,PC8705867,1,,3,00640,0052,,,11232,,,Brooklyn,2026-04-20T10:25:00.000,Rat Activity,2026-04-21T09:07:42.000,,,,,,,,
Initial,14284201,PC8703378,1,3011590037,3,01159,0037,298,PROSPECT PLACE,11238,40.677233262484,-73.966878814896,Brooklyn,2026-04-20T10:25:18.000,Failed for Other R,2026-04-21T09:24:01.000,"{'latitude': '40.677233262484', 'longitude': '-73.966878814896', 'human_address': '{""address"": """", ""city"": """", ""state"": """", ""zip"": """"}'}",8,35,205,3028810,Prospect Heights,,
Treatments,3072353,PC8403649,13,2024220052,2,02422,0052,291,EAST 162 STREET,10451,40.826223821661,-73.917012715284,Bronx,2026-04-20T10:25:41.000,Bait applied,2026-04-21T07:43:30.000,"{'latitude': '40.826223821661', 'longitude': '-73.917012715284', 'human_address': '{""address"": """", ""city"": """", ""state"": """", ""zip"": """"}'}",4,16,173,2001980,Concourse-Concourse Village,,
Stoppage,3072172,PC8681037,1,3018230033,3,01823,0033,252,Madison street,11216,40.684917444433,-73.948735005902,Brooklyn,2026-04-20T10:27:00.000,Stoppage done,2026-04-20T15:27:02.000,"{'latitude': '40.684917444433', 'longitude': '-73.948735005902', 'human_address': '{""address"": """", ""city"": """", ""state"": """", ""zip"": """"}'}",3,36,249,3051640,Bedford-Stuyvesant (West),,
Compliance,14283681,PC8684285,2,1017960002,1,01796,0002,2324,2 AVENUE,10035,40.799063130803,-73.936250901384,Manhattan,2026-04-20T10:27:35.000,Failed for Other R,2026-04-21T11:02:44.000,"{'latitude': '40.799063130803', 'longitude': '-73.936250901384', 'human_address': '{""address"": """", ""city"": """", ""state"": """", ""zip"": """"}'}",11,8,194,1054733,East Harlem (North),,
Treatments,3072318,PC8612099,5,,2,03327,0075,15,EAST 210 STREET,,0.00000000000000000000,0.00000000000000000000,Bronx,2026-04-20T10:28:00.000,Monitoring visit,2026-04-21T10:35:42.000,"{'latitude': '0.0', 'longitude': '0.0', 'human_address': '{""address"": """", ""city"": """", ""state"": """", ""zip"": """"}'}",,,,,,,
Treatments,3072219,PC8656549,4,3015080033,3,01508,0033,402A,BAINBRIDGE STREET,11233,40.682115660907,-73.92088837058,Brooklyn,2026-04-20T10:29:19.000,Monitoring visit,2026-04-20T13:50:02.000,"{'latitude': '40.682115660907', 'longitude': '-73.92088837058', 'human_address': '{""address"": """", ""city"": """", ""state"": """", ""zip"": """"}'}",3,41,379,3040786,Bedford-Stuyvesant (East),,
Compliance,14284429,PC8302422,17,3067030035,3,06703,0035,855,EAST   19 STREET,11230,40.629932453947,-73.958407311733,Brooklyn,2026-04-20T10:29:38.000,Failed for Rat Act,2026-04-21T18:44:07.000,"{'latitude': '40.629932453947', 'longitude': '-73.958407311733', 'human_address': '{""address"": """", ""city"": """", ""state"": """", ""zip"": """"}'}",14,45,764,3179451,Flatbush (West)-Ditmas Park-Parkville,995795,168783
Treatments,3072202,PC8416948,10,3008990009,3,00899,0009,709,5 AVENUE,11215,40.660692378383,-73.994081697261,Brooklyn,2026-04-20T10:30:00.000,Bait applied,2026-04-20T14:06:41.000,"{'latitude': '40.660692378383', 'longitude': '-73.994081697261', 'human_address': '{""address"": """", ""city"": """", ""state"": """", ""zip"": """"}'}",7,39,145,3017619,Sunset Park (West),,
Treatments,3072246,PC8648489,3,3011890024,3,01189,0024,934,CARROLL STREET,11225,40.668340916707,-73.960520879964,Brooklyn,2026-04-20T10:30:56.000,Bait applied,2026-04-20T14:36:29.000,"{'latitude': '40.668340916707', 'longitude': '-73.960520879964', 'human_address': '{""address"": """", ""city"": """", ""state"": """", ""zip"": """"}'}",9,35,213,3029714,Crown Heights (South),995198,182777
Stoppage,3072255,PC8703181,1,3016070062,3,01607,0062,993,Lafayette Avenue,11221,40.692070037501,-73.932307628111,Brooklyn,2026-04-20T10:31:00.000,Stoppage done,2026-04-20T15:24:03.000,"{'latitude': '40.692070037501', 'longitude': '-73.932307628111', 'human_address': '{""address"": """", ""city"": """", ""state"": """", ""zip"": """"}'}",3,36,289,3043480,Bedford-Stuyvesant (East),,
Treatments,3072299,PC8344685,13,3032660045,3,03266,0045,159,HIMROD STREET,11221,40.697599910861,-73.922316064298,Brooklyn,2026-04-20T10:32:01.000,Monitoring visit,2026-04-21T10:09:24.000,"{'latitude': '40.697599910861', 'longitude': '-73.922316064298', 'human_address': '{""address"": """", ""city"": """", ""state"": """", ""zip"": """"}'}",4,37,421,3393892,Bushwick (West),,
Treatments,3072271,PC8640393,5,2030820060,2,03082,0060,2133,BELMONT AVENUE,10457,40.849733639023,-73.889078474859,Bronx,2026-04-20T10:34:41.000,Bait applied,2026-04-21T10:09:18.000,"{'latitude': '40.849733639023', 'longitude': '-73.889078474859', 'human_address': '{""address"": """", ""city"": """", ""state"": """", ""zip"": """"}'}",6,15,373,2012399,Tremont,,
Treatments,3072286,PC8526752,6,4097850005,4,09785,0005,84-59,161 STREET,11432,40.713015927953,-73.803903472685,Queens,2026-04-20T10:35:00.000,Bait applied,2026-04-23T13:35:35.000,"{'latitude': '40.713015927953', 'longitude': '-73.803903472685', 'human_address': '{""address"": """", ""city"": """", ""state"": """", ""zip"": """"}'}",8,24,450,4209375,Jamaica Hills-Briarwood,1038613,199111
Initial,14284351,PC8703790,1,3011710052,3,01171,0052,340,STERLING PLACE,11238,40.67533936305,-73.966865338598,Brooklyn,2026-04-20T10:35:00.000,Rat Activity,2026-04-21T09:11:21.000,"{'latitude': '40.67533936305', 'longitude': '-73.966865338598', 'human_address': '{""address"": """", ""city"": """", ""state"": """", ""zip"": """"}'}",8,35,207,3029340,Prospect Heights,,
Compliance,14284016,PC8672771,2,4091940048,4,09194,0048,84-05,108 STREET,11418,40.700665656602,-73.842028214053,Queens,2026-04-20T10:35:01.000,Failed for Other R,2026-04-21T17:17:53.000,"{'latitude': '40.700665656602', 'longitude': '-73.842028214053', 'human_address': '{""address"": """", ""city"": """", ""state"": """", ""zip"": """"}'}",9,29,128,4191856,Richmond Hill,1028052,194590
Treatments,3072341,PC8617425,11,3012200019,3,01220,0019,715,ST MARKS AVENUE,11216,40.675146115322,-73.948897565582,Brooklyn,2026-04-20T10:35:23.000,Bait applied,2026-04-21T09:59:27.000,"{'latitude': '40.675146115322', 'longitude': '-73.948897565582', 'human_address': '{""address"": """", ""city"": """", ""state"": """", ""zip"": """"}'}",8,36,315,3379016,Crown Heights (North),,
Compliance,14284528,PC8659426,2,2027280047,2,02728,0047,1121,SOUTHERN BOULEVARD,10459,40.827051076163,-73.89191679795,Bronx,2026-04-20T10:35:39.000,Failed for Rat Act,2026-04-22T12:27:06.000,"{'latitude': '40.827051076163', 'longitude': '-73.89191679795', 'human_address': '{""address"": """", ""city"": """", ""state"": """", ""zip"": """"}'}",3,17,125,2005817,Crotona Park East,,
Compliance,14284546,PC8690797,2,1017510066,1,01751,0066,14,EAST  127 STREET,10035,40.807456229457,-73.940740151038,Manhattan,2026-04-20T10:35:40.000,Failed for Rat Act,2026-04-22T09:24:05.000,"{'latitude': '40.807456229457', 'longitude': '-73.940740151038', 'human_address': '{""address"": """", ""city"": """", ""state"": """", ""zip"": """"}'}",11,9,206,1054125,East Harlem (North),1000655,233463
Initial,14284188,PC8703259,1,3020740046,3,02074,0046,192,CLERMONT AVENUE,11205,40.692094501943,-73.97065773556,Brooklyn,2026-04-20T10:36:00.000,Rat Activity,2026-04-21T08:27:12.000,"{'latitude': '40.692094501943', 'longitude': '-73.97065773556', 'human_address': '{""address"": """", ""city"": """", ""state"": """", ""zip"": """"}'}",2,35,183,3058380,Fort Greene,992387,191429
Stoppage,3072163,PC8702245,1,1021390167,1,02139,0167,718,WEST 171 STREET,10032,40.844189497966,-73.9415132923,Manhattan,2026-04-20T10:37:00.000,Stoppage done,2026-04-20T15:28:00.000,"{'latitude': '40.844189497966', 'longitude': '-73.9415132923', 'human_address': '{""address"": """", ""city"": """", ""state"": """", ""zip"": """"}'}",12,10,255,1063412,Washington Heights (South),,
Treatments,3072378,PC8652277,3,1016660105,1,01666,0105,205,EAST 116 STREET,10029,40.797678727022,-73.939380026927,Manhattan,2026-04-20T10:37:00.000,Bait applied,2026-04-21T09:00:32.000,"{'latitude': '40.797678727022', 'longitude': '-73.939380026927', 'human_address': '{""address"": """", ""city"": """", ""state"": """", ""zip"": """"}'}",11,8,188,1000000,East Harlem (North),,
Treatments,3072377,PC8652094,3,1016660005,1,01666,0005,207,EAST 116 STREET,10029,40.797659488988,-73.93933309149,Manhattan,2026-04-20T10:37:00.000,Bait applied,2026-04-21T09:00:03.000,"{'latitude': '40.797659488988', 'longitude': '-73.93933309149', 'human_address': '{""address"": """", ""city"": """", ""state"": """", ""zip"": """"}'}",11,8,188,1000000,East Harlem (North),,
Treatments,3072390,PC8665597,5,1003940001,1,00394,0001,175,AVENUE B,10009,40.727550594682,-73.979391356689,Manhattan,2026-04-20T10:37:38.000,Bait applied,2026-04-22T13:44:59.000,"{'latitude': '40.727550594682', 'longitude': '-73.979391356689', 'human_address': '{""address"": """", ""city"": """", ""state"": """", ""zip"": """"}'}",3,2,28,1004903,East Village,,
Treatments,3072316,PC8611707,6,2033270060,2,03327,0060,3405,KOSSUTH AVENUE,10467,40.880308079411,-73.881707917657,Bronx,2026-04-20T10:40:00.000,Monitoring visit,2026-04-21T10:36:01.000,"{'latitude': '40.880308079411', 'longitude': '-73.881707917657', 'human_address': '{""address"": """", ""city"": """", ""state"": """", ""zip"": """"}'}",7,11,421,2017764,Norwood,,
Initial,14284683,PC8703937,1,,1,00245,0028,000,CHERRY STREET,,0.00000000000000000000,0.00000000000000000000,Manhattan,2026-04-20T10:40:35.000,Rat Activity,2026-04-22T14:44:25.000,"{'latitude': '0.0', 'longitude': '0.0', 'human_address': '{""address"": """", ""city"": """", ""state"": """", ""zip"": """"}'}",,,,,,,
Treatments,3072354,PC8567742,13,2024210014,2,02421,0014,280,EAST 162 STREET,10451,40.826303637967,-73.917316135292,Bronx,2026-04-20T10:40:41.000,Bait applied,2026-04-21T07:43:10.000,"{'latitude': '40.826303637967', 'longitude': '-73.917316135292', 'human_address': '{""address"": """", ""city"": """", ""state"": """", ""zip"": """"}'}",4,16,173,2001928,Concourse-Concourse Village,,
Stoppage,3072257,PC8703184,1,3016050007,3,01605,0007,374,Kosciuszko Street,11221,40.692016205575,-73.939097830791,Brooklyn,2026-04-20T10:42:00.000,Stoppage done,2026-04-20T15:23:48.000,"{'latitude': '40.692016205575', 'longitude': '-73.939097830791', 'human_address': '{""address"": """", ""city"": """", ""state"": """", ""zip"": """"}'}",3,36,281,3425607,Bedford-Stuyvesant (East),,
Initial,14284318,PC8704474,1,3051620020,3,05162,0020,816,OCEAN AVENUE,11226,40.642635737906,-73.959610087305,Brooklyn,2026-04-20T10:43:28.000,Rat Activity,2026-04-21T13:19:09.000,"{'latitude': '40.642635737906', 'longitude': '-73.959610087305', 'human_address': '{""address"": """", ""city"": """", ""state"": """", ""zip"": """"}'}",14,40,514,3118799,Flatbush,995459,173411
Treatments,3072220,PC8656628,4,3015080019,3,01508,0019,378,BAINBRIDGE STREET,11233,40.68203378845,-73.921573510245,Brooklyn,2026-04-20T10:43:43.000,Bait applied,2026-04-20T13:49:21.000,"{'latitude': '40.68203378845', 'longitude': '-73.921573510245', 'human_address': '{""address"": """", ""city"": """", ""state"": """", ""zip"": """"}'}",3,41,379,3040772,Bedford-Stuyvesant (East),,
Initial,14284430,PC8705925,1,,3,06703,0030,000,E 19 Street,,0.00000000000000000000,0.00000000000000000000,Brooklyn,2026-04-20T10:44:38.000,Rat Activity,2026-04-21T18:42:05.000,"{'latitude': '0.0', 'longitude': '0.0', 'human_address': '{""address"": """", ""city"": """", ""state"": """", ""zip"": """"}'}",,,,,,,
Treatments,3072331,PC8599078,12,1018430037,1,01843,0037,4,WEST 108 STREET,10025,40.799455156063,-73.959362871905,Manhattan,2026-04-20T10:45:34.000,Bait applied,2026-04-23T13:57:31.000,"{'latitude': '40.799455156063', 'longitude': '-73.959362871905', 'human_address': '{""address"": """", ""city"": """", ""state"": """", ""zip"": """"}'}",7,7,193,1055695,Upper West Side-Manhattan Valley,,
Treatments,3072178,PC8574669,8,1018210059,1,01821,0059,140,WEST  112 STREET,10026,40.800199440268,-73.953344975441,Manhattan,2026-04-20T10:46:21.000,Bait applied,2026-04-21T14:12:21.000,"{'latitude': '40.800199440268', 'longitude': '-73.953344975441', 'human_address': '{""address"": """", ""city"": """", ""state"": """", ""zip"": """"}'}",10,9,216,1054968,Harlem (South),997167,230817
Stoppage,3072159,PC8703864,1,1021420168,1,02142,0168,344,FT WASHINGTON AVENUE,10033,40.846722089677,-73.939964074411,Manhattan,2026-04-20T10:47:00.000,Stoppage done,2026-04-20T15:28:28.000,"{'latitude': '40.846722089677', 'longitude': '-73.939964074411', 'human_address': '{""address"": """", ""city"": """", ""state"": """", ""zip"": """"}'}",12,10,263,1063505,Washington Heights (South),,
Compliance,14284191,PC8608668,4,3019290047,3,01929,0047,221,LAFAYETTE AVENUE,11238,40.687932782777,-73.968247291086,Brooklyn,2026-04-20T10:47:00.000,Rat Activity,2026-04-21T08:33:33.000,"{'latitude': '40.687932782777', 'longitude': '-73.968247291086', 'human_address': '{""address"": """", ""city"": """", ""state"": """", ""zip"": """"}'}",2,35,197,3055306,Clinton Hill,993056,189913
Treatments,3072300,PC8624141,5,3032460050,3,03246,0050,167,STOCKHOLM STREET,11237,40.69963127773,-73.922663512869,Brooklyn,2026-04-20T10:47:01.000,Bait applied,2026-04-21T10:10:00.000,"{'latitude': '40.69963127773', 'longitude': '-73.922663512869', 'human_address': '{""address"": """", ""city"": """", ""state"": """", ""zip"": """"}'}",4,37,429,3073849,Bushwick (West),1005694,194183
Initial,14284458,PC8699689,1,2029310029,2,02931,0029,1356,FULTON AVENUE,10456,40.833499771341,-73.902574000124,Bronx,2026-04-20T10:48:58.000,Failed for Rat Act,2026-04-23T10:29:33.000,"{'latitude': '40.833499771341', 'longitude': '-73.902574000124', 'human_address': '{""address"": """", ""city"": """", ""state"": """", ""zip"": """"}'}",3,16,149,2000000,Morrisania,,
Treatments,3072205,PC8503336,9,3010537501,3,01053,7501,279,PROSPECT AVENUE,11215,40.663379166802,-73.98926948862,Brooklyn,2026-04-20T10:49:00.000,Bait applied,2026-04-20T14:03:49.000,"{'latitude': '40.663379166802', 'longitude': '-73.98926948862', 'human_address': '{""address"": """", ""city"": """", ""state"": """", ""zip"": """"}'}",7,39,14102,3325161,Windsor Terrace-South Slope,987227,180966
Compliance,14284008,PC8684416,2,1017960033,1,01796,0033,348,EAST 120 STREET,10035,40.799059422828,-73.934538889275,Manhattan,2026-04-20T10:49:35.000,Failed for Rat Act,2026-04-21T12:07:50.000,"{'latitude': '40.799059422828', 'longitude': '-73.934538889275', 'human_address': '{""address"": """", ""city"": """", ""state"": """", ""zip"": """"}'}",11,8,194,1054758,East Harlem (North),,
Stoppage,3072166,PC8673484,1,3033590006,3,03359,0006,473,EVERGREEN AVENUE,11221,40.691297221936,-73.917404868219,Brooklyn,2026-04-20T10:50:00.000,Stoppage done,2026-04-20T15:27:53.000,"{'latitude': '40.691297221936', 'longitude': '-73.917404868219', 'human_address': '{""address"": """", ""city"": """", ""state"": """", ""zip"": """"}'}",4,37,415,3076748,Bushwick (East),,
Compliance,14284155,PC8679985,2,3006370003,3,00637,0003,647,4 AVENUE,11232,40.663519535996,-73.994823968135,Brooklyn,2026-04-20T10:50:00.000,Failed for Rat Act,2026-04-21T09:16:12.000,"{'latitude': '40.663519535996', 'longitude': '-73.994823968135', 'human_address': '{""address"": """", ""city"": """", ""state"": """", ""zip"": """"}'}",7,38,143,3009172,Sunset Park (West),985686,181017
Treatments,3072374,PC8596980,7,1018210064,1,01821,0064,1835,ADAM CLAYTON POWELL JR BOULEVARD,,0.00000000000000000000,0.00000000000000000000,Manhattan,2026-04-20T10:52:00.000,Bait applied,2026-04-21T09:01:20.000,"{'latitude': '0.0', 'longitude': '0.0', 'human_address': '{""address"": """", ""city"": """", ""state"": """", ""zip"": """"}'}",10,9,216,1054970,Harlem (South),996827,230886
Treatments,3072393,PC8628639,7,1004350008,1,00435,0008,130,1 AVENUE,10009,40.72742800177,-73.985395022115,Manhattan,2026-04-20T10:52:38.000,Bait applied,2026-04-22T13:45:32.000,"{'latitude': '40.72742800177', 'longitude': '-73.985395022115', 'human_address': '{""address"": """", ""city"": """", ""state"": """", ""zip"": """"}'}",3,2,32,1005819,East Village,,
Compliance,14284110,PC8617696,7,1003930021,1,00393,0021,628,EAST 11 STREET,10009,40.726984982863,-73.978359665703,Manhattan,2026-04-20T10:52:49.000,Rat Activity,2026-04-21T09:57:25.000,"{'latitude': '40.726984982863', 'longitude': '-73.978359665703', 'human_address': '{""address"": """", ""city"": """", ""state"": """", ""zip"": """"}'}",3,2,28,1004884,East Village,,
Stoppage,3072262,PC8700515,1,3016540036,3,01654,0036,562,JEFFERSON AVENUE,11221,40.684880871167,-73.936039579496,Brooklyn,2026-04-20T10:54:00.000,Stoppage done,2026-04-20T15:22:59.000,"{'latitude': '40.684880871167', 'longitude': '-73.936039579496', 'human_address': '{""address"": """", ""city"": """", ""state"": """", ""zip"": """"}'}",3,36,275,3045689,Bedford-Stuyvesant (East),,
Compliance,14284619,PC8684355,2,1019700062,1,01970,0062,1475,AMSTERDAM AVENUE,10027,40.817447397229,-73.953278644214,Manhattan,2026-04-20T10:54:10.000,Failed for Rat Act,2026-04-21T14:51:54.000,"{'latitude': '40.817447397229', 'longitude': '-73.953278644214', 'human_address': '{""address"": """", ""city"": """", ""state"": """", ""zip"": """"}'}",9,7,21303,1059633,Manhattanville-West Harlem,,
Treatments,3072288,PC8512591,8,4098540011,4,09854,0011,84-29,164 STREET,11432,40.713484492707,-73.801845984504,Queens,2026-04-20T10:55:23.000,Bait applied,2026-04-23T13:36:01.000,"{'latitude': '40.713484492707', 'longitude': '-73.801845984504', 'human_address': '{""address"": """", ""city"": """", ""state"": """", ""zip"": """"}'}",8,24,448,4210802,Jamaica Hills-Briarwood,1039183,199283
Treatments,3072304,PC8590401,8,4034050013,4,03405,0013,501,ONDERDONK AVENUE,11385,40.70627896207,-73.911092364867,Queens,2026-04-20T10:55:28.000,Bait applied,2026-04-22T11:28:17.000,"{'latitude': '40.70627896207', 'longitude': '-73.911092364867', 'human_address': '{""address"": """", ""city"": """", ""state"": """", ""zip"": """"}'}",5,34,591,4434225,Ridgewood,,
Compliance,14284530,PC8659211,2,2027280016,2,02728,0016,1166,SIMPSON STREET,10459,40.827699761617,-73.892905814473,Bronx,2026-04-20T10:55:39.000,Failed for Rat Act,2026-04-22T12:28:52.000,"{'latitude': '40.827699761617', 'longitude': '-73.892905814473', 'human_address': '{""address"": """", ""city"": """", ""state"": """", ""zip"": """"}'}",3,17,125,2005809,Crotona Park East,,
Treatments,3072244,PC8631234,3,,3,01185,0030,000,Eastern Parkway,,0.00000000000000000000,0.00000000000000000000,Brooklyn,2026-04-20T10:55:56.000,Bait applied,2026-04-20T14:34:55.000,"{'latitude': '0.0', 'longitude': '0.0', 'human_address': '{""address"": """", ""city"": """", ""state"": """", ""zip"": """"}'}",,,,,,,
Treatments,3072184,PC8622558,6,2039387501,2,03938,7501,1935,MCGRAW AVENUE,10462,40.834748519827,-73.859972751952,Bronx,2026-04-20T10:55:58.000,Bait applied,2026-04-20T13:25:46.000,"{'latitude': '40.834748519827', 'longitude': '-73.859972751952', 'human_address': '{""address"": """", ""city"": """", ""state"": """", ""zip"": """"}'}",9,18,212,2096669,Parkchester,1022992,243419
Treatments,3072221,PC8656547,4,3015080008,3,01508,0008,358,BAINBRIDGE STREET,11233,40.681968299783,-73.922139648154,Brooklyn,2026-04-20T10:57:13.000,Bait applied,2026-04-20T13:48:57.000,"{'latitude': '40.681968299783', 'longitude': '-73.922139648154', 'human_address': '{""address"": """", ""city"": """", ""state"": """", ""zip"": """"}'}",3,41,379,3040761,Bedford-Stuyvesant (East),,
Compliance,14283966,PC8684311,2,1017950031,1,01795,0031,2323,1 AVENUE,10035,40.797837741445,-73.93407056374,Manhattan,2026-04-20T10:57:35.000,Failed for Other R,2026-04-21T12:09:17.000,"{'latitude': '40.797837741445', 'longitude': '-73.93407056374', 'human_address': '{""address"": """", ""city"": """", ""state"": """", ""zip"": """"}'}",11,8,188,1054721,East Harlem (North),,
Compliance,14284431,PC8613079,6,3067120056,3,06712,0056,1400,OCEAN AVENUE,11230,40.627716812567,-73.956783953039,Brooklyn,2026-04-20T10:57:38.000,Failed for Rat Act,2026-04-21T13:33:35.000,"{'latitude': '40.627716812567', 'longitude': '-73.956783953039', 'human_address': '{""address"": """", ""city"": """", ""state"": """", ""zip"": """"}'}",14,44,762,3179801,Midwood,996246,167976
Treatments,3072279,PC8681541,3,2030700001,2,03070,0001,601,EAST 180 STREET,10457,40.849387250727,-73.891374321016,Bronx,2026-04-20T10:57:50.000,Bait applied,2026-04-21T10:02:43.000,"{'latitude': '40.849387250727', 'longitude': '-73.891374321016', 'human_address': '{""address"": """", ""city"": """", ""state"": """", ""zip"": """"}'}",6,15,373,2012024,Tremont,,
Treatments,3072176,PC8675236,4,1018210049,1,01821,0049,120,WEST  112 STREET,10026,40.80008954293,-73.953081383839,Manhattan,2026-04-20T10:58:19.000,Bait applied,2026-04-21T14:10:55.000,"{'latitude': '40.80008954293', 'longitude': '-73.953081383839', 'human_address': '{""address"": """", ""city"": """", ""state"": """", ""zip"": """"}'}",10,9,216,1054962,Harlem (South),997240,230777
Compliance,14284043,PC8641564,3,1019050026,1,01905,0026,103,WEST  120 STREET,10027,40.804800228012,-73.948313611871,Manhattan,2026-04-20T10:58:40.000,Failed for Rat Act,2026-04-21T09:29:23.000,"{'latitude': '40.804800228012', 'longitude': '-73.948313611871', 'human_address': '{""address"": """", ""city"": """", ""state"": """", ""zip"": """"}'}",10,9,220,1057631,Harlem (South),998559,232494
Compliance,14283848,PC8683126,2,3021130041,3,02113,0041,106,SOUTH ELLIOTT PLACE,11217,40.686158673945,-73.975409074595,Brooklyn,2026-04-20T11:00:00.000,Rat Activity,2026-04-21T09:58:06.000,"{'latitude': '40.686158673945', 'longitude': '-73.975409074595', 'human_address': '{""address"": """", ""city"": """", ""state"": """", ""zip"": """"}'}",2,35,35,3059254,Fort Greene,991070,189266
Treatments,3072332,PC8619867,12,1012180001,1,1218,0001,575,AMSTERDAM AVENUE,10024,40.788826279572,-73.974164837138,Manhattan,2026-04-20T11:00:34.000,Bait applied,2026-04-23T13:58:43.000,"{'latitude': '40.788826279572', 'longitude': '-73.974164837138', 'human_address': '{""address"": """", ""city"": """", ""state"": """", ""zip"": """"}'}",7,6,173,1032228,Upper West Side (Central),,
Treatments,3072350,PC8387285,14,2024730033,2,02473,0033,751,WALTON AVENUE,10451,40.82422624837,-73.925918188207,Bronx,2026-04-20T11:00:41.000,Bait applied,2026-04-21T07:44:27.000,"{'latitude': '40.82422624837', 'longitude': '-73.925918188207', 'human_address': '{""address"": """", ""city"": """", ""state"": """", ""zip"": """"}'}",4,16,6301,2002896,Concourse-Concourse Village,1004753,239576
Initial,14284028,PC8704377,1,5002100053,5,00210,0053,26,ELIZABETH STREET,10310,40.633513377643,-74.120576688524,Staten Island,2026-04-20T11:00:56.000,Rat Activity,2026-04-21T12:23:52.000,"{'latitude': '40.633513377643', 'longitude': '-74.120576688524', 'human_address': '{""address"": """", ""city"": """", ""state"": """", ""zip"": """"}'}",1,49,13302,5005610,Port Richmond,950783,170108
Treatments,3072204,PC8612762,9,3010530020,3,01053,0079,263,PROSPECT AVENUE,11215,40.663637214007,-73.989683962772,Brooklyn,2026-04-20T11:01:00.000,Bait applied,2026-04-20T14:05:07.000,"{'latitude': '40.663637214007', 'longitude': '-73.989683962772', 'human_address': '{""address"": """", ""city"": """", ""state"": """", ""zip"": """"}'}",7,39,14102,3000000,Windsor Terrace-South Slope,,
Treatments,3072320,PC8653344,5,2033180052,2,03318,0052,2775,MORRIS AVENUE,10468,40.869371711855,-73.894389570229,Bronx,2026-04-20T11:03:00.000,Bait applied,2026-04-21T10:35:15.000,"{'latitude': '40.869371711855', 'longitude': '-73.894389570229', 'human_address': '{""address"": """", ""city"": """", ""state"": """", ""zip"": """"}'}",7,14,40303,2017513,Bedford Park,1013459,256033
Initial,14284462,PC8699516,1,2029310139,2,02931,0139,572,EAST 170 STREET,10456,40.834569485997,-73.901712347081,Bronx,2026-04-20T11:03:25.000,Rat Activity,2026-04-23T10:32:05.000,"{'latitude': '40.834569485997', 'longitude': '-73.901712347081', 'human_address': '{""address"": """", ""city"": """", ""state"": """", ""zip"": """"}'}",3,16,149,2103616,Morrisania,,
Compliance,14283835,PC8681033,2,4014610001,4,01461,0001,35-05,87 STREET,11372,40.752112963713,-73.879994639588,Queens,2026-04-20T11:04:00.000,Failed for Rat Act,2026-04-22T14:26:26.000,"{'latitude': '40.752112963713', 'longitude': '-73.879994639588', 'human_address': '{""address"": """", ""city"": """", ""state"": """", ""zip"": """"}'}",3,25,279,4035868,Jackson Heights,1017499,213317
Initial,14284053,PC8704302,1,3011600045,3,01160,0045,742,WASHINGTON AVENUE,11238,40.675793938421,-73.963389751862,Brooklyn,2026-04-20T11:04:11.000,Rat Activity,2026-04-21T09:05:09.000,"{'latitude': '40.675793938421', 'longitude': '-73.963389751862', 'human_address': '{""address"": """", ""city"": """", ""state"": """", ""zip"": """"}'}",8,35,205,3028882,Prospect Heights,,
Compliance,14284006,PC8684297,2,1017950032,1,01795,0032,352,EAST 119 STREET,10035,40.798145417721,-73.934532567944,Manhattan,2026-04-20T11:04:35.000,Failed for Other R,2026-04-21T12:10:56.000,"{'latitude': '40.798145417721', 'longitude': '-73.934532567944', 'human_address': '{""address"": """", ""city"": """", ""state"": """", ""zip"": """"}'}",11,8,188,1054722,East Harlem (North),,
Treatments,3072236,PC8482137,12,3011850039,3,01185,0039,320,EASTERN PARKWAY,11225,40.670719868756,-73.95834572977,Brooklyn,2026-04-20T11:05:00.000,Bait applied,2026-04-20T14:24:35.000,"{'latitude': '40.670719868756', 'longitude': '-73.95834572977', 'human_address': '{""address"": """", ""city"": """", ""state"": """", ""zip"": """"}'}",9,35,213,3029674,Crown Heights (South),,
Compliance,14284614,PC8686676,2,3051470065,3,05147,0065,293,EAST   16 STREET,11226,40.643282182822,-73.963865288539,Brooklyn,2026-04-20T11:06:28.000,Failed for Rat Act,2026-04-22T14:04:45.000,"{'latitude': '40.643282182822', 'longitude': '-73.963865288539', 'human_address': '{""address"": """", ""city"": """", ""state"": """", ""zip"": """"}'}",14,40,514,3118477,Flatbush,994278,173646
Treatments,3072370,PC8641306,7,1021220015,1,02122,0015,535,WEST 162 STREET,10032,40.836495710036,-73.940945473923,Manhattan,2026-04-20T11:06:35.000,Bait applied,2026-04-23T08:28:16.000,"{'latitude': '40.836495710036', 'longitude': '-73.940945473923', 'human_address': '{""address"": """", ""city"": """", ""state"": """", ""zip"": """"}'}",12,10,245,1062919,Washington Heights (South),,
Stoppage,3072258,PC8703182,1,3018290063,3,01829,0063,303,JEFFERSON AVENUE,11216,40.683798860191,-73.945566564284,Brooklyn,2026-04-20T11:07:00.000,Stoppage done,2026-04-20T15:23:39.000,"{'latitude': '40.683798860191', 'longitude': '-73.945566564284', 'human_address': '{""address"": """", ""city"": """", ""state"": """", ""zip"": """"}'}",3,36,267,3052031,Bedford-Stuyvesant (West),,
Treatments,3072387,PC8653770,7,1004000042,1,00400,0042,231,EAST 4 STREET,10009,40.723442255411,-73.982895740324,Manhattan,2026-04-20T11:07:38.000,Bait applied,2026-04-22T13:44:27.000,"{'latitude': '40.723442255411', 'longitude': '-73.982895740324', 'human_address': '{""address"": """", ""city"": """", ""state"": """", ""zip"": """"}'}",3,2,32,1077634,East Village,,
Initial,14284255,PC8697530,1,2030220010,2,03022,0010,2388,TIEBOUT AVENUE,10458,40.858814349186,-73.896163341328,Bronx,2026-04-20T11:08:00.000,Rat Activity,2026-04-21T10:48:16.000,"{'latitude': '40.858814349186', 'longitude': '-73.896163341328', 'human_address': '{""address"": """", ""city"": """", ""state"": """", ""zip"": """"}'}",5,15,39902,2010980,Fordham Heights,,
Compliance,14284432,PC8598306,6,3067120068,3,06712,0068,1430,OCEAN AVENUE,11230,40.627181541757,-73.95668343071,Brooklyn,2026-04-20T11:08:38.000,Failed for Rat Act,2026-04-21T13:25:56.000,"{'latitude': '40.627181541757', 'longitude': '-73.95668343071', 'human_address': '{""address"": """", ""city"": """", ""state"": """", ""zip"": """"}'}",14,44,762,3179804,Midwood,996274,167781
Compliance,14284616,PC8642689,2,1020110036,1,02011,0036,100,WEST  143 STREET,10030,40.819193695608,-73.937333490981,Manhattan,2026-04-20T11:08:44.000,Failed for Rat Act,2026-04-22T10:06:30.000,"{'latitude': '40.819193695608', 'longitude': '-73.937333490981', 'human_address': '{""address"": """", ""city"": """", ""state"": """", ""zip"": """"}'}",10,9,232,1060119,Harlem (North),1001595,237740
Compliance,14283895,PC8588067,2,2031680011,2,03168,0011,2600,CRESTON AVENUE,10468,40.865152208535,-73.896467951391,Bronx,2026-04-20T11:10:00.000,Failed for Rat Act,2026-04-22T11:18:43.000,"{'latitude': '40.865152208535', 'longitude': '-73.896467951391', 'human_address': '{""address"": """", ""city"": """", ""state"": """", ""zip"": """"}'}",7,14,401,2013828,University Heights (North)-Fordham,1012886,254495
Treatments,3072342,PC8663547,4,3015780001,3,01578,0001,15,MARCUS GARVEY BLVD,11206,40.699384333451,-73.941316239066,Brooklyn,2026-04-20T11:10:30.000,Bait applied,2026-04-21T10:01:13.000,"{'latitude': '40.699384333451', 'longitude': '-73.941316239066', 'human_address': '{""address"": """", ""city"": """", ""state"": """", ""zip"": """"}'}",3,36,28501,3337949,Bedford-Stuyvesant (East),,
Treatments,3072177,PC8658341,7,1018210046,1,01821,0046,19,ST NICHOLAS AVENUE,10026,40.799345451792,-73.952438998788,Manhattan,2026-04-20T11:10:37.000,Bait applied,2026-04-21T14:11:41.000,"{'latitude': '40.799345451792', 'longitude': '-73.952438998788', 'human_address': '{""address"": """", ""city"": """", ""state"": """", ""zip"": """"}'}",10,9,216,1054960,Harlem (South),997418,230506
Initial,14284122,PC8704328,1,3011620008,3,01162,0008,637,GRAND AVENUE,11238,40.67606004849,-73.96297501185,Brooklyn,2026-04-20T11:11:21.000,Failed for Other R,2026-04-21T09:33:59.000,"{'latitude': '40.67606004849', 'longitude': '-73.96297501185', 'human_address': '{""address"": """", ""city"": """", ""state"": """", ""zip"": """"}'}",8,35,305,3028917,Crown Heights (North),,
Initial,14283887,PC8695120,1,3032290039,3,03229,0039,15,DODWORTH STREET,11221,40.694783275038,-73.930069033131,Brooklyn,2026-04-20T11:11:25.000,Rat Activity,2026-04-24T11:02:48.000,"{'latitude': '40.694783275038', 'longitude': '-73.930069033131', 'human_address': '{""address"": """", ""city"": """", ""state"": """", ""zip"": """"}'}",4,34,393,3073437,Bushwick (West),,
Treatments,3072372,PC8535983,21,1016330051,1,01633,0051,154,EAST 106 STREET,10029,40.791992030396,-73.945716118361,Manhattan,2026-04-20T11:12:00.000,Bait applied,2026-04-21T09:03:00.000,"{'latitude': '40.791992030396', 'longitude': '-73.945716118361', 'human_address': '{""address"": """", ""city"": """", ""state"": """", ""zip"": """"}'}",11,8,172,1052009,East Harlem (South),,
Treatments,3072268,PC8637532,4,2030690057,2,03069,0057,2058,ARTHUR AVENUE,10457,40.848531565405,-73.892087789301,Bronx,2026-04-20T11:12:05.000,Bait applied,2026-04-21T10:10:31.000,"{'latitude': '40.848531565405', 'longitude': '-73.892087789301', 'human_address': '{""address"": """", ""city"": """", ""state"": """", ""zip"": """"}'}",6,15,373,2012000,Tremont,,
Treatments,3072305,PC8590516,8,4034060053,4,03406,0053,18-73,MENAHAN STREET,11385,40.70599750895,-73.909195571933,Queens,2026-04-20T11:12:28.000,Bait applied,2026-04-22T11:28:34.000,"{'latitude': '40.70599750895', 'longitude': '-73.909195571933', 'human_address': '{""address"": """", ""city"": """", ""state"": """", ""zip"": """"}'}",5,34,591,4081410,Ridgewood,,
Initial,14284402,PC8702937,1,1020720001,1,02072,0001,3440,BROADWAY,10031,40.823224733418,-73.952432705059,Manhattan,2026-04-20T11:12:33.000,Rat Activity,2026-04-21T12:21:31.000,"{'latitude': '40.823224733418', 'longitude': '-73.952432705059', 'human_address': '{""address"": """", ""city"": """", ""state"": """", ""zip"": """"}'}",9,7,225,1061758,Hamilton Heights-Sugar Hill,,
Stoppage,3072162,PC8702246,1,1021680046,1,02168,0046,1571,ST NICHOLAS AVENUE,10040,40.854020372714,-73.930302214365,Manhattan,2026-04-20T11:14:00.000,Stoppage done,2026-04-20T15:28:22.000,"{'latitude': '40.854020372714', 'longitude': '-73.930302214365', 'human_address': '{""address"": """", ""city"": """", ""state"": """", ""zip"": """"}'}",12,10,279,1064011,Washington Heights (North),,
Compliance,14284018,PC8680719,2,4092350005,4,09235,0005,119-08,84 AVENUE,11415,40.704412683336,-73.832641867758,Queens,2026-04-20T11:14:00.000,Rat Activity,2026-04-21T17:16:43.000,"{'latitude': '40.704412683336', 'longitude': '-73.832641867758', 'human_address': '{""address"": """", ""city"": """", ""state"": """", ""zip"": """"}'}",9,29,140,4192908,Kew Gardens,1030652,195960
Treatments,3072186,PC8656014,4,2039387501,2,03938,7501,1410,PARK CHESTER ROAD,10462,40.835670583101,-73.859833477639,Bronx,2026-04-20T11:15:00.000,Bait applied,2026-04-20T13:28:24.000,"{'latitude': '40.835670583101', 'longitude': '-73.859833477639', 'human_address': '{""address"": """", ""city"": """", ""state"": """", ""zip"": """"}'}",9,18,212,2096666,Parkchester,1023036,243768
Compliance,14283958,PC8670885,2,2027620086,2,02762,0086,836,FAILE STREET,10474,40.818079674253,-73.887415317854,Bronx,2026-04-20T11:15:00.000,Failed for Rat Act,2026-04-22T12:08:44.000,"{'latitude': '40.818079674253', 'longitude': '-73.887415317854', 'human_address': '{""address"": """", ""city"": """", ""state"": """", ""zip"": """"}'}",2,17,11502,2006453,Hunts Point,,
Initial,14284029,PC8705845,1,5002100055,5,00210,0055,28,ELIZABETH STREET,10310,40.633477699296,-74.120573020958,Staten Island,2026-04-20T11:15:32.000,Failed for Other R,2026-04-21T12:24:44.000,"{'latitude': '40.633477699296', 'longitude': '-74.120573020958', 'human_address': '{""address"": """", ""city"": """", ""state"": """", ""zip"": """"}'}",1,49,13302,5005611,Port Richmond,,
Treatments,3072336,PC8698110,1,1018800001,1,01880,0001,2800,Broadway,10025,40.803014940404,-73.967498666419,Manhattan,2026-04-20T11:15:34.000,Bait applied,2026-04-23T13:59:29.000,"{'latitude': '40.803014940404', 'longitude': '-73.967498666419', 'human_address': '{""address"": """", ""city"": """", ""state"": """", ""zip"": """"}'}",7,7,195,1056673,Upper West Side-Manhattan Valley,,
Initial,14284123,PC8704131,1,3011620010,3,01162,0010,635,GRAND AVENUE,11238,40.676112193404,-73.962956956977,Brooklyn,2026-04-20T11:15:53.000,Failed for Other R,2026-04-21T09:33:30.000,"{'latitude': '40.676112193404', 'longitude': '-73.962956956977', 'human_address': '{""address"": """", ""city"": """", ""state"": """", ""zip"": """"}'}",8,35,305,3028918,Crown Heights (North),,
Treatments,3072326,PC8657243,5,2033180023,2,03318,0023,2800,PARKVIEW TERRACE,10468,40.870335412066,-73.894717065676,Bronx,2026-04-20T11:16:00.000,Bait applied,2026-04-21T10:34:00.000,"{'latitude': '40.870335412066', 'longitude': '-73.894717065676', 'human_address': '{""address"": """", ""city"": """", ""state"": """", ""zip"": """"}'}",7,14,40303,2017501,Bedford Park,1013368,256384
Initial,14284055,PC8704227,1,3011600043,3,01160,0043,736,WASHINGTON AVENUE,11238,40.675931186419,-73.963418517451,Brooklyn,2026-04-20T11:16:45.000,Failed for Rat Act,2026-04-21T09:04:41.000,"{'latitude': '40.675931186419', 'longitude': '-73.963418517451', 'human_address': '{""address"": """", ""city"": """", ""state"": """", ""zip"": """"}'}",8,35,205,3028880,Prospect Heights,,
Compliance,14284620,PC8685483,2,1020020033,1,02002,0033,3341,BROADWAY,10031,40.820195576669,-73.955010946603,Manhattan,2026-04-20T11:17:10.000,Rat Activity,2026-04-21T14:56:25.000,"{'latitude': '40.820195576669', 'longitude': '-73.955010946603', 'human_address': '{""address"": """", ""city"": """", ""state"": """", ""zip"": """"}'}",9,7,22301,1059958,Manhattanville-West Harlem,,
Initial,14284124,PC8704276,1,3011620011,3,01162,0011,633,GRAND AVENUE,11238,40.67616159354,-73.962938903606,Brooklyn,2026-04-20T11:19:35.000,Rat Activity,2026-04-21T09:32:57.000,"{'latitude': '40.67616159354', 'longitude': '-73.962938903606', 'human_address': '{""address"": """", ""city"": """", ""state"": """", ""zip"": """"}'}",8,35,305,3028919,Crown Heights (North),,
Treatments,3072198,PC8503584,12,3006610004,3,00661,0004,793,4 ave,11232,40.659007236057,-73.999509824141,Brooklyn,2026-04-20T11:20:00.000,Bait applied,2026-04-20T14:10:46.000,"{'latitude': '40.659007236057', 'longitude': '-73.999509824141', 'human_address': '{""address"": """", ""city"": """", ""state"": """", ""zip"": """"}'}",7,38,101,3009756,Sunset Park (West),,
Treatments,3072359,PC8648177,4,2024790012,2,02479,0012,1170,GERARD AVENUE,10452,40.834532077584,-73.920796782358,Bronx,2026-04-20T11:20:00.000,Bait applied,2026-04-21T07:41:35.000,"{'latitude': '40.834532077584', 'longitude': '-73.920796782358', 'human_address': '{""address"": """", ""city"": """", ""state"": """", ""zip"": """"}'}",4,16,197,2002956,Concourse-Concourse Village,,
Treatments,3072290,PC8659148,3,4098490130,4,09849,0130,166-05,HIGHLAND AVENUE,11432,40.711181807226,-73.797239406279,Queens,2026-04-20T11:20:23.000,Bait applied,2026-04-23T13:36:40.000,"{'latitude': '40.711181807226', 'longitude': '-73.797239406279', 'human_address': '{""address"": """", ""city"": """", ""state"": """", ""zip"": """"}'}",8,24,454,4210682,Jamaica Hills-Briarwood,1040462,198447
Initial,14284056,PC8704052,1,3011600042,3,01160,0042,732,WASHINGTON AVENUE,11238,40.676024514547,-73.963436491851,Brooklyn,2026-04-20T11:20:39.000,Rat Activity,2026-04-21T09:04:03.000,"{'latitude': '40.676024514547', 'longitude': '-73.963436491851', 'human_address': '{""address"": """", ""city"": """", ""state"": """", ""zip"": """"}'}",8,35,205,3028879,Prospect Heights,,
Compliance,14284125,PC8684852,2,1004300001,1,00430,0001,40,1 AVENUE,10009,40.7243074694,-73.987668609718,Manhattan,2026-04-20T11:21:22.000,Rat Activity,2026-04-21T09:56:13.000,"{'latitude': '40.7243074694', 'longitude': '-73.987668609718', 'human_address': '{""address"": """", ""city"": """", ""state"": """", ""zip"": """"}'}",3,2,3002,1005758,East Village,987668,203164
Stoppage,3072254,PC8704443,1,3011730055,3,01173,0055,810,WASHINGTON AVENUE,11238,40.673814832253,-73.963008708421,Brooklyn,2026-04-20T11:22:00.000,Stoppage done,2026-04-20T15:24:33.000,"{'latitude': '40.673814832253', 'longitude': '-73.963008708421', 'human_address': '{""address"": """", ""city"": """", ""state"": """", ""zip"": """"}'}",8,35,207,3029406,Prospect Heights,,
Initial,14284474,PC8699650,1,2029310056,2,02931,0056,604,EAST 170 STREET,10456,40.834283072695,-73.900596117423,Bronx,2026-04-20T11:23:00.000,Rat Activity,2026-04-23T10:50:01.000,"{'latitude': '40.834283072695', 'longitude': '-73.900596117423', 'human_address': '{""address"": """", ""city"": """", ""state"": """", ""zip"": """"}'}",3,16,149,2000000,Morrisania,,
Treatments,3072302,PC8683755,3,3031970047,3,03197,0047,1123,WILLOUGHBY AVENUE,11237,40.701609333181,-73.925409398743,Brooklyn,2026-04-20T11:24:01.000,Bait applied,2026-04-21T10:11:27.000,"{'latitude': '40.701609333181', 'longitude': '-73.925409398743', 'human_address': '{""address"": """", ""city"": """", ""state"": """", ""zip"": """"}'}",4,34,429,3072746,Bushwick (West),1004932,194903
Initial,14284475,PC8699605,1,2029310057,2,02931,0057,1397,FRANKLIN AVENUE,10456,40.834115333677,-73.900238606842,Bronx,2026-04-20T11:25:00.000,Failed for Rat Act,2026-04-23T10:52:48.000,"{'latitude': '40.834115333677', 'longitude': '-73.900238606842', 'human_address': '{""address"": """", ""city"": """", ""state"": """", ""zip"": """"}'}",3,16,149,2009702,Morrisania,,
Compliance,14284156,PC8671712,2,3006360015,3,00636,0015,128,19 STREET,11232,40.664559844289,-73.995732230032,Brooklyn,2026-04-20T11:25:00.000,Rat Activity,2026-04-21T09:18:54.000,"{'latitude': '40.664559844289', 'longitude': '-73.995732230032', 'human_address': '{""address"": """", ""city"": """", ""state"": """", ""zip"": """"}'}",7,38,143,3009128,Sunset Park (West),985440,181392
Compliance,14284621,PC8685273,2,1020020026,1,02002,0026,609,WEST 135 STREET,10031,40.820355028765,-73.955672018704,Manhattan,2026-04-20T11:25:10.000,Rat Activity,2026-04-21T14:57:40.000,"{'latitude': '40.820355028765', 'longitude': '-73.955672018704', 'human_address': '{""address"": """", ""city"": """", ""state"": """", ""zip"": """"}'}",9,7,22301,1059957,Manhattanville-West Harlem,,
Initial,14284405,PC8702705,1,1020720010,1,02072,0010,557,WEST 140 STREET,10031,40.822848423628,-73.951760930466,Manhattan,2026-04-20T11:25:33.000,Rat Activity,2026-04-21T12:23:57.000,"{'latitude': '40.822848423628', 'longitude': '-73.951760930466', 'human_address': '{""address"": """", ""city"": """", ""state"": """", ""zip"": """"}'}",9,7,225,1061761,Hamilton Heights-Sugar Hill,,
Initial,14285035,PC8705844,1,4092350001,4,09235,0001,84-01,LEFFERTS BOULEVARD,11415,40.704130072466,-73.832711107095,Queens,2026-04-20T11:25:41.000,Rat Activity,2026-04-24T15:19:40.000,"{'latitude': '40.704130072466', 'longitude': '-73.832711107095', 'human_address': '{""address"": """", ""city"": """", ""state"": """", ""zip"": """"}'}",9,29,140,4192907,Kew Gardens,,
Treatments,3072248,PC8660440,3,3012800001,3,01280,0001,951,CARROLL STREET,11225,40.667939472594,-73.958520499349,Brooklyn,2026-04-20T11:25:56.000,Bait applied,2026-04-20T14:37:57.000,"{'latitude': '40.667939472594', 'longitude': '-73.958520499349', 'human_address': '{""address"": """", ""city"": """", ""state"": """", ""zip"": """"}'}",9,35,325,3033446,Crown Heights (South),995757,182630
Compliance,14284193,PC8351804,11,3019330060,3,01933,0060,309,LAFAYETTE AVENUE,11238,40.688461163021,-73.963664025073,Brooklyn,2026-04-20T11:27:00.000,Rat Activity,2026-04-21T08:46:24.000,"{'latitude': '40.688461163021', 'longitude': '-73.963664025073', 'human_address': '{""address"": """", ""city"": """", ""state"": """", ""zip"": """"}'}",2,35,193,3055375,Clinton Hill,994327,190106
Treatments,3072397,PC8669187,4,2030680125,2,03068,0125,1995,ARTHUR AVENUE,10457,40.847316349394,-73.892837965584,Bronx,2026-04-20T11:27:16.000,Bait applied,2026-04-21T14:56:25.000,"{'latitude': '40.847316349394', 'longitude': '-73.892837965584', 'human_address': '{""address"": """", ""city"": """", ""state"": """", ""zip"": """"}'}",6,15,37504,2011994,Tremont,,
Compliance,14284321,PC8685881,2,3051220039,3,05122,0039,1809,BEVERLY ROAD,11226,40.644640234615,-73.961965529177,Brooklyn,2026-04-20T11:28:00.000,Rat Activity,2026-04-21T13:06:29.000,"{'latitude': '40.644640234615', 'longitude': '-73.961965529177', 'human_address': '{""address"": """", ""city"": """", ""state"": """", ""zip"": """"}'}",14,40,512,3117601,Flatbush,994805,174141
Initial,14284058,PC8704290,1,3011600036,3,01160,0036,718,WASHINGTON AVENUE,11238,40.67634567399,-73.963501208251,Brooklyn,2026-04-20T11:28:18.000,Failed for Other R,2026-04-21T09:03:38.000,"{'latitude': '40.67634567399', 'longitude': '-73.963501208251', 'human_address': '{""address"": """", ""city"": """", ""state"": """", ""zip"": """"}'}",8,35,205,3028877,Prospect Heights,,
Treatments,3072189,PC8587666,7,2039230050,2,03923,0050,1520,LELAND AVENUE,10460,40.838550099832,-73.864648467655,Bronx,2026-04-20T11:30:03.000,Bait applied,2026-04-20T13:30:08.000,"{'latitude': '40.838550099832', 'longitude': '-73.864648467655', 'human_address': '{""address"": """", ""city"": """", ""state"": """", ""zip"": """"}'}",9,18,21601,2028686,Soundview-Bruckner-Bronx River,,
Treatments,3072337,PC8700033,1,1018770001,1,01877,0001,2741,Broadway,10025,40.800577738653,-73.967976635663,Manhattan,2026-04-20T11:30:34.000,Bait applied,2026-04-23T13:59:44.000,"{'latitude': '40.800577738653', 'longitude': '-73.967976635663', 'human_address': '{""address"": """", ""city"": """", ""state"": """", ""zip"": """"}'}",7,7,191,1056607,Upper West Side-Manhattan Valley,,
Initial,14284030,PC8705846,1,5002100064,5,00210,0064,48,ELIZABETH STREET,10310,40.633115426253,-74.120536335561,Staten Island,2026-04-20T11:30:35.000,Rat Activity,2026-04-21T12:25:20.000,"{'latitude': '40.633115426253', 'longitude': '-74.120536335561', 'human_address': '{""address"": """", ""city"": """", ""state"": """", ""zip"": """"}'}",1,49,13302,5108703,Port Richmond,,
Initial,14284261,PC8697775,1,2030220050,2,03022,0050,2440,TIEBOUT AVENUE,10458,40.860068218487,-73.895640790888,Bronx,2026-04-20T11:31:10.000,Rat Activity,2026-04-21T10:52:05.000,"{'latitude': '40.860068218487', 'longitude': '-73.895640790888', 'human_address': '{""address"": """", ""city"": """", ""state"": """", ""zip"": """"}'}",5,15,39902,2010997,Fordham Heights,,
Compliance,14284007,PC8684383,2,1017950033,1,01795,0033,348,EAST 119 STREET,10035,40.798161906795,-73.934568669651,Manhattan,2026-04-20T11:31:35.000,Rat Activity,2026-04-21T12:12:17.000,"{'latitude': '40.798161906795', 'longitude': '-73.934568669651', 'human_address': '{""address"": """", ""city"": """", ""state"": """", ""zip"": """"}'}",11,8,188,1054723,East Harlem (North),,
Stoppage,3072261,PC8701711,1,3019970003,3,01997,0003,35,CLAVER PLACE,11238,40.681923707676,-73.957426518549,Brooklyn,2026-04-20T11:32:00.000,Stoppage done,2026-04-20T15:23:07.000,"{'latitude': '40.681923707676', 'longitude': '-73.957426518549', 'human_address': '{""address"": """", ""city"": """", ""state"": """", ""zip"": """"}'}",3,36,227,3057373,Bedford-Stuyvesant (West),,
Compliance,14283625,PC8505084,11,2030240008,2,03024,0008,365,EAST  184 STREET,10458,40.857795458562,-73.895506998924,Bronx,2026-04-20T11:32:03.000,Rat Activity,2026-04-22T12:13:12.000,"{'latitude': '40.857795458562', 'longitude': '-73.895506998924', 'human_address': '{""address"": """", ""city"": """", ""state"": """", ""zip"": """"}'}",5,15,38303,2011053,Fordham Heights,1013155,251815
Initial,14284128,PC8704124,1,3011620020,3,01162,0020,432,PROSPECT PLACE,11238,40.676177707365,-73.961857344781,Brooklyn,2026-04-20T11:33:00.000,Rat Activity,2026-04-21T09:31:17.000,"{'latitude': '40.676177707365', 'longitude': '-73.961857344781', 'human_address': '{""address"": """", ""city"": """", ""state"": """", ""zip"": """"}'}",8,35,305,3028925,Crown Heights (North),,
