inspection_type,job_ticket_or_work_order_id,job_id,job_progress,bbl,boro_code,block,lot,house_number,street_name,zip_code,latitude,longitude,borough,inspection_date,result,approved_date,location,community_board,council_district,census_tract,bin,nta,x_coord,y_coord
Initial,14308883,PC8727628,1,2025310035,2,2531,35,1315,OGDEN AVENUE,10452,40.840370371998,-73.925245989194,Bronx,2026-05-25T12:11:00.000,Failed for Rat Activity,2026-05-26T12:04:02.000,"{'latitude': '40.840370371998', 'longitude': '-73.925245989194', 'human_address': '{""address"": """", ""city"": """", ""state"": """", ""zip"": """"}'}",4,16,201,2000000,Highbridge,,
Initial,14308909,PC8727644,1,2031190050,2,3119,50,851,HORNADAY PLACE,10460,40.847043229436,-73.882970918198,Bronx,2026-05-25T15:03:00.000,Failed for Rat Activity,2026-05-27T13:06:09.000,"{'latitude': '40.847043229436', 'longitude': '-73.882970918198', 'human_address': '{""address"": """", ""city"": """", ""state"": """", ""zip"": """"}'}",6,15,363,2118281,West Farms,,
Initial,14308904,PC8727646,1,,2,3323,100,100,VAN CORTLANDT PARK E,,0.00000000000000000000,0.00000000000000000000,Bronx,2026-05-25T15:49:49.000,Failed for Rat Activity,2026-05-26T12:14:50.000,"{'latitude': '0.0', 'longitude': '0.0', 'human_address': '{""address"": """", ""city"": """", ""state"": """", ""zip"": """"}'}",,,,,,,
Initial,14309778,PC8723548,1,1018360001,1,1836,1,60,WEST  104 STREET,10025,40.797603720059,-73.963123856432,Manhattan,2026-05-26T08:00:07.000,Failed for Rat Activity and Other Reason,2026-05-28T10:55:40.000,"{'latitude': '40.797603720059', 'longitude': '-73.963123856432', 'human_address': '{""address"": """", ""city"": """", ""state"": """", ""zip"": """"}'}",7,7,189,1083820,Upper West Side-Manhattan Valley,994460,229870
Compliance,14309624,PC8702903,2,1007540015,1,754,15,347,WEST 30 STREET,10001,40.750259824665,-73.996639843742,Manhattan,2026-05-26T08:07:27.000,Failed for Other Reason,2026-05-27T11:08:37.000,"{'latitude': '40.750259824665', 'longitude': '-73.996639843742', 'human_address': '{""address"": """", ""city"": """", ""state"": """", ""zip"": """"}'}",4,3,103,1013518,Chelsea-Hudson Yards,,
Initial,14309043,PC8722548,1,4021620122,4,2162,122,61-20,GRAND CENTRAL PARKWAY,11375,40.738404465712,-73.846766635327,Queens,2026-05-26T08:10:00.000,Failed for Rat Activity and Other Reason,2026-05-28T13:04:00.000,"{'latitude': '40.738404465712', 'longitude': '-73.846766635327', 'human_address': '{""address"": """", ""city"": """", ""state"": """", ""zip"": """"}'}",6,24,747,4445338,Forest Hills,1026714,208337
Compliance,14309626,PC8702619,2,1007540025,1,754,25,325,WEST 30 STREET,10001,40.750067677666,-73.996199533518,Manhattan,2026-05-26T08:21:27.000,Failed for Rat Activity and Other Reason,2026-05-27T11:07:00.000,"{'latitude': '40.750067677666', 'longitude': '-73.996199533518', 'human_address': '{""address"": """", ""city"": """", ""state"": """", ""zip"": """"}'}",4,3,103,1013523,Chelsea-Hudson Yards,,
Initial,14309067,PC8723622,1,3034190007,3,3419,7,815,KNICKERBOCKER AVENUE,11207,40.692373468648,-73.907036145601,Brooklyn,2026-05-26T08:22:57.000,Failed for Rat Activity and Other Reason,2026-05-28T16:29:34.000,"{'latitude': '40.692373468648', 'longitude': '-73.907036145601', 'human_address': '{""address"": """", ""city"": """", ""state"": """", ""zip"": """"}'}",4,37,437,3079113,Bushwick (East),,
Initial,14309322,PC8714165,1,3032460003,3,3246,3,189,WILSON AVENUE,11237,40.699349019268,-73.923338243038,Brooklyn,2026-05-26T08:27:03.000,Failed for Rat Activity,2026-05-29T02:58:55.000,"{'latitude': '40.699349019268', 'longitude': '-73.923338243038', 'human_address': '{""address"": """", ""city"": """", ""state"": """", ""zip"": """"}'}",4,37,429,3073814,Bushwick (West),,
Initial,14309277,PC8725339,1,3034220061,3,3422,61,117,SCHAEFER STREET,11207,40.687811011549,-73.909667552812,Brooklyn,2026-05-26T08:35:09.000,Failed for Other Reason,2026-05-27T12:49:17.000,"{'latitude': '40.687811011549', 'longitude': '-73.909667552812', 'human_address': '{""address"": """", ""city"": """", ""state"": """", ""zip"": """"}'}",4,37,413,3326318,Bushwick (East),,
Initial,14309325,PC8714721,1,3032460010,3,3246,10,1412,DEKALB AVENUE,11237,40.700103836003,-73.923344584651,Brooklyn,2026-05-26T08:41:03.000,Failed for Rat Activity,2026-05-29T10:25:32.000,"{'latitude': '40.700103836003', 'longitude': '-73.923344584651', 'human_address': '{""address"": """", ""city"": """", ""state"": """", ""zip"": """"}'}",4,37,429,3073817,Bushwick (West),,
Initial,14309326,PC8713765,1,3032460011,3,3246,11,1414,DEKALB AVENUE,11237,40.700134009185,-73.923315698082,Brooklyn,2026-05-26T08:45:39.000,Failed for Rat Activity,2026-05-29T10:26:16.000,"{'latitude': '40.700134009185', 'longitude': '-73.923315698082', 'human_address': '{""address"": """", ""city"": """", ""state"": """", ""zip"": """"}'}",4,37,429,3073818,Bushwick (West),,
Treatments,3077977,PC8684112,3,2032870018,2,3287,18,311,EAST  193 STREET,10458,40.863844450009,-73.892106230062,Bronx,2026-05-26T08:45:55.000,Bait applied,2026-05-29T09:14:58.000,"{'latitude': '40.863844450009', 'longitude': '-73.892106230062', 'human_address': '{""address"": """", ""city"": """", ""state"": """", ""zip"": """"}'}",7,15,39901,2016610,University Heights (North)-Fordham,1014093,254020
Initial,14309327,PC8715322,1,3032460012,3,3246,12,1416,DEKALB AVENUE,11237,40.70016143759,-73.923286814658,Brooklyn,2026-05-26T08:49:39.000,Failed for Rat Activity,2026-05-29T10:27:12.000,"{'latitude': '40.70016143759', 'longitude': '-73.923286814658', 'human_address': '{""address"": """", ""city"": """", ""state"": """", ""zip"": """"}'}",4,37,429,3073819,Bushwick (West),,
Treatments,3077678,PC8682930,4,2030830001,2,3083,1,661,EAST 181 STREET,10457,40.849390537161,-73.889068205434,Bronx,2026-05-26T08:49:42.000,Bait applied,2026-05-26T14:24:32.000,"{'latitude': '40.849390537161', 'longitude': '-73.889068205434', 'human_address': '{""address"": """", ""city"": """", ""state"": """", ""zip"": """"}'}",6,15,373,2092284,Tremont,,
Stoppage,3077638,PC8724264,1,2031860030,2,3186,30,2201,WALTON AVENUE,10453,40.856466149067,-73.903960914783,Bronx,2026-05-26T08:51:00.000,Stoppage done,2026-05-27T11:55:06.000,"{'latitude': '40.856466149067', 'longitude': '-73.903960914783', 'human_address': '{""address"": """", ""city"": """", ""state"": """", ""zip"": """"}'}",5,14,239,2014057,Fordham Heights,,
Initial,14309045,PC8721717,1,4020827501,4,2082,7501,62-54,97 PLACE,11374,40.733045536531,-73.860952249515,Queens,2026-05-26T08:54:00.000,Failed for Rat Activity and Other Reason,2026-05-28T13:03:09.000,"{'latitude': '40.733045536531', 'longitude': '-73.860952249515', 'human_address': '{""address"": """", ""city"": """", ""state"": """", ""zip"": """"}'}",6,24,71702,4307724,Rego Park,1022786,206378
Initial,14309329,PC8714705,1,3032460014,3,3246,14,1420,DEKALB AVENUE,11237,40.700221783918,-73.923229041392,Brooklyn,2026-05-26T08:56:39.000,Failed for Rat Activity,2026-05-29T10:30:29.000,"{'latitude': '40.700221783918', 'longitude': '-73.923229041392', 'human_address': '{""address"": """", ""city"": """", ""state"": """", ""zip"": """"}'}",4,37,429,3073821,Bushwick (West),,
Treatments,3077654,PC8659130,6,2032500005,2,3250,5,2830,SEDGWICK AVENUE,10468,40.873028899168,-73.901951780852,Bronx,2026-05-26T09:00:06.000,Bait applied,2026-05-26T14:35:53.000,"{'latitude': '40.873028899168', 'longitude': '-73.901951780852', 'human_address': '{""address"": """", ""city"": """", ""state"": """", ""zip"": """"}'}",8,14,26702,2015396,Kingsbridge Heights-Van Cortlandt Village,1011366,257363
Initial,14309330,PC8712875,1,3032460015,3,3246,15,1422,DEKALB AVENUE,11237,40.700251957072,-73.92320015472,Brooklyn,2026-05-26T09:00:39.000,Failed for Rat Activity,2026-05-29T10:31:04.000,"{'latitude': '40.700251957072', 'longitude': '-73.92320015472', 'human_address': '{""address"": """", ""city"": """", ""state"": """", ""zip"": """"}'}",4,37,429,3073822,Bushwick (West),,
Stoppage,3077626,PC8724315,1,2031870056,2,3187,56,25,EAST 183 STREET,10453,40.858504760632,-73.903097568337,Bronx,2026-05-26T09:03:00.000,Stoppage done,2026-05-27T11:58:53.000,"{'latitude': '40.858504760632', 'longitude': '-73.903097568337', 'human_address': '{""address"": """", ""city"": """", ""state"": """", ""zip"": """"}'}",5,14,239,2090482,Fordham Heights,,
Initial,14309331,PC8713233,1,3032460016,3,3246,16,1424,DEKALB AVENUE,11237,40.700279385447,-73.923171271196,Brooklyn,2026-05-26T09:04:39.000,Failed for Rat Activity,2026-05-29T10:44:08.000,"{'latitude': '40.700279385447', 'longitude': '-73.923171271196', 'human_address': '{""address"": """", ""city"": """", ""state"": """", ""zip"": """"}'}",4,37,429,3073823,Bushwick (West),,
Treatments,3077671,PC8605384,12,2030310069,2,3031,69,4575,PARK AVENUE,10458,40.856775723654,-73.893936084184,Bronx,2026-05-26T09:05:31.000,Bait applied,2026-05-26T14:26:49.000,"{'latitude': '40.856775723654', 'longitude': '-73.893936084184', 'human_address': '{""address"": """", ""city"": """", ""state"": """", ""zip"": """"}'}",6,15,38304,2011213,Belmont,,
Initial,14309688,PC8725122,1,3034220014,3,3422,14,114,COVERT STREET,11207,40.688165709552,-73.910460350479,Brooklyn,2026-05-26T09:09:06.000,Failed for Other Reason,2026-05-28T15:28:37.000,"{'latitude': '40.688165709552', 'longitude': '-73.910460350479', 'human_address': '{""address"": """", ""city"": """", ""state"": """", ""zip"": """"}'}",4,37,413,3079232,Bushwick (East),,
Treatments,3077612,PC8339827,15,3015080001,3,1508,1,241,RALPH AVENUE,11233,40.681337202225,-73.92243603451,Brooklyn,2026-05-26T09:11:00.000,Bait applied,2026-05-26T13:40:52.000,"{'latitude': '40.681337202225', 'longitude': '-73.92243603451', 'human_address': '{""address"": """", ""city"": """", ""state"": """", ""zip"": """"}'}",3,41,379,3337913,Bedford-Stuyvesant (East),,
Initial,14309333,PC8713825,1,3032460018,3,3246,18,1428,DEKALB AVENUE,11237,40.700339731717,-73.923113497723,Brooklyn,2026-05-26T09:11:39.000,Failed for Rat Activity,2026-05-29T02:56:45.000,"{'latitude': '40.700339731717', 'longitude': '-73.923113497723', 'human_address': '{""address"": """", ""city"": """", ""state"": """", ""zip"": """"}'}",4,37,429,3073825,Bushwick (West),,
Stoppage,3077630,PC8724314,1,2031990031,2,3199,31,2419,DAVIDSON AVENUE,10468,40.861973898754,-73.902857500882,Bronx,2026-05-26T09:14:00.000,Stoppage done,2026-05-27T11:58:09.000,"{'latitude': '40.861973898754', 'longitude': '-73.902857500882', 'human_address': '{""address"": """", ""city"": """", ""state"": """", ""zip"": """"}'}",7,14,253,2014310,University Heights (North)-Fordham,,
Treatments,3077653,PC8586610,8,2032580048,2,3258,48,3338,FT INDEPENDENCE STREET,10463,40.878914282121,-73.89957083871,Bronx,2026-05-26T09:15:00.000,Bait applied,2026-05-26T14:36:39.000,"{'latitude': '40.878914282121', 'longitude': '-73.89957083871', 'human_address': '{""address"": """", ""city"": """", ""state"": """", ""zip"": """"}'}",8,11,279,2015809,Kingsbridge Heights-Van Cortlandt Village,1012016,259543
Treatments,3077780,PC8699605,3,2029310057,2,2931,57,1397,FRANKLIN AVENUE,10456,40.834115333677,-73.900238606842,Bronx,2026-05-26T09:15:00.000,Bait applied,2026-05-27T10:52:40.000,"{'latitude': '40.834115333677', 'longitude': '-73.900238606842', 'human_address': '{""address"": """", ""city"": """", ""state"": """", ""zip"": """"}'}",3,16,149,2009702,Morrisania,,
Treatments,3077691,PC8611565,5,3052400001,3,5240,1,1198,OCEAN AVENUE,11230,40.633360483205,-73.957846726116,Brooklyn,2026-05-26T09:15:39.000,Bait applied,2026-05-26T14:47:14.000,"{'latitude': '40.633360483205', 'longitude': '-73.957846726116', 'human_address': '{""address"": """", ""city"": """", ""state"": """", ""zip"": """"}'}",14,45,764,3327329,Flatbush (West)-Ditmas Park-Parkville,995950,170032
Initial,14309334,PC8714187,1,3032460019,3,3246,19,1430,DEKALB AVENUE,11237,40.70036990484,-73.923084610947,Brooklyn,2026-05-26T09:15:39.000,Failed for Rat Activity,2026-05-29T10:44:53.000,"{'latitude': '40.70036990484', 'longitude': '-73.923084610947', 'human_address': '{""address"": """", ""city"": """", ""state"": """", ""zip"": """"}'}",4,37,429,3073826,Bushwick (West),,
Initial,14309301,PC8724441,1,3034220011,3,3422,11,110,COVERT STREET,11207,40.688091657004,-73.910532566589,Brooklyn,2026-05-26T09:17:34.000,Failed for Rat Activity,2026-05-27T12:55:06.000,"{'latitude': '40.688091657004', 'longitude': '-73.910532566589', 'human_address': '{""address"": """", ""city"": """", ""state"": """", ""zip"": """"}'}",4,37,413,3079230,Bushwick (East),,
Treatments,3077672,PC8681242,5,2030310035,2,3031,35,2376,WEBSTER AVENUE,10458,40.858082627391,-73.89438226024,Bronx,2026-05-26T09:20:23.000,Bait applied,2026-05-26T14:26:29.000,"{'latitude': '40.858082627391', 'longitude': '-73.89438226024', 'human_address': '{""address"": """", ""city"": """", ""state"": """", ""zip"": """"}'}",6,15,38304,2011195,Belmont,,
Stoppage,3077627,PC8722638,1,2031990091,2,3199,91,2,WEST FORDHAM ROAD,10468,40.862760276983,-73.901261990918,Bronx,2026-05-26T09:21:00.000,Stoppage done,2026-05-27T11:58:46.000,"{'latitude': '40.862760276983', 'longitude': '-73.901261990918', 'human_address': '{""address"": """", ""city"": """", ""state"": """", ""zip"": """"}'}",7,14,253,2014328,University Heights (North)-Fordham,,
Initial,14309046,PC8721745,1,4021020001,4,2102,1,98-21,65 AVENUE,11374,40.729165273839,-73.857168318666,Queens,2026-05-26T09:23:00.000,Failed for Rat Activity,2026-05-28T13:01:40.000,"{'latitude': '40.729165273839', 'longitude': '-73.857168318666', 'human_address': '{""address"": """", ""city"": """", ""state"": """", ""zip"": """"}'}",6,29,71304,4431991,Forest Hills,1023837,204966
Stoppage,3077628,PC8722639,1,2031990093,2,3199,93,2441,JEROME AVENUE,10468,40.862282868152,-73.901465159016,Bronx,2026-05-26T09:24:00.000,Stoppage done,2026-05-27T11:58:32.000,"{'latitude': '40.862282868152', 'longitude': '-73.901465159016', 'human_address': '{""address"": """", ""city"": """", ""state"": """", ""zip"": """"}'}",7,14,253,2014329,University Heights (North)-Fordham,,
Initial,14309337,PC8714730,1,3032460022,3,3246,22,1436,DEKALB AVENUE,11237,40.700457679397,-73.922997953643,Brooklyn,2026-05-26T09:25:39.000,Failed for Rat Activity,2026-05-29T10:24:08.000,"{'latitude': '40.700457679397', 'longitude': '-73.922997953643', 'human_address': '{""address"": """", ""city"": """", ""state"": """", ""zip"": """"}'}",4,37,429,3073829,Bushwick (West),,
Stoppage,3077644,PC8716713,1,1021540007,1,2154,7,1430,St. Nicholas Ave,10033,40.849663609093,-73.933462348069,Manhattan,2026-05-26T09:28:00.000,Stoppage done,2026-05-27T11:52:46.000,"{'latitude': '40.849663609093', 'longitude': '-73.933462348069', 'human_address': '{""address"": """", ""city"": """", ""state"": """", ""zip"": """"}'}",12,10,269,1063642,Washington Heights (North),,
Treatments,3077658,PC8648514,4,2058343001,2,5834,3001,6255,BROADWAY,10471,40.897979608627,-73.897017084,Bronx,2026-05-26T09:30:00.000,Bait applied,2026-05-26T14:34:29.000,"{'latitude': '40.897979608627', 'longitude': '-73.897017084', 'human_address': '{""address"": """", ""city"": """", ""state"": """", ""zip"": """"}'}",8,11,351,2084601,Riverdale-Spuyten Duyvil,1012720,266455
Treatments,3077624,PC8691684,3,3033680059,3,3368,59,1215,PUTNAM AVENUE,11221,40.691186205415,-73.915721012647,Brooklyn,2026-05-26T09:30:00.000,Bait applied,2026-05-26T13:31:09.000,"{'latitude': '40.691186205415', 'longitude': '-73.915721012647', 'human_address': '{""address"": """", ""city"": """", ""state"": """", ""zip"": """"}'}",4,37,415,3077045,Bushwick (East),,
Treatments,3077692,PC8606225,5,3075480043,3,7548,43,2004,GLENWOOD ROAD,11210,40.632901999452,-73.957562394104,Brooklyn,2026-05-26T09:30:39.000,Bait applied,2026-05-26T14:48:05.000,"{'latitude': '40.632901999452', 'longitude': '-73.957562394104', 'human_address': '{""address"": """", ""city"": """", ""state"": """", ""zip"": """"}'}",14,45,766,3205715,Flatbush,996029,169865
Initial,14309339,PC8713377,1,3032460023,3,3246,23,1438,DEKALB AVENUE,11237,40.700487852492,-73.922969066763,Brooklyn,2026-05-26T09:31:39.000,Failed for Rat Activity,2026-05-29T10:50:32.000,"{'latitude': '40.700487852492', 'longitude': '-73.922969066763', 'human_address': '{""address"": """", ""city"": """", ""state"": """", ""zip"": """"}'}",4,37,429,3073830,Bushwick (West),,
Initial,14309049,PC8717844,1,1016840001,1,1684,1,310,EAST 115 STREET,10029,40.796113415512,-73.937875384392,Manhattan,2026-05-26T09:35:00.000,Failed for Rat Activity and Other Reason,2026-05-28T09:25:16.000,"{'latitude': '40.796113415512', 'longitude': '-73.937875384392', 'human_address': '{""address"": """", ""city"": """", ""state"": """", ""zip"": """"}'}",11,8,180,1081086,East Harlem (North),,
Treatments,3077669,PC8681515,4,2030310036,2,3031,36,2378,WEBSTER AVENUE,10458,40.858118288928,-73.894360512977,Bronx,2026-05-26T09:35:46.000,Bait applied,2026-05-26T14:27:22.000,"{'latitude': '40.858118288928', 'longitude': '-73.894360512977', 'human_address': '{""address"": """", ""city"": """", ""state"": """", ""zip"": """"}'}",6,15,38304,2011196,Belmont,,
Initial,14309340,PC8715340,1,3032460024,3,3246,24,1440,DEKALB AVENUE,11237,40.700515280808,-73.922940183042,Brooklyn,2026-05-26T09:36:39.000,Failed for Rat Activity,2026-05-29T10:54:52.000,"{'latitude': '40.700515280808', 'longitude': '-73.922940183042', 'human_address': '{""address"": """", ""city"": """", ""state"": """", ""zip"": """"}'}",4,37,429,3073831,Bushwick (West),,
Stoppage,3077633,PC8721848,1,2032000014,2,3200,14,20,WEST 190 STREET,10468,40.8641105024,-73.901050285522,Bronx,2026-05-26T09:39:00.000,Stoppage done,2026-05-27T11:57:07.000,"{'latitude': '40.8641105024', 'longitude': '-73.901050285522', 'human_address': '{""address"": """", ""city"": """", ""state"": """", ""zip"": """"}'}",7,14,265,2014359,University Heights (North)-Fordham,,
Treatments,3077766,PC8672987,4,2029630006,2,2963,6,1412,PROSPECT AVENUE,10459,40.832500926539,-73.896569546822,Bronx,2026-05-26T09:40:00.000,Bait applied,2026-05-27T11:03:26.000,"{'latitude': '40.832500926539', 'longitude': '-73.896569546822', 'human_address': '{""address"": """", ""city"": """", ""state"": """", ""zip"": """"}'}",3,17,153,2010211,Crotona Park East,,
Stoppage,3077645,PC8716712,1,1021420168,1,2142,168,344,Ft. Washington Ave,10033,40.846722089677,-73.939964074411,Manhattan,2026-05-26T09:40:00.000,Stoppage done,2026-05-27T11:52:33.000,"{'latitude': '40.846722089677', 'longitude': '-73.939964074411', 'human_address': '{""address"": """", ""city"": """", ""state"": """", ""zip"": """"}'}",12,10,263,1063505,Washington Heights (South),,
Initial,14309047,PC8720461,1,4021020001,4,2102,1,64-40,99 STREET,11374,40.73010505704,-73.855831299753,Queens,2026-05-26T09:40:00.000,Failed for Rat Activity and Other Reason,2026-05-28T13:00:53.000,"{'latitude': '40.73010505704', 'longitude': '-73.855831299753', 'human_address': '{""address"": """", ""city"": """", ""state"": """", ""zip"": """"}'}",6,29,71304,4431616,Forest Hills,1024207,205309
Compliance,14308988,PC8702252,2,3065510006,3,6551,6,6201,BAY PARKWAY,11204,40.615470453134,-73.979717844609,Brooklyn,2026-05-26T09:40:32.000,Failed for Rat Activity,2026-05-27T11:01:26.000,"{'latitude': '40.615470453134', 'longitude': '-73.979717844609', 'human_address': '{""address"": """", ""city"": """", ""state"": """", ""zip"": """"}'}",11,43,436,3172129,Bensonhurst,989881,163512
Initial,14309341,PC8712661,1,3032460025,3,3246,25,1442,DEKALB AVENUE,11237,40.700545453888,-73.92291129611,Brooklyn,2026-05-26T09:40:39.000,Failed for Rat Activity,2026-05-29T10:54:04.000,"{'latitude': '40.700545453888', 'longitude': '-73.92291129611', 'human_address': '{""address"": """", ""city"": """", ""state"": """", ""zip"": """"}'}",4,37,429,3073832,Bushwick (West),,
Compliance,14309639,PC8705593,2,1007460011,1,746,11,349,WEST 22 STREET,10011,40.745217746566,-74.000364500535,Manhattan,2026-05-26T09:41:27.000,Failed for Rat Activity,2026-05-28T10:32:25.000,"{'latitude': '40.745217746566', 'longitude': '-74.000364500535', 'human_address': '{""address"": """", ""city"": """", ""state"": """", ""zip"": """"}'}",4,3,93,1013346,Chelsea-Hudson Yards,,
Treatments,3077763,PC8702409,3,1011240017,1,1124,17,33,WEST 71 STREET,10023,40.776190238408,-73.978011438287,Manhattan,2026-05-26T09:42:25.000,Bait applied,2026-05-28T08:58:07.000,"{'latitude': '40.776190238408', 'longitude': '-73.978011438287', 'human_address': '{""address"": """", ""city"": """", ""state"": """", ""zip"": """"}'}",7,6,157,1028613,Upper West Side-Lincoln Square,,
Treatments,3077726,PC8622983,8,4019580026,4,1958,26,58-35,GRANGER STREET,11368,40.738370782681,-73.85462974176,Queens,2026-05-26T09:43:51.000,Bait applied,2026-05-29T10:57:19.000,"{'latitude': '40.738370782681', 'longitude': '-73.85462974176', 'human_address': '{""address"": """", ""city"": """", ""state"": """", ""zip"": """"}'}",4,21,43702,4048211,Corona,,
Initial,14309173,PC8715595,1,1012740006,1,1274,6,45,WEST   58 STREET,10019,40.764422919492,-73.97530786746,Manhattan,2026-05-26T09:44:42.000,Failed for Rat Activity,2026-05-27T08:50:25.000,"{'latitude': '40.764422919492', 'longitude': '-73.97530786746', 'human_address': '{""address"": """", ""city"": """", ""state"": """", ""zip"": """"}'}",5,4,11201,1080444,Midtown-Times Square,991090,217780
Treatments,3077732,PC8370840,31,1017450001,1,1745,1,1461,5 AVENUE,10035,40.802103534418,-73.945393595445,Manhattan,2026-05-26T09:45:00.000,Bait applied,2026-05-28T07:44:48.000,"{'latitude': '40.802103534418', 'longitude': '-73.945393595445', 'human_address': '{""address"": """", ""city"": """", ""state"": """", ""zip"": """"}'}",11,9,184,1053946,East Harlem (North),,
Treatments,3077715,PC8647351,4,1019280047,1,1928,47,230,WEST 123 STREET,10027,40.808108553436,-73.950366454319,Manhattan,2026-05-26T09:45:00.000,Bait applied,2026-05-29T11:23:56.000,"{'latitude': '40.808108553436', 'longitude': '-73.950366454319', 'human_address': '{""address"": """", ""city"": """", ""state"": """", ""zip"": """"}'}",10,9,222,1058578,Harlem (South),,
Compliance,14308929,PC8671340,2,2028440021,2,2844,21,1465,TOWNSEND AVENUE,10452,40.84132447055,-73.915764993639,Bronx,2026-05-26T09:45:23.000,Failed for Other Reason,2026-05-27T10:15:44.000,"{'latitude': '40.84132447055', 'longitude': '-73.915764993639', 'human_address': '{""address"": """", ""city"": """", ""state"": """", ""zip"": """"}'}",4,16,223,2008110,Mount Eden-Claremont (West),1007557,245808
Initial,14308948,PC8725199,1,2027620095,2,2762,95,868,FAILE STREET,10474,40.818708379093,-73.887576831517,Bronx,2026-05-26T09:47:00.000,Failed for Rat Activity and Other Reason,2026-05-27T10:13:36.000,"{'latitude': '40.818708379093', 'longitude': '-73.887576831517', 'human_address': '{""address"": """", ""city"": """", ""state"": """", ""zip"": """"}'}",2,17,11502,2006459,Hunts Point,,
Treatments,3077596,PC8626020,6,1020500183,1,2050,183,409,w 141 st,10031,40.821429790601,-73.946465208188,Manhattan,2026-05-26T09:47:17.000,Bait applied,2026-05-28T08:03:15.000,"{'latitude': '40.821429790601', 'longitude': '-73.946465208188', 'human_address': '{""address"": """", ""city"": """", ""state"": """", ""zip"": """"}'}",9,9,227,1081816,Hamilton Heights-Sugar Hill,,
Treatments,3077615,PC8656740,9,3014860014,3,1486,14,1050,PUTNAM AVENUE,11221,40.687464638641,-73.920038247424,Brooklyn,2026-05-26T09:49:00.000,Bait applied,2026-05-26T13:37:28.000,"{'latitude': '40.687464638641', 'longitude': '-73.920038247424', 'human_address': '{""address"": """", ""city"": """", ""state"": """", ""zip"": """"}'}",3,41,375,3039809,Bedford-Stuyvesant (East),1006426,189751
Stoppage,3077631,PC8721846,1,2032000009,2,3200,9,2486,DAVIDSON AVENUE,10468,40.863696461569,-73.901531748536,Bronx,2026-05-26T09:50:00.000,Stoppage done,2026-05-27T11:58:03.000,"{'latitude': '40.863696461569', 'longitude': '-73.901531748536', 'human_address': '{""address"": """", ""city"": """", ""state"": """", ""zip"": """"}'}",7,14,265,2014357,University Heights (North)-Fordham,,
Treatments,3077670,PC8681455,5,2030310037,2,3031,37,2380,WEBSTER AVENUE,10458,40.858151205732,-73.894338770068,Bronx,2026-05-26T09:50:29.000,Bait applied,2026-05-26T14:27:06.000,"{'latitude': '40.858151205732', 'longitude': '-73.894338770068', 'human_address': '{""address"": """", ""city"": """", ""state"": """", ""zip"": """"}'}",6,15,38304,2011197,Belmont,,
Treatments,3077699,PC8594629,15,1011657505,1,1165,7505,2112,BROADWAY,10023,40.78005822339,-73.981570416568,Manhattan,2026-05-26T09:50:56.000,Bait applied,2026-05-27T14:27:47.000,"{'latitude': '40.78005822339', 'longitude': '-73.981570416568', 'human_address': '{""address"": """", ""city"": """", ""state"": """", ""zip"": """"}'}",7,6,159,1030545,Upper West Side-Lincoln Square,,
Treatments,3077778,PC8673066,4,2029630003,2,2963,3,1406,PROSPECT AVENUE,10459,40.832311575482,-73.896609592584,Bronx,2026-05-26T09:55:00.000,Bait applied,2026-05-27T10:53:19.000,"{'latitude': '40.832311575482', 'longitude': '-73.896609592584', 'human_address': '{""address"": """", ""city"": """", ""state"": """", ""zip"": """"}'}",3,17,153,2010208,Crotona Park East,,
Initial,14308950,PC8724475,1,2027620093,2,2762,93,856,FAILE STREET,10474,40.818472271275,-73.887515812504,Bronx,2026-05-26T09:55:00.000,Failed for Other Reason,2026-05-27T10:14:14.000,"{'latitude': '40.818472271275', 'longitude': '-73.887515812504', 'human_address': '{""address"": """", ""city"": """", ""state"": """", ""zip"": """"}'}",2,17,11502,2006457,Hunts Point,,
Initial,14309379,PC8722557,1,2031220031,2,3122,31,901,EAST  179 STREET,10460,40.843799231709,-73.883247718797,Bronx,2026-05-26T09:55:00.000,Failed for Rat Activity and Other Reason,2026-05-29T09:43:27.000,"{'latitude': '40.843799231709', 'longitude': '-73.883247718797', 'human_address': '{""address"": """", ""city"": """", ""state"": """", ""zip"": """"}'}",6,15,363,2013131,West Farms,1016553,246720
Initial,14308999,PC8718325,1,2023187501,2,2318,7501,2490,3 AVENUE,10454,40.810004707114,-73.928639799259,Bronx,2026-05-26T09:56:05.000,Failed for Other Reason,2026-05-27T10:40:53.000,"{'latitude': '40.810004707114', 'longitude': '-73.928639799259', 'human_address': '{""address"": """", ""city"": """", ""state"": """", ""zip"": """"}'}",1,8,51,2130381,Mott Haven-Port Morris,1004005,234393
Treatments,3077716,PC8697499,3,1019300044,1,1930,44,230,WEST 125 STREET,10027,40.80933495233,-73.949216790875,Manhattan,2026-05-26T09:57:00.000,Bait applied,2026-05-29T11:23:46.000,"{'latitude': '40.80933495233', 'longitude': '-73.949216790875', 'human_address': '{""address"": """", ""city"": """", ""state"": """", ""zip"": """"}'}",10,9,222,1058644,Harlem (South),,
Treatments,3077609,PC8554039,13,,1,2075,29,0000,Alexander Square,,0.00000000000000000000,0.00000000000000000000,Manhattan,2026-05-26T09:57:17.000,Bait applied,2026-05-28T08:03:56.000,"{'latitude': '0.0', 'longitude': '0.0', 'human_address': '{""address"": """", ""city"": """", ""state"": """", ""zip"": """"}'}",,,,,,,
Initial,14308951,PC8725014,1,2027620092,2,2762,92,854,FAILE STREET,10474,40.818433834292,-73.887505039008,Bronx,2026-05-26T09:58:00.000,Failed for Other Reason,2026-05-27T10:16:56.000,"{'latitude': '40.818433834292', 'longitude': '-73.887505039008', 'human_address': '{""address"": """", ""city"": """", ""state"": """", ""zip"": """"}'}",2,17,11502,2006456,Hunts Point,,
Treatments,3077756,PC8692249,5,1011250160,1,1125,160,44,WEST   73 STREET,10023,40.777707971082,-73.977411561644,Manhattan,2026-05-26T09:59:25.000,Bait applied,2026-05-28T08:58:05.000,"{'latitude': '40.777707971082', 'longitude': '-73.977411561644', 'human_address': '{""address"": """", ""city"": """", ""state"": """", ""zip"": """"}'}",7,6,157,1028648,Upper West Side-Lincoln Square,990506,222620
Treatments,3077738,PC8700298,3,1017510032,1,1751,32,59,EAST 126 STREET,10035,40.806182080432,-73.939614272403,Manhattan,2026-05-26T10:00:00.000,Bait applied,2026-05-28T07:45:28.000,"{'latitude': '40.806182080432', 'longitude': '-73.939614272403', 'human_address': '{""address"": """", ""city"": """", ""state"": """", ""zip"": """"}'}",11,9,206,1054098,East Harlem (North),,
Initial,14308989,PC8721729,1,3066320001,3,6632,1,1601,DAHILL ROAD,11223,40.608374017406,-73.973957624449,Brooklyn,2026-05-26T10:00:32.000,Failed for Rat Activity and Other Reason,2026-05-27T11:08:21.000,"{'latitude': '40.608374017406', 'longitude': '-73.973957624449', 'human_address': '{""address"": """", ""city"": """", ""state"": """", ""zip"": """"}'}",11,44,424,3175875,Gravesend (West),991481,160927
Treatments,3077687,PC8613079,7,3067120056,3,6712,56,1400,OCEAN AVENUE,11230,40.627716812567,-73.956783953039,Brooklyn,2026-05-26T10:00:39.000,Bait applied,2026-05-26T14:39:32.000,"{'latitude': '40.627716812567', 'longitude': '-73.956783953039', 'human_address': '{""address"": """", ""city"": """", ""state"": """", ""zip"": """"}'}",14,44,762,3179801,Midwood,996246,167976
Initial,14309174,PC8702051,1,1010080029,1,1008,29,1361,AVENUE OF THE AMERICAS,10019,40.763158143088,-73.978048246311,Manhattan,2026-05-26T10:02:42.000,Failed for Rat Activity and Other Reason,2026-05-27T08:55:32.000,"{'latitude': '40.763158143088', 'longitude': '-73.978048246311', 'human_address': '{""address"": """", ""city"": """", ""state"": """", ""zip"": """"}'}",5,6,137,1023394,Midtown-Times Square,989685,217615
Treatments,3077747,PC8667230,6,1016870011,1,1687,11,319,EAST 115 STREET,10029,40.796028193205,-73.937626258154,Manhattan,2026-05-26T10:02:52.000,Bait applied,2026-05-29T11:55:44.000,"{'latitude': '40.796028193205', 'longitude': '-73.937626258154', 'human_address': '{""address"": """", ""city"": """", ""state"": """", ""zip"": """"}'}",11,8,188,1052904,East Harlem (North),,
Treatments,3077677,PC8681179,4,2030410007,2,3041,7,444,CYRUS PLACE,10458,40.85868965476,-73.891904949044,Bronx,2026-05-26T10:05:06.000,Bait applied,2026-05-26T14:24:50.000,"{'latitude': '40.85868965476', 'longitude': '-73.891904949044', 'human_address': '{""address"": """", ""city"": """", ""state"": """", ""zip"": """"}'}",6,15,385,2011407,Belmont,,
Treatments,3077660,PC8667064,4,2058600230,2,5860,230,5804,TYNDALL AVENUE,10471,40.905355864218,-73.901520434631,Bronx,2026-05-26T10:05:45.000,Bait applied,2026-05-26T14:33:41.000,"{'latitude': '40.905355864218', 'longitude': '-73.901520434631', 'human_address': '{""address"": """", ""city"": """", ""state"": """", ""zip"": """"}'}",8,11,337,2085037,Riverdale-Spuyten Duyvil,1011472,269141
Treatments,3077614,PC8622207,10,3016480050,3,1648,50,931,PUTNAM AVENUE,11221,40.686989956149,-73.924322454654,Brooklyn,2026-05-26T10:07:00.000,Bait applied,2026-05-26T13:38:41.000,"{'latitude': '40.686989956149', 'longitude': '-73.924322454654', 'human_address': '{""address"": """", ""city"": """", ""state"": """", ""zip"": """"}'}",3,41,385,3045344,Bedford-Stuyvesant (East),1005238,189577
Initial,14309224,PC8722977,1,1018440027,1,1844,27,3,WEST  108 STREET,10025,40.799468874689,-73.959348416021,Manhattan,2026-05-26T10:07:00.000,Failed for Rat Activity and Other Reason,2026-05-28T07:28:48.000,"{'latitude': '40.799468874689', 'longitude': '-73.959348416021', 'human_address': '{""address"": """", ""city"": """", ""state"": """", ""zip"": """"}'}",7,7,193,1055723,Upper West Side-Manhattan Valley,995505,230550
Stoppage,3077639,PC8723113,1,2032110001,2,3211,1,2201,AQUEDUCT AVENUE EAST,10453,40.857263270099,-73.908738817743,Bronx,2026-05-26T10:08:00.000,Stoppage done,2026-05-27T11:54:58.000,"{'latitude': '40.857263270099', 'longitude': '-73.908738817743', 'human_address': '{""address"": """", ""city"": """", ""state"": """", ""zip"": """"}'}",5,14,251,2000000,University Heights (South)-Morris Heights,,
Stoppage,3077646,PC8724275,1,1021210051,1,2121,51,500,West 164 street.,10032,40.837238462182,-73.938895714903,Manhattan,2026-05-26T10:08:00.000,Stoppage done,2026-05-27T11:52:13.000,"{'latitude': '40.837238462182', 'longitude': '-73.938895714903', 'human_address': '{""address"": """", ""city"": """", ""state"": """", ""zip"": """"}'}",12,10,24301,1062903,Washington Heights (South),,
Compliance,14309679,PC8636261,3,2028370009,2,2837,9,1570,WALTON AVENUE,10452,40.843125990257,-73.913380912949,Bronx,2026-05-26T10:08:23.000,Failed for Rat Activity and Other Reason,2026-05-29T10:30:17.000,"{'latitude': '40.843125990257', 'longitude': '-73.913380912949', 'human_address': '{""address"": """", ""city"": """", ""state"": """", ""zip"": """"}'}",4,16,209,2008016,Mount Eden-Claremont (West),,
Compliance,14309063,PC8706034,2,1021370014,1,2137,14,600,WEST  161 STREET,10032,40.83665885072,-73.943330500132,Manhattan,2026-05-26T10:09:25.000,Failed for Rat Activity,2026-05-28T10:37:02.000,"{'latitude': '40.83665885072', 'longitude': '-73.943330500132', 'human_address': '{""address"": """", ""city"": """", ""state"": """", ""zip"": """"}'}",12,7,245,1063351,Washington Heights (South),999931,244102
Treatments,3077779,PC8673246,4,2029630004,2,2963,4,1408,PROSPECT AVENUE,10459,40.832374691419,-73.896595039468,Bronx,2026-05-26T10:10:00.000,Bait applied,2026-05-27T10:53:04.000,"{'latitude': '40.832374691419', 'longitude': '-73.896595039468', 'human_address': '{""address"": """", ""city"": """", ""state"": """", ""zip"": """"}'}",3,17,153,2010209,Crotona Park East,,
Treatments,3077600,PC8557854,11,1020740154,1,2074,154,526,West 143 St,10031,40.82463735049,-73.950249293983,Manhattan,2026-05-26T10:10:17.000,Bait applied,2026-05-28T08:04:30.000,"{'latitude': '40.82463735049', 'longitude': '-73.950249293983', 'human_address': '{""address"": """", ""city"": """", ""state"": """", ""zip"": """"}'}",9,7,229,1061878,Hamilton Heights-Sugar Hill,,
Initial,14309351,PC8712748,1,3032467501,3,3246,7501,165,STOCKHOLM STREET,11237,40.699595620033,-73.922699618776,Brooklyn,2026-05-26T10:11:39.000,Failed for Rat Activity,2026-05-29T10:52:35.000,"{'latitude': '40.699595620033', 'longitude': '-73.922699618776', 'human_address': '{""address"": """", ""city"": """", ""state"": """", ""zip"": """"}'}",4,37,429,3402017,Bushwick (West),,
Initial,14309011,PC8722293,1,2023810049,2,2381,49,454,EAST 160 STREET,10451,40.822975997506,-73.912251034742,Bronx,2026-05-26T10:12:00.000,Failed for Rat Activity,2026-05-27T10:04:48.000,"{'latitude': '40.822975997506', 'longitude': '-73.912251034742', 'human_address': '{""address"": """", ""city"": """", ""state"": """", ""zip"": """"}'}",3,17,141,2001482,Morrisania,,
Initial,14308955,PC8724994,1,2027620085,2,2762,85,830,FAILE STREET,10474,40.817687070039,-73.887307598678,Bronx,2026-05-26T10:12:00.000,Failed for Other Reason,2026-05-27T10:18:17.000,"{'latitude': '40.817687070039', 'longitude': '-73.887307598678', 'human_address': '{""address"": """", ""city"": """", ""state"": """", ""zip"": """"}'}",2,17,11502,2006452,Hunts Point,,
Treatments,3077737,PC8700243,3,1017510009,1,1751,9,19,EAST 126 STREET,10035,40.806761935338,-73.940986405712,Manhattan,2026-05-26T10:12:00.000,Monitoring visit,2026-05-28T07:46:06.000,"{'latitude': '40.806761935338', 'longitude': '-73.940986405712', 'human_address': '{""address"": """", ""city"": """", ""state"": """", ""zip"": """"}'}",11,9,206,1054083,East Harlem (North),,
Treatments,3077701,PC8692047,5,1012110002,1,1211,2,423,AMSTERDAM AVENUE,10024,40.784004487778,-73.977680244302,Manhattan,2026-05-26T10:13:07.000,Bait applied,2026-05-27T14:27:47.000,"{'latitude': '40.784004487778', 'longitude': '-73.977680244302', 'human_address': '{""address"": """", ""city"": """", ""state"": """", ""zip"": """"}'}",7,6,165,1031949,Upper West Side (Central),,
Treatments,3077599,PC8557853,12,1020740055,1,2074,55,528,West 143 St,10031,40.824648340404,-73.950274578423,Manhattan,2026-05-26T10:15:17.000,Bait applied,2026-05-28T08:05:01.000,"{'latitude': '40.824648340404', 'longitude': '-73.950274578423', 'human_address': '{""address"": """", ""city"": """", ""state"": """", ""zip"": """"}'}",9,7,229,1061869,Hamilton Heights-Sugar Hill,,
Treatments,3077725,PC8645521,6,4019640001,4,1964,1,59-30,108 STREET,11368,40.738958475848,-73.852723123853,Queens,2026-05-26T10:15:51.000,Bait applied,2026-05-29T10:57:06.000,"{'latitude': '40.738958475848', 'longitude': '-73.852723123853', 'human_address': '{""address"": """", ""city"": """", ""state"": """", ""zip"": """"}'}",4,21,43701,4048307,Corona,,
Treatments,3077752,PC8650112,3,1017010001,1,1701,1,2110,1 AVENUE,10029,40.791373711024,-73.938768235756,Manhattan,2026-05-26T10:17:23.000,Bait applied,2026-05-29T11:49:31.000,"{'latitude': '40.791373711024', 'longitude': '-73.938768235756', 'human_address': '{""address"": """", ""city"": """", ""state"": """", ""zip"": """"}'}",11,8,162,1083954,East Harlem (South),1001205,227604
Initial,14309000,PC8721054,1,2023510012,2,2351,12,445,GERARD AVENUE,10451,40.81739157467,-73.929871054145,Bronx,2026-05-26T10:18:00.000,Failed for Other Reason,2026-05-27T10:41:35.000,"{'latitude': '40.81739157467', 'longitude': '-73.929871054145', 'human_address': '{""address"": """", ""city"": """", ""state"": """", ""zip"": """"}'}",1,8,6301,2129137,Concourse-Concourse Village,1003661,237085
Initial,14309180,PC8724975,1,1010610029,1,1061,29,761,9 AVENUE,10019,40.764246580406,-73.988401226584,Manhattan,2026-05-26T10:18:17.000,Failed for Other Reason,2026-05-27T12:56:31.000,"{'latitude': '40.764246580406', 'longitude': '-73.988401226584', 'human_address': '{""address"": """", ""city"": """", ""state"": """", ""zip"": """"}'}",4,3,133,1026720,Hell's Kitchen,,
Initial,14309647,PC8721289,1,2026140026,2,2614,26,612,EAST 168 STREET,10456,40.830168194941,-73.90321126739,Bronx,2026-05-26T10:18:17.000,Failed for Other Reason,2026-05-28T11:08:45.000,"{'latitude': '40.830168194941', 'longitude': '-73.90321126739', 'human_address': '{""address"": """", ""city"": """", ""state"": """", ""zip"": """"}'}",3,17,18502,2004280,Morrisania,,
Treatments,3077717,PC8697489,3,1019300059,1,1930,59,268,WEST 125 STREET,10027,40.809815780231,-73.950354338977,Manhattan,2026-05-26T10:19:00.000,Bait applied,2026-05-29T11:23:37.000,"{'latitude': '40.809815780231', 'longitude': '-73.950354338977', 'human_address': '{""address"": """", ""city"": """", ""state"": """", ""zip"": """"}'}",10,9,222,1058651,Harlem (South),,
Treatments,3077676,PC8681595,4,2030410010,2,3041,10,450,CYRUS PLACE,10458,40.85859611616,-73.891673735583,Bronx,2026-05-26T10:20:16.000,Bait applied,2026-05-26T14:25:15.000,"{'latitude': '40.85859611616', 'longitude': '-73.891673735583', 'human_address': '{""address"": """", ""city"": """", ""state"": """", ""zip"": """"}'}",6,15,385,2011410,Belmont,,
Treatments,3077594,PC8557852,12,1020740055,1,2074,55,528,West 143 St,10031,40.824648340404,-73.950274578423,Manhattan,2026-05-26T10:20:17.000,Bait applied,2026-05-28T08:05:33.000,"{'latitude': '40.824648340404', 'longitude': '-73.950274578423', 'human_address': '{""address"": """", ""city"": """", ""state"": """", ""zip"": """"}'}",9,7,229,1061869,Hamilton Heights-Sugar Hill,,
Treatments,3077661,PC8645728,3,2058630109,2,5863,109,5654,RIVERDALE AVENUE,10471,40.905558717994,-73.904472142443,Bronx,2026-05-26T10:20:24.000,Bait applied,2026-05-26T14:33:26.000,"{'latitude': '40.905558717994', 'longitude': '-73.904472142443', 'human_address': '{""address"": """", ""city"": """", ""state"": """", ""zip"": """"}'}",8,11,337,2085158,Riverdale-Spuyten Duyvil,,
Treatments,3077688,PC8598306,7,3067120068,3,6712,68,1430,OCEAN AVENUE,11230,40.627181541757,-73.95668343071,Brooklyn,2026-05-26T10:20:39.000,Bait applied,2026-05-26T14:40:13.000,"{'latitude': '40.627181541757', 'longitude': '-73.95668343071', 'human_address': '{""address"": """", ""city"": """", ""state"": """", ""zip"": """"}'}",14,44,762,3179804,Midwood,996274,167781
Stoppage,3077647,PC8716711,1,1021360111,1,2136,111,894,Riverside Drive,10032,40.837774899415,-73.946856767947,Manhattan,2026-05-26T10:21:00.000,Stoppage done,2026-05-27T11:52:06.000,"{'latitude': '40.837774899415', 'longitude': '-73.946856767947', 'human_address': '{""address"": """", ""city"": """", ""state"": """", ""zip"": """"}'}",12,7,247,1063327,Washington Heights (South),,
Treatments,3077758,PC8469607,30,1011680029,1,1168,29,340,AMSTERDAM AVENUE,10024,40.781240900337,-73.979721319327,Manhattan,2026-05-26T10:21:25.000,Bait applied,2026-05-28T08:58:07.000,"{'latitude': '40.781240900337', 'longitude': '-73.979721319327', 'human_address': '{""address"": """", ""city"": """", ""state"": """", ""zip"": """"}'}",7,6,163,1077359,Upper West Side (Central),,
Initial,14309648,PC8721540,1,2026140019,2,2614,19,1208,FRANKLIN AVENUE,10456,40.830053392532,-73.903778760436,Bronx,2026-05-26T10:22:00.000,Failed for Rat Activity and Other Reason,2026-05-28T11:26:44.000,"{'latitude': '40.830053392532', 'longitude': '-73.903778760436', 'human_address': '{""address"": """", ""city"": """", ""state"": """", ""zip"": """"}'}",3,17,18502,2113111,Morrisania,,
Compliance,14308990,PC8703155,2,3064410035,3,6441,35,8762,20 AVENUE,11214,40.60122405239,-74.001775343765,Brooklyn,2026-05-26T10:22:32.000,Failed for Other Reason,2026-05-27T11:08:53.000,"{'latitude': '40.60122405239', 'longitude': '-74.001775343765', 'human_address': '{""address"": """", ""city"": """", ""state"": """", ""zip"": """"}'}",11,47,282,3168793,Bath Beach,983757,158321
Initial,14309225,PC8719008,1,1018430051,1,1843,51,169,MANHATTAN AVENUE,10025,40.799672471142,-73.960742476963,Manhattan,2026-05-26T10:23:00.000,Failed for Rat Activity and Other Reason,2026-05-28T07:30:30.000,"{'latitude': '40.799672471142', 'longitude': '-73.960742476963', 'human_address': '{""address"": """", ""city"": """", ""state"": """", ""zip"": """"}'}",7,7,193,1055699,Upper West Side-Manhattan Valley,995119,230624
Compliance,14309588,PC8692314,2,1016310025,1,1631,25,159,EAST  103 STREET,10029,40.790120808031,-73.947212753127,Manhattan,2026-05-26T10:23:00.000,Failed for Rat Activity and Other Reason,2026-05-28T07:50:40.000,"{'latitude': '40.790120808031', 'longitude': '-73.947212753127', 'human_address': '{""address"": """", ""city"": """", ""state"": """", ""zip"": """"}'}",11,8,166,1051917,East Harlem (South),998867,227146
Treatments,3077777,PC8673092,4,2029630040,2,2963,40,801,JENNINGS STREET,10459,40.832071930713,-73.895666804288,Bronx,2026-05-26T10:25:00.000,Bait applied,2026-05-27T10:53:37.000,"{'latitude': '40.832071930713', 'longitude': '-73.895666804288', 'human_address': '{""address"": """", ""city"": """", ""state"": """", ""zip"": """"}'}",3,17,153,2010227,Crotona Park East,,
Compliance,14308932,PC8567866,4,2024650025,2,2465,25,1240,WALTON AVENUE,10452,40.835872886835,-73.918836471018,Bronx,2026-05-26T10:25:23.000,Failed for Other Reason,2026-05-27T10:19:34.000,"{'latitude': '40.835872886835', 'longitude': '-73.918836471018', 'human_address': '{""address"": """", ""city"": """", ""state"": """", ""zip"": """"}'}",4,16,197,2002852,Concourse-Concourse Village,,
Initial,14309356,PC8714247,1,3032460039,3,3246,39,193,STOCKHOLM STREET,11237,40.700094836541,-73.922208558393,Brooklyn,2026-05-26T10:25:31.000,Failed for Rat Activity,2026-05-29T10:52:02.000,"{'latitude': '40.700094836541', 'longitude': '-73.922208558393', 'human_address': '{""address"": """", ""city"": """", ""state"": """", ""zip"": """"}'}",4,37,429,3073845,Bushwick (West),,
Compliance,14309177,PC8679304,2,1010450025,1,1045,25,311,WEST 54 STREET,10019,40.765055877453,-73.98490660962,Manhattan,2026-05-26T10:25:42.000,Failed for Rat Activity and Other Reason,2026-05-27T09:00:10.000,"{'latitude': '40.765055877453', 'longitude': '-73.98490660962', 'human_address': '{""address"": """", ""city"": """", ""state"": """", ""zip"": """"}'}",4,3,139,1025413,Hell's Kitchen,,
Treatments,3077617,PC8690823,5,3016520015,3,1652,15,820,PUTNAM AVENUE,11221,40.686465799587,-73.928754488385,Brooklyn,2026-05-26T10:26:00.000,Bait applied,2026-05-26T13:36:20.000,"{'latitude': '40.686465799587', 'longitude': '-73.928754488385', 'human_address': '{""address"": """", ""city"": """", ""state"": """", ""zip"": """"}'}",3,36,385,3045542,Bedford-Stuyvesant (East),1004009,189385
Stoppage,3077642,PC8721769,1,2031740030,2,3174,30,2481,CRESTON AVENUE,10468,40.862496926957,-73.89827975481,Bronx,2026-05-26T10:26:00.000,Stoppage done,2026-05-27T11:53:34.000,"{'latitude': '40.862496926957', 'longitude': '-73.89827975481', 'human_address': '{""address"": """", ""city"": """", ""state"": """", ""zip"": """"}'}",7,14,401,2013926,University Heights (North)-Fordham,,
Treatments,3077604,PC8560502,43,1020750001,1,2075,1,3502,Broadway,10031,40.825269083716,-73.951282216525,Manhattan,2026-05-26T10:26:17.000,Bait applied,2026-05-28T08:06:11.000,"{'latitude': '40.825269083716', 'longitude': '-73.951282216525', 'human_address': '{""address"": """", ""city"": """", ""state"": """", ""zip"": """"}'}",9,7,229,1061879,Hamilton Heights-Sugar Hill,,
Initial,14309013,PC8722084,1,2023810062,2,2381,62,467,EAST 159 STREET,10451,40.822287150457,-73.912360340013,Bronx,2026-05-26T10:26:35.000,Failed for Rat Activity,2026-05-27T10:06:43.000,"{'latitude': '40.822287150457', 'longitude': '-73.912360340013', 'human_address': '{""address"": """", ""city"": """", ""state"": """", ""zip"": """"}'}",3,17,141,2001486,Morrisania,,
Initial,14309184,PC8725289,1,1010610031,1,1061,31,765,9 AVENUE,10019,40.764334406058,-73.988336232021,Manhattan,2026-05-26T10:28:42.000,Failed for Rat Activity,2026-05-27T12:53:56.000,"{'latitude': '40.764334406058', 'longitude': '-73.988336232021', 'human_address': '{""address"": """", ""city"": """", ""state"": """", ""zip"": """"}'}",4,3,133,1026722,Hell's Kitchen,,
Treatments,3077736,PC8700288,3,1017510001,1,1751,1,2041,5 AVENUE,10035,40.807220651138,-73.941657883711,Manhattan,2026-05-26T10:29:00.000,Bait applied,2026-05-28T07:46:33.000,"{'latitude': '40.807220651138', 'longitude': '-73.941657883711', 'human_address': '{""address"": """", ""city"": """", ""state"": """", ""zip"": """"}'}",11,9,206,1054079,East Harlem (North),,
Initial,14309649,PC8721207,1,2026140017,2,2614,17,1204,FRANKLIN AVENUE,10456,40.829998549213,-73.903840270141,Bronx,2026-05-26T10:30:36.000,Failed for Other Reason,2026-05-28T11:27:59.000,"{'latitude': '40.829998549213', 'longitude': '-73.903840270141', 'human_address': '{""address"": """", ""city"": """", ""state"": """", ""zip"": """"}'}",3,17,18502,2004279,Morrisania,,
Treatments,3077690,PC8386187,15,3067120086,3,6712,86,1464,OCEAN AVENUE,11230,40.626577644434,-73.956564942432,Brooklyn,2026-05-26T10:30:39.000,Bait applied,2026-05-26T14:42:21.000,"{'latitude': '40.626577644434', 'longitude': '-73.956564942432', 'human_address': '{""address"": """", ""city"": """", ""state"": """", ""zip"": """"}'}",14,44,762,3179812,Midwood,996307,167561
Treatments,3077605,PC8560503,38,1020900029,1,2090,29,3501,Broadway,10031,40.825227935583,-73.95133644586,Manhattan,2026-05-26T10:31:17.000,Bait applied,2026-05-28T08:06:48.000,"{'latitude': '40.825227935583', 'longitude': '-73.95133644586', 'human_address': '{""address"": """", ""city"": """", ""state"": """", ""zip"": """"}'}",9,7,229,1062361,Hamilton Heights-Sugar Hill,,
Stoppage,3077643,PC8721083,1,2031480023,2,3148,23,272,EAST FORDHAM ROAD,10458,40.86215122357,-73.895369978224,Bronx,2026-05-26T10:32:00.000,Stoppage done,2026-05-27T11:53:00.000,"{'latitude': '40.86215122357', 'longitude': '-73.895369978224', 'human_address': '{""address"": """", ""city"": """", ""state"": """", ""zip"": """"}'}",5,15,39902,2013479,Fordham Heights,,
Initial,14309187,PC8724641,1,1010610032,1,1061,32,767,9 AVENUE,10019,40.76437831887,-73.988303734675,Manhattan,2026-05-26T10:32:02.000,Failed for Rat Activity,2026-05-27T12:52:56.000,"{'latitude': '40.76437831887', 'longitude': '-73.988303734675', 'human_address': '{""address"": """", ""city"": """", ""state"": """", ""zip"": """"}'}",4,3,133,1082887,Hell's Kitchen,,
Initial,14309358,PC8715348,1,3032460037,3,3246,37,197,STOCKHOLM STREET,11237,40.700166154061,-73.922139951935,Brooklyn,2026-05-26T10:32:31.000,Failed for Rat Activity,2026-05-29T10:51:05.000,"{'latitude': '40.700166154061', 'longitude': '-73.922139951935', 'human_address': '{""address"": """", ""city"": """", ""state"": """", ""zip"": """"}'}",4,37,429,3073843,Bushwick (West),,
Treatments,3077728,PC8671710,5,4019450001,4,1945,1,99-04,57 AVENUE,11368,40.738415733465,-73.859872868162,Queens,2026-05-26T10:33:51.000,Bait applied,2026-05-29T10:57:42.000,"{'latitude': '40.738415733465', 'longitude': '-73.859872868162', 'human_address': '{""address"": """", ""city"": """", ""state"": """", ""zip"": """"}'}",4,21,43702,4431741,Corona,,
Initial,14309014,PC8722430,1,2023810063,2,2381,63,465,EAST 159 STREET,10451,40.822300904475,-73.91240006609,Bronx,2026-05-26T10:34:22.000,Failed for Other Reason,2026-05-27T10:07:35.000,"{'latitude': '40.822300904475', 'longitude': '-73.91240006609', 'human_address': '{""address"": """", ""city"": """", ""state"": """", ""zip"": """"}'}",3,17,141,2000000,Morrisania,,
Compliance,14309636,PC8705414,2,1007400037,1,740,37,139,8 AVENUE,10011,40.741517800639,-74.001245006676,Manhattan,2026-05-26T10:34:27.000,Failed for Other Reason,2026-05-27T10:09:35.000,"{'latitude': '40.741517800639', 'longitude': '-74.001245006676', 'human_address': '{""address"": """", ""city"": """", ""state"": """", ""zip"": """"}'}",4,3,83,1013054,Chelsea-Hudson Yards,,
Initial,14309650,PC8721635,1,2026140015,2,2614,15,1200,FRANKLIN AVENUE,10456,40.829940961122,-73.903901783724,Bronx,2026-05-26T10:34:58.000,Failed for Other Reason,2026-05-28T11:28:38.000,"{'latitude': '40.829940961122', 'longitude': '-73.903901783724', 'human_address': '{""address"": """", ""city"": """", ""state"": """", ""zip"": """"}'}",3,17,18502,2004278,Morrisania,,
Compliance,14309178,PC8683709,2,1010230006,1,1023,6,245,WEST   51 STREET,10019,40.762431833901,-73.984492073505,Manhattan,2026-05-26T10:35:00.000,Failed for Rat Activity and Other Reason,2026-05-27T09:15:09.000,"{'latitude': '40.762431833901', 'longitude': '-73.984492073505', 'human_address': '{""address"": """", ""city"": """", ""state"": """", ""zip"": """"}'}",5,3,131,1024816,Midtown-Times Square,988546,217054
Initial,14309380,PC8722527,1,2032960027,2,3296,27,2886,BRIGGS AVENUE,10458,40.869692321956,-73.888036273208,Bronx,2026-05-26T10:35:00.000,Failed for Rat Activity,2026-05-29T09:42:56.000,"{'latitude': '40.869692321956', 'longitude': '-73.888036273208', 'human_address': '{""address"": """", ""city"": """", ""state"": """", ""zip"": """"}'}",7,15,40702,2016911,Bedford Park,1015216,256152
Treatments,3077681,PC8700640,3,2030650038,2,3065,38,576,EAST 187 STREET,10458,40.855894752585,-73.888236722152,Bronx,2026-05-26T10:35:02.000,Bait applied,2026-05-26T14:23:25.000,"{'latitude': '40.855894752585', 'longitude': '-73.888236722152', 'human_address': '{""address"": """", ""city"": """", ""state"": """", ""zip"": """"}'}",6,15,391,2011893,Belmont,,
Treatments,3077662,PC8650387,4,2059030283,2,5903,283,3611,HENRY HUDSON PARKWAY WEST,10463,40.887348131925,-73.912140421994,Bronx,2026-05-26T10:35:21.000,Bait applied,2026-05-26T14:33:09.000,"{'latitude': '40.887348131925', 'longitude': '-73.912140421994', 'human_address': '{""address"": """", ""city"": """", ""state"": """", ""zip"": """"}'}",8,11,30701,2085775,Riverdale-Spuyten Duyvil,1008543,262577
Compliance,14309110,PC8634440,2,1022200031,1,2220,31,48,POST AVENUE,10034,40.863202798951,-73.923705395443,Manhattan,2026-05-26T10:35:25.000,Failed for Rat Activity and Other Reason,2026-05-28T10:40:17.000,"{'latitude': '40.863202798951', 'longitude': '-73.923705395443', 'human_address': '{""address"": """", ""city"": """", ""state"": """", ""zip"": """"}'}",12,10,291,1064755,Inwood,1005353,253777
Initial,14309226,PC8723835,1,1018420042,1,1842,42,14,WEST  107 STREET,10025,40.798936655823,-73.960096393195,Manhattan,2026-05-26T10:36:00.000,Failed for Rat Activity and Other Reason,2026-05-28T07:31:34.000,"{'latitude': '40.798936655823', 'longitude': '-73.960096393195', 'human_address': '{""address"": """", ""city"": """", ""state"": """", ""zip"": """"}'}",7,7,193,1055663,Upper West Side-Manhattan Valley,995298,230356
Treatments,3077606,PC8560507,42,1020900036,1,2090,36,3513,Broadway,10031,40.825601103613,-73.951061561613,Manhattan,2026-05-26T10:37:17.000,Bait applied,2026-05-28T08:07:27.000,"{'latitude': '40.825601103613', 'longitude': '-73.951061561613', 'human_address': '{""address"": """", ""city"": """", ""state"": """", ""zip"": """"}'}",9,7,229,1062362,Hamilton Heights-Sugar Hill,,
Stoppage,3077648,PC8632400,12,1021150032,1,2115,32,504,WEST 157 STREET,10032,40.83303262159,-73.942466313008,Manhattan,2026-05-26T10:38:00.000,Stoppage done,2026-05-27T11:51:44.000,"{'latitude': '40.83303262159', 'longitude': '-73.942466313008', 'human_address': '{""address"": """", ""city"": """", ""state"": """", ""zip"": """"}'}",12,10,241,1062711,Washington Heights (South),,
Treatments,3077718,PC8697571,3,1019300001,1,1930,1,2310,FREDRICK DOUGLASS BL,10027,40.809582999757,-73.951579123754,Manhattan,2026-05-26T10:38:00.000,Bait applied,2026-05-29T11:23:30.000,"{'latitude': '40.809582999757', 'longitude': '-73.951579123754', 'human_address': '{""address"": """", ""city"": """", ""state"": """", ""zip"": """"}'}",10,9,222,1058638,Harlem (South),,
Treatments,3077776,PC8672925,4,2029640001,2,2964,1,825,JENNINGS STREET,10459,40.832175307368,-73.894654818528,Bronx,2026-05-26T10:40:00.000,Bait applied,2026-05-27T10:53:58.000,"{'latitude': '40.832175307368', 'longitude': '-73.894654818528', 'human_address': '{""address"": """", ""city"": """", ""state"": """", ""zip"": """"}'}",3,17,153,2010241,Crotona Park East,,
Initial,14309221,PC8725315,1,1010590015,1,1059,15,409,WEST 49 STREET,10019,40.763104911104,-73.989993387289,Manhattan,2026-05-26T10:40:50.000,Failed for Rat Activity,2026-05-27T12:48:22.000,"{'latitude': '40.763104911104', 'longitude': '-73.989993387289', 'human_address': '{""address"": """", ""city"": """", ""state"": """", ""zip"": """"}'}",4,3,127,1026646,Hell's Kitchen,,
Compliance,14309635,PC8705585,2,1007410036,1,741,36,155,8 AVENUE,10011,40.742061267265,-74.000851663715,Manhattan,2026-05-26T10:42:00.000,Failed for Rat Activity,2026-05-27T10:10:31.000,"{'latitude': '40.742061267265', 'longitude': '-74.000851663715', 'human_address': '{""address"": """", ""city"": """", ""state"": """", ""zip"": """"}'}",4,3,83,1013081,Chelsea-Hudson Yards,,
Treatments,3077608,PC8560508,31,1020900036,1,2090,36,3513,Broadway,10031,40.825601103613,-73.951061561613,Manhattan,2026-05-26T10:42:17.000,Bait applied,2026-05-28T08:08:03.000,"{'latitude': '40.825601103613', 'longitude': '-73.951061561613', 'human_address': '{""address"": """", ""city"": """", ""state"": """", ""zip"": """"}'}",9,7,229,1062362,Hamilton Heights-Sugar Hill,,
Compliance,14308936,PC8631016,3,2024740032,2,2474,32,840,GERARD AVENUE,10451,40.8267537982,-73.925366133079,Bronx,2026-05-26T10:42:23.000,Failed for Other Reason,2026-05-27T10:20:53.000,"{'latitude': '40.8267537982', 'longitude': '-73.925366133079', 'human_address': '{""address"": """", ""city"": """", ""state"": """", ""zip"": """"}'}",4,16,6301,2002905,Concourse-Concourse Village,1004905,240497
Treatments,3077759,PC8604436,15,1011710132,1,1171,132,160,RIVERSIDE BOULEVARD,10069,40.777800215888,-73.988716597278,Manhattan,2026-05-26T10:42:25.000,Bait applied,2026-05-28T08:58:06.000,"{'latitude': '40.777800215888', 'longitude': '-73.988716597278', 'human_address': '{""address"": """", ""city"": """", ""state"": """", ""zip"": """"}'}",7,6,15502,1085804,Upper West Side-Lincoln Square,987375,222653
Initial,14309015,PC8721876,1,2023810064,2,2381,64,463,EAST 159 STREET,10451,40.822311913739,-73.912439795808,Bronx,2026-05-26T10:42:39.000,Failed for Other Reason,2026-05-27T10:08:05.000,"{'latitude': '40.822311913739', 'longitude': '-73.912439795808', 'human_address': '{""address"": """", ""city"": """", ""state"": """", ""zip"": """"}'}",3,17,141,2000000,Morrisania,,
Treatments,3077753,PC8700250,3,1017080022,1,1708,22,265,PLEASANT AVENUE,10029,40.793984044065,-73.933951601496,Manhattan,2026-05-26T10:42:53.000,Bait applied,2026-05-29T11:46:39.000,"{'latitude': '40.793984044065', 'longitude': '-73.933951601496', 'human_address': '{""address"": """", ""city"": """", ""state"": """", ""zip"": """"}'}",11,8,178,1053018,East Harlem (North),,
Treatments,3077616,PC8579667,8,3016470081,3,1647,81,805,PUTNAM AVENUE,11221,40.686465882427,-73.928887900134,Brooklyn,2026-05-26T10:45:00.000,Bait applied,2026-05-26T13:36:50.000,"{'latitude': '40.686465882427', 'longitude': '-73.928887900134', 'human_address': '{""address"": """", ""city"": """", ""state"": """", ""zip"": """"}'}",3,36,385,3045309,Bedford-Stuyvesant (East),,
Initial,14309001,PC8721049,1,2026170050,2,2617,50,725,EAGLE AVENUE,10455,40.818349379072,-73.910020774171,Bronx,2026-05-26T10:45:00.000,Failed for Rat Activity,2026-05-27T10:43:14.000,"{'latitude': '40.818349379072', 'longitude': '-73.910020774171', 'human_address': '{""address"": """", ""city"": """", ""state"": """", ""zip"": """"}'}",1,17,75,2004329,Melrose,1009155,237439
Treatments,3077743,PC8700282,3,1017517501,1,1751,7501,1856,PARK AVENUE,10035,40.806208774592,-73.938198251283,Manhattan,2026-05-26T10:45:00.000,Bait applied,2026-05-28T07:48:04.000,"{'latitude': '40.806208774592', 'longitude': '-73.938198251283', 'human_address': '{""address"": """", ""city"": """", ""state"": """", ""zip"": """"}'}",11,9,206,1091567,East Harlem (North),,
Stoppage,3077637,PC8725473,1,2030730044,2,3073,44,2398,ARTHUR AVENUE,10458,40.855427581171,-73.887655507722,Bronx,2026-05-26T10:46:00.000,Stoppage done,2026-05-27T11:55:15.000,"{'latitude': '40.855427581171', 'longitude': '-73.887655507722', 'human_address': '{""address"": """", ""city"": """", ""state"": """", ""zip"": """"}'}",6,15,391,2118244,Belmont,,
Treatments,3077607,PC8560505,41,1020750061,1,2075,61,3512,Broadway,10031,40.825510545646,-73.951104987931,Manhattan,2026-05-26T10:47:17.000,Bait applied,2026-05-28T04:48:08.000,"{'latitude': '40.825510545646', 'longitude': '-73.951104987931', 'human_address': '{""address"": """", ""city"": """", ""state"": """", ""zip"": """"}'}",9,7,229,1061895,Hamilton Heights-Sugar Hill,,
Compliance,14308922,PC8697369,2,1020257501,1,2025,7501,202,WEST 140 STREET,10030,40.818680097623,-73.941925993099,Manhattan,2026-05-26T10:49:00.000,Failed for Rat Activity and Other Reason,2026-05-27T15:05:27.000,"{'latitude': '40.818680097623', 'longitude': '-73.941925993099', 'human_address': '{""address"": """", ""city"": """", ""state"": """", ""zip"": """"}'}",10,9,230,1060374,Harlem (North),,
Initial,14309683,PC8724903,1,1010750049,1,1075,49,534,WEST 47 STREET,10036,40.763387929485,-73.994581533288,Manhattan,2026-05-26T10:50:00.000,Failed for Rat Activity and Other Reason,2026-05-28T09:36:40.000,"{'latitude': '40.763387929485', 'longitude': '-73.994581533288', 'human_address': '{""address"": """", ""city"": """", ""state"": """", ""zip"": """"}'}",4,3,12902,1026977,Hell's Kitchen,,
Treatments,3077655,PC8624217,8,2057440048,2,5744,48,750,KAPPOCK STREET,10463,40.882130554579,-73.919846613486,Bronx,2026-05-26T10:50:01.000,Bait applied,2026-05-26T14:35:25.000,"{'latitude': '40.882130554579', 'longitude': '-73.919846613486', 'human_address': '{""address"": """", ""city"": """", ""state"": """", ""zip"": """"}'}",8,11,29301,2083471,Riverdale-Spuyten Duyvil,1006414,260674
Initial,14309193,PC8724552,1,1010610136,1,1061,136,406,WEST 52 STREET,10019,40.764952001502,-73.988585212734,Manhattan,2026-05-26T10:50:20.000,Failed for Rat Activity,2026-05-27T13:01:55.000,"{'latitude': '40.764952001502', 'longitude': '-73.988585212734', 'human_address': '{""address"": """", ""city"": """", ""state"": """", ""zip"": """"}'}",4,3,133,1026738,Hell's Kitchen,,
Treatments,3077682,PC8682750,3,2031030056,2,3103,56,2307,CROTONA AVENUE,10458,40.852281693912,-73.884461787347,Bronx,2026-05-26T10:50:26.000,Bait applied,2026-05-26T14:23:11.000,"{'latitude': '40.852281693912', 'longitude': '-73.884461787347', 'human_address': '{""address"": """", ""city"": """", ""state"": """", ""zip"": """"}'}",6,15,391,2118364,Belmont,,
Initial,14309016,PC8722209,1,2023810065,2,2381,65,461,EAST 159 STREET,10451,40.82232566773,-73.912479521916,Bronx,2026-05-26T10:50:27.000,Failed for Rat Activity,2026-05-27T10:09:19.000,"{'latitude': '40.82232566773', 'longitude': '-73.912479521916', 'human_address': '{""address"": """", ""city"": """", ""state"": """", ""zip"": """"}'}",3,17,141,2001489,Morrisania,,
Initial,14309454,PC8722651,1,2046450008,2,4645,8,3616,BRONX BOULEVARD,10467,40.880636055414,-73.867831592922,Bronx,2026-05-26T10:52:37.000,Failed for Other Reason,2026-05-27T10:33:50.000,"{'latitude': '40.880636055414', 'longitude': '-73.867831592922', 'human_address': '{""address"": """", ""city"": """", ""state"": """", ""zip"": """"}'}",12,12,378,2057321,Williamsbridge-Olinville,1020798,260147
Compliance,14309191,PC8709272,2,1022370041,1,2237,41,686,ACADEMY STREET,10034,40.867216822779,-73.925580865624,Manhattan,2026-05-26T10:53:25.000,Failed for Rat Activity,2026-05-28T10:41:40.000,"{'latitude': '40.867216822779', 'longitude': '-73.925580865624', 'human_address': '{""address"": """", ""city"": """", ""state"": """", ""zip"": """"}'}",12,10,295,1064942,Inwood,1004833,255239
Treatments,3077727,PC8640697,5,4018530031,4,1853,31,90-46,51 AVENUE,11373,40.739579020676,-73.873626447987,Queens,2026-05-26T10:53:51.000,Bait applied,2026-05-29T10:57:31.000,"{'latitude': '40.739579020676', 'longitude': '-73.873626447987', 'human_address': '{""address"": """", ""city"": """", ""state"": """", ""zip"": """"}'}",4,25,459,4045761,Elmhurst,1019270,208753
Initial,14309194,PC8724785,1,1010617502,1,1061,7502,416,WEST 52 STREET,10019,40.765039854015,-73.988790967303,Manhattan,2026-05-26T10:54:02.000,Failed for Rat Activity,2026-05-27T13:01:01.000,"{'latitude': '40.765039854015', 'longitude': '-73.988790967303', 'human_address': '{""address"": """", ""city"": """", ""state"": """", ""zip"": """"}'}",4,3,133,1080950,Hell's Kitchen,,
Treatments,3077775,PC8672936,4,2029640026,2,2964,26,835,JENNINGS STREET,10459,40.832213395106,-73.8942861651,Bronx,2026-05-26T10:55:00.000,Bait applied,2026-05-27T10:54:12.000,"{'latitude': '40.832213395106', 'longitude': '-73.8942861651', 'human_address': '{""address"": """", ""city"": """", ""state"": """", ""zip"": """"}'}",3,17,153,2010256,Crotona Park East,,
Initial,14309058,PC8727039,1,4005170035,4,517,35,12-16,30 DRIVE,11102,40.769593321443,-73.932506515429,Queens,2026-05-26T10:55:00.000,Failed for Other Reason,2026-05-28T11:29:02.000,"{'latitude': '40.769593321443', 'longitude': '-73.932506515429', 'human_address': '{""address"": """", ""city"": """", ""state"": """", ""zip"": """"}'}",1,22,79,4005732,Old Astoria-Hallets Point,1002945,219670
Compliance,14309591,PC8707684,2,1016280049,1,1628,49,178,EAST 101 STREET,10029,40.788666319968,-73.947715878851,Manhattan,2026-05-26T10:55:17.000,Failed for Rat Activity,2026-05-28T07:52:53.000,"{'latitude': '40.788666319968', 'longitude': '-73.947715878851', 'human_address': '{""address"": """", ""city"": """", ""state"": """", ""zip"": """"}'}",11,8,166,1051812,East Harlem (South),,
Treatments,3077603,PC8558787,9,1020920026,1,2092,26,3543,Broadway,10031,40.826569692997,-73.950352630669,Manhattan,2026-05-26T10:55:17.000,Bait applied,2026-05-28T08:09:10.000,"{'latitude': '40.826569692997', 'longitude': '-73.950352630669', 'human_address': '{""address"": """", ""city"": """", ""state"": """", ""zip"": """"}'}",9,7,229,1062380,Hamilton Heights-Sugar Hill,,
Initial,14308991,PC8720584,1,3064150001,3,6415,1,170,BAY   31 STREET,11214,40.598303554766,-73.996348641918,Brooklyn,2026-05-26T10:55:32.000,Failed for Rat Activity and Other Reason,2026-05-27T11:09:31.000,"{'latitude': '40.598303554766', 'longitude': '-73.996348641918', 'human_address': '{""address"": """", ""city"": """", ""state"": """", ""zip"": """"}'}",11,43,296,3168022,Gravesend (West),985264,157257
Initial,14309100,PC8720550,1,1005250002,1,525,2,173,SULLIVAN STREET,10012,40.728071202233,-74.001024667463,Manhattan,2026-05-26T10:55:44.000,Failed for Rat Activity,2026-05-28T08:18:53.000,"{'latitude': '40.728071202233', 'longitude': '-74.001024667463', 'human_address': '{""address"": """", ""city"": """", ""state"": """", ""zip"": """"}'}",2,2,65,1008245,Greenwich Village,983966,204535
Treatments,3077702,PC8691610,5,1012280036,1,1228,36,434,AMSTERDAM AVENUE,10024,40.784317350045,-73.97747792057,Manhattan,2026-05-26T10:57:48.000,Bait applied,2026-05-27T14:27:48.000,"{'latitude': '40.784317350045', 'longitude': '-73.97747792057', 'human_address': '{""address"": """", ""city"": """", ""state"": """", ""zip"": """"}'}",7,6,167,1032669,Upper West Side (Central),,
Stoppage,3077629,PC8725520,1,2030720005,2,3072,5,611,EAST 183 STREET,10458,40.852941946087,-73.888780306143,Bronx,2026-05-26T10:58:00.000,Stoppage done,2026-05-27T11:58:26.000,"{'latitude': '40.852941946087', 'longitude': '-73.888780306143', 'human_address': '{""address"": """", ""city"": """", ""state"": """", ""zip"": """"}'}",6,15,391,2012105,Belmont,,
Compliance,14309594,PC8622471,5,2033540033,2,3354,33,3225,PARKSIDE PLACE,10467,40.874401581016,-73.874099641942,Bronx,2026-05-26T10:58:01.000,Failed for Rat Activity,2026-05-28T14:43:10.000,"{'latitude': '40.874401581016', 'longitude': '-73.874099641942', 'human_address': '{""address"": """", ""city"": """", ""state"": """", ""zip"": """"}'}",7,11,42901,2018568,Norwood,1019068,257873
Initial,14309017,PC8722396,1,2023810019,2,2381,19,843,ELTON AVENUE,10451,40.822756773398,-73.912717419928,Bronx,2026-05-26T10:58:52.000,Failed for Rat Activity,2026-05-27T10:10:00.000,"{'latitude': '40.822756773398', 'longitude': '-73.912717419928', 'human_address': '{""address"": """", ""city"": """", ""state"": """", ""zip"": """"}'}",3,17,141,2000000,Morrisania,,
Treatments,3077719,PC8693031,3,1019080035,1,1908,35,100,WEST  124 STREET,10027,40.807286117139,-73.946454954277,Manhattan,2026-05-26T10:59:00.000,Bait applied,2026-05-29T11:23:21.000,"{'latitude': '40.807286117139', 'longitude': '-73.946454954277', 'human_address': '{""address"": """", ""city"": """", ""state"": """", ""zip"": """"}'}",10,9,222,1057790,Harlem (South),999073,233400
Compliance,14309306,PC8690659,2,3033660033,3,3366,33,992,MADISON STREET,11221,40.689253338005,-73.91876682541,Brooklyn,2026-05-26T11:00:00.000,Failed for Rat Activity,2026-05-27T12:09:05.000,"{'latitude': '40.689253338005', 'longitude': '-73.91876682541', 'human_address': '{""address"": """", ""city"": """", ""state"": """", ""zip"": """"}'}",4,37,397,3076934,Bushwick (East),,
Compliance,14309227,PC8707286,1,1018610031,1,1861,31,944,COLUMBUS AVENUE,10025,40.79949471042,-73.962685768519,Manhattan,2026-05-26T11:00:00.000,Failed for Rat Activity,2026-05-28T07:32:54.000,"{'latitude': '40.79949471042', 'longitude': '-73.962685768519', 'human_address': '{""address"": """", ""city"": """", ""state"": """", ""zip"": """"}'}",7,7,193,1055968,Upper West Side-Manhattan Valley,,
Stoppage,3077649,PC8725956,1,1020517501,1,2051,7501,330,WEST 145 STREET,10039,40.823453953181,-73.943424892138,Manhattan,2026-05-26T11:01:00.000,Stoppage done,2026-05-27T11:51:10.000,"{'latitude': '40.823453953181', 'longitude': '-73.943424892138', 'human_address': '{""address"": """", ""city"": """", ""state"": """", ""zip"": """"}'}",9,9,227,1090561,Hamilton Heights-Sugar Hill,,
Initial,14309592,PC8727934,1,1016280050,1,1628,50,1575,LEXINGTON AVENUE,10029,40.788732693517,-73.948824490922,Manhattan,2026-05-26T11:01:00.000,Failed for Rat Activity,2026-05-28T07:55:05.000,"{'latitude': '40.788732693517', 'longitude': '-73.948824490922', 'human_address': '{""address"": """", ""city"": """", ""state"": """", ""zip"": """"}'}",11,8,166,1051813,East Harlem (South),,
Initial,14310268,PC8724232,1,1017630001,1,1763,1,2289,5 AVENUE,10037,40.814938613638,-73.936011647631,Manhattan,2026-05-26T11:01:20.000,Failed for Other Reason,2026-05-28T08:24:38.000,"{'latitude': '40.814938613638', 'longitude': '-73.936011647631', 'human_address': '{""address"": """", ""city"": """", ""state"": """", ""zip"": """"}'}",11,9,210,1054344,East Harlem (North),1001962,236190
Initial,14309455,PC8722648,1,2046450009,2,4645,9,3618,BRONX BOULEVARD,10467,40.880666230704,-73.867817067501,Bronx,2026-05-26T11:02:37.000,Failed for Other Reason,2026-05-27T10:34:42.000,"{'latitude': '40.880666230704', 'longitude': '-73.867817067501', 'human_address': '{""address"": """", ""city"": """", ""state"": """", ""zip"": """"}'}",12,12,378,2057322,Williamsbridge-Olinville,1020802,260158
Initial,14309234,PC8724632,1,1010590006,1,1059,6,459,WEST 49 STREET,10019,40.763533176981,-73.991004098186,Manhattan,2026-05-26T11:02:56.000,Failed for Rat Activity,2026-05-27T12:46:51.000,"{'latitude': '40.763533176981', 'longitude': '-73.991004098186', 'human_address': '{""address"": """", ""city"": """", ""state"": """", ""zip"": """"}'}",4,3,127,1026643,Hell's Kitchen,,
Treatments,3077620,PC8659982,4,3016490037,3,1649,37,640,PUTNAM AVENUE,11221,40.685591942139,-73.936352588778,Brooklyn,2026-05-26T11:04:00.000,Monitoring visit,2026-05-26T13:34:49.000,"{'latitude': '40.685591942139', 'longitude': '-73.936352588778', 'human_address': '{""address"": """", ""city"": """", ""state"": """", ""zip"": """"}'}",3,36,275,3045370,Bedford-Stuyvesant (East),,
Treatments,3077602,PC8560173,11,,1,2090,21,617,West 143,,0.00000000000000000000,0.00000000000000000000,Manhattan,2026-05-26T11:04:17.000,Bait applied,2026-05-28T08:09:48.000,"{'latitude': '0.0', 'longitude': '0.0', 'human_address': '{""address"": """", ""city"": """", ""state"": """", ""zip"": """"}'}",,,,,,,
Initial,14309381,PC8721709,1,2032900065,2,3290,65,319,EAST  197 STREET,10458,40.866858013068,-73.889064263214,Bronx,2026-05-26T11:05:00.000,Failed for Other Reason,2026-05-29T11:52:33.000,"{'latitude': '40.866858013068', 'longitude': '-73.889064263214', 'human_address': '{""address"": """", ""city"": """", ""state"": """", ""zip"": """"}'}",7,15,40502,2016730,Bedford Park,1014933,255119
Treatments,3078077,PC8668749,7,1017090016,1,1709,16,438,EAST 116 STREET,10029,40.7954141163,-73.934051303357,Manhattan,2026-05-26T11:05:10.000,Bait applied,2026-05-29T14:17:28.000,"{'latitude': '40.7954141163', 'longitude': '-73.934051303357', 'human_address': '{""address"": """", ""city"": """", ""state"": """", ""zip"": """"}'}",11,8,178,1081443,East Harlem (North),,
Treatments,3077656,PC8621228,7,2057590573,2,5759,573,3411,IRWIN AVENUE,10463,40.884134706909,-73.906014737616,Bronx,2026-05-26T11:05:46.000,Bait applied,2026-05-26T14:35:08.000,"{'latitude': '40.884134706909', 'longitude': '-73.906014737616', 'human_address': '{""address"": """", ""city"": """", ""state"": """", ""zip"": """"}'}",8,11,285,2083678,Kingsbridge-Marble Hill,1010231,261400
Treatments,3077675,PC8682810,4,2030970074,2,3097,74,2158,CLINTON AVENUE,10457,40.849269868353,-73.88636108229,Bronx,2026-05-26T11:07:00.000,Bait applied,2026-05-26T14:25:30.000,"{'latitude': '40.849269868353', 'longitude': '-73.88636108229', 'human_address': '{""address"": """", ""city"": """", ""state"": """", ""zip"": """"}'}",6,15,371,2012756,Tremont,,
Initial,14309179,PC8721006,1,1012617501,1,1261,7501,1166,6 AVENUE,10036,40.75699692934,-73.982526135203,Manhattan,2026-05-26T11:07:42.000,Failed for Rat Activity and Other Reason,2026-05-27T09:29:55.000,"{'latitude': '40.75699692934', 'longitude': '-73.982526135203', 'human_address': '{""address"": """", ""city"": """", ""state"": """", ""zip"": """"}'}",5,4,96,1071414,Midtown-Times Square,989091,215074
Treatments,3077601,PC8560174,12,1020900019,1,2090,19,619,West 143 St,10031,40.825351686306,-73.95190002663,Manhattan,2026-05-26T11:09:17.000,Bait applied,2026-05-28T08:10:20.000,"{'latitude': '40.825351686306', 'longitude': '-73.95190002663', 'human_address': '{""address"": """", ""city"": """", ""state"": """", ""zip"": """"}'}",9,7,229,1062358,Hamilton Heights-Sugar Hill,,
Stoppage,3077640,PC8722657,1,2031460055,2,3146,55,2345,TIEBOUT AVENUE,10458,40.857834878686,-73.89660591292,Bronx,2026-05-26T11:10:00.000,Stoppage done,2026-05-27T11:53:47.000,"{'latitude': '40.857834878686', 'longitude': '-73.89660591292', 'human_address': '{""address"": """", ""city"": """", ""state"": """", ""zip"": """"}'}",5,15,38301,2013438,Fordham Heights,,
Treatments,3077774,PC8673159,4,2029640018,2,2964,18,1393,STEBBINS AVENUE,10459,40.83296806791,-73.894144027208,Bronx,2026-05-26T11:10:00.000,Bait applied,2026-05-27T10:54:26.000,"{'latitude': '40.83296806791', 'longitude': '-73.894144027208', 'human_address': '{""address"": """", ""city"": """", ""state"": """", ""zip"": """"}'}",3,17,153,2000000,Crotona Park East,,
Initial,14309490,PC8718532,1,2032930052,2,3293,52,274,EAST 194 STREET,10458,40.864813663738,-73.892451733197,Bronx,2026-05-26T11:10:03.000,Failed for Rat Activity,2026-05-27T11:18:43.000,"{'latitude': '40.864813663738', 'longitude': '-73.892451733197', 'human_address': '{""address"": """", ""city"": """", ""state"": """", ""zip"": """"}'}",7,15,39901,2016798,University Heights (North)-Fordham,,
Compliance,14308992,PC8703845,2,3063800001,3,6380,1,8678,BAY PARKWAY,11214,40.600573452881,-73.995242989505,Brooklyn,2026-05-26T11:11:32.000,Failed for Rat Activity,2026-05-27T11:13:41.000,"{'latitude': '40.600573452881', 'longitude': '-73.995242989505', 'human_address': '{""address"": """", ""city"": """", ""state"": """", ""zip"": """"}'}",11,43,290,3167050,Bensonhurst,985571,158084
Treatments,3077722,PC8672846,4,4015260001,4,1526,1,80-20,BROADWAY,11373,40.743663684927,-73.884470437514,Queens,2026-05-26T11:11:51.000,Bait applied,2026-05-29T10:56:34.000,"{'latitude': '40.743663684927', 'longitude': '-73.884470437514', 'human_address': '{""address"": """", ""city"": """", ""state"": """", ""zip"": """"}'}",4,25,481,4038015,Elmhurst,,
Initial,14309235,PC8724912,1,1010590104,1,1059,104,463,WEST 49 STREET,10019,40.763568865308,-73.991087121379,Manhattan,2026-05-26T11:12:27.000,Failed for Rat Activity,2026-05-27T12:45:47.000,"{'latitude': '40.763568865308', 'longitude': '-73.991087121379', 'human_address': '{""address"": """", ""city"": """", ""state"": """", ""zip"": """"}'}",4,3,127,1026662,Hell's Kitchen,,
Initial,14310394,PC8718050,1,1016760001,1,1676,1,2024,2 AVENUE,10029,40.789372385379,-73.943331180265,Manhattan,2026-05-26T11:13:00.000,Failed for Rat Activity and Other Reason,2026-05-29T16:29:23.000,"{'latitude': '40.789372385379', 'longitude': '-73.943331180265', 'human_address': '{""address"": """", ""city"": """", ""state"": """", ""zip"": """"}'}",11,8,170,1052702,East Harlem (South),,
Treatments,3077760,PC8462501,31,1012000010,1,1200,10,43,WEST   86 STREET,10024,40.78598195258,-73.970966479948,Manhattan,2026-05-26T11:13:25.000,Bait applied,2026-05-28T08:58:06.000,"{'latitude': '40.78598195258', 'longitude': '-73.970966479948', 'human_address': '{""address"": """", ""city"": """", ""state"": """", ""zip"": """"}'}",7,6,173,1031402,Upper West Side (Central),992290,225635
Initial,14309197,PC8724942,1,1010610050,1,1061,50,434,WEST 52 STREET,10019,40.765193595451,-73.989155551613,Manhattan,2026-05-26T11:14:48.000,Failed for Other Reason,2026-05-27T13:00:22.000,"{'latitude': '40.765193595451', 'longitude': '-73.989155551613', 'human_address': '{""address"": """", ""city"": """", ""state"": """", ""zip"": """"}'}",4,3,133,1026729,Hell's Kitchen,,
Compliance,14309307,PC8706614,2,3033730027,3,3373,27,1124,PUTNAM AVENUE,11221,40.68873136174,-73.918107593455,Brooklyn,2026-05-26T11:15:00.000,Failed for Rat Activity,2026-05-27T12:11:53.000,"{'latitude': '40.68873136174', 'longitude': '-73.918107593455', 'human_address': '{""address"": """", ""city"": """", ""state"": """", ""zip"": """"}'}",4,37,397,3077142,Bushwick (East),,
Initial,14309102,PC8719020,1,1005290072,1,529,72,65,BLEECKER STREET,10012,40.726196430021,-73.995172653706,Manhattan,2026-05-26T11:15:00.000,Failed for Other Reason,2026-05-28T08:20:02.000,"{'latitude': '40.726196430021', 'longitude': '-73.995172653706', 'human_address': '{""address"": """", ""city"": """", ""state"": """", ""zip"": """"}'}",2,2,5502,1008454,Greenwich Village,985588,203852
Compliance,14308923,PC8697640,2,1020250052,1,2025,52,220,WEST 140 STREET,10030,40.818831238727,-73.942283540216,Manhattan,2026-05-26T11:15:02.000,Failed for Rat Activity and Other Reason,2026-05-27T15:05:01.000,"{'latitude': '40.818831238727', 'longitude': '-73.942283540216', 'human_address': '{""address"": """", ""city"": """", ""state"": """", ""zip"": """"}'}",10,9,230,1060382,Harlem (North),,
Treatments,3077610,PC8558791,10,1021010055,1,2101,55,675,Riverside Drive,10031,40.826809268533,-73.952198877717,Manhattan,2026-05-26T11:15:17.000,Bait applied,2026-05-28T08:11:08.000,"{'latitude': '40.826809268533', 'longitude': '-73.952198877717', 'human_address': '{""address"": """", ""city"": """", ""state"": """", ""zip"": """"}'}",9,7,229,1000000,Hamilton Heights-Sugar Hill,,
Initial,14309658,PC8721656,1,2026140061,2,2614,61,587,EAST 167 STREET,10456,40.828703692557,-73.904633497283,Bronx,2026-05-26T11:15:23.000,Failed for Rat Activity and Other Reason,2026-05-28T11:09:54.000,"{'latitude': '40.828703692557', 'longitude': '-73.904633497283', 'human_address': '{""address"": """", ""city"": """", ""state"": """", ""zip"": """"}'}",3,17,18502,2004293,Morrisania,,
Treatments,3077700,PC8692119,5,1012290036,1,1229,36,454,AMSTERDAM AVENUE,10024,40.784951296907,-73.977019098362,Manhattan,2026-05-26T11:15:29.000,Bait applied,2026-05-27T14:27:48.000,"{'latitude': '40.784951296907', 'longitude': '-73.977019098362', 'human_address': '{""address"": """", ""city"": """", ""state"": """", ""zip"": """"}'}",7,6,167,1032687,Upper West Side (Central),,
Stoppage,3077641,PC8722653,1,2031460001,2,3146,1,2302,VALENTINE AVENUE,10458,40.857010023077,-73.898071278462,Bronx,2026-05-26T11:16:00.000,Stoppage done,2026-05-27T11:53:41.000,"{'latitude': '40.857010023077', 'longitude': '-73.898071278462', 'human_address': '{""address"": """", ""city"": """", ""state"": """", ""zip"": """"}'}",5,15,38301,2013427,Fordham Heights,,
Initial,14309236,PC8724411,1,1010590103,1,1059,103,465,WEST 49 STREET,10019,40.76358533693,-73.991126828234,Manhattan,2026-05-26T11:17:00.000,Failed for Rat Activity,2026-05-27T12:45:02.000,"{'latitude': '40.76358533693', 'longitude': '-73.991126828234', 'human_address': '{""address"": """", ""city"": """", ""state"": """", ""zip"": """"}'}",4,3,127,1026661,Hell's Kitchen,,
Initial,14309681,PC8718862,1,2032930054,2,3293,54,2609,BAINBRIDGE AVENUE,10458,40.864272834162,-73.892326072049,Bronx,2026-05-26T11:18:03.000,Failed for Rat Activity,2026-05-29T14:14:31.000,"{'latitude': '40.864272834162', 'longitude': '-73.892326072049', 'human_address': '{""address"": """", ""city"": """", ""state"": """", ""zip"": """"}'}",7,15,39901,2016799,University Heights (North)-Fordham,,
Compliance,14309589,PC8683737,2,1016280103,1,1628,103,107,EAST  100 STREET,10029,40.788911705798,-73.950196644662,Manhattan,2026-05-26T11:18:17.000,Failed for Rat Activity and Other Reason,2026-05-28T07:58:07.000,"{'latitude': '40.788911705798', 'longitude': '-73.950196644662', 'human_address': '{""address"": """", ""city"": """", ""state"": """", ""zip"": """"}'}",11,8,166,1051825,East Harlem (South),998041,226705
Initial,14309423,PC8725064,1,1010757501,1,1075,7501,516,WEST 47 STREET,10036,40.763031067401,-73.993726019656,Manhattan,2026-05-26T11:19:00.000,Failed for Rat Activity,2026-05-27T09:12:08.000,"{'latitude': '40.763031067401', 'longitude': '-73.993726019656', 'human_address': '{""address"": """", ""city"": """", ""state"": """", ""zip"": """"}'}",4,3,12902,1088731,Hell's Kitchen,,
Initial,14309637,PC8727936,1,1007190086,1,719,86,480,WEST 22 STREET,10011,40.746779442855,-74.004114261274,Manhattan,2026-05-26T11:19:27.000,Failed for Rat Activity,2026-05-27T10:08:57.000,"{'latitude': '40.746779442855', 'longitude': '-74.004114261274', 'human_address': '{""address"": """", ""city"": """", ""state"": """", ""zip"": """"}'}",4,3,89,1000000,Chelsea-Hudson Yards,,
Stoppage,3077650,PC8724252,1,,1,2048,37,123,Edgecombe Ave,10030,40.820594875442,-73.945374750264,Manhattan,2026-05-26T11:20:00.000,Stoppage done,2026-05-27T11:51:01.000,"{'latitude': '40.820594875442', 'longitude': '-73.945374750264', 'human_address': '{""address"": """", ""city"": """", ""state"": """", ""zip"": """"}'}",10,9,22102,,Harlem (North),,
Initial,14309595,PC8727935,1,2033410076,2,3341,76,285,EAST 205 STREET,10467,40.874200293779,-73.878341530907,Bronx,2026-05-26T11:20:00.000,Failed for Rat Activity,2026-05-28T14:46:39.000,"{'latitude': '40.874200293779', 'longitude': '-73.878341530907', 'human_address': '{""address"": """", ""city"": """", ""state"": """", ""zip"": """"}'}",7,11,423,2018123,Norwood,,
Compliance,14309228,PC8690832,2,1018610021,1,1861,21,125,WEST  106 STREET,10025,40.799654277846,-73.963848703813,Manhattan,2026-05-26T11:20:00.000,Failed for Rat Activity,2026-05-28T07:34:44.000,"{'latitude': '40.799654277846', 'longitude': '-73.963848703813', 'human_address': '{""address"": """", ""city"": """", ""state"": """", ""zip"": """"}'}",7,7,193,1055959,Upper West Side-Manhattan Valley,994259,230617
Initial,14309492,PC8718650,1,2032930056,2,3293,56,2605,BAINBRIDGE AVENUE,10458,40.86422345279,-73.892351460125,Bronx,2026-05-26T11:20:03.000,Failed for Rat Activity,2026-05-27T11:14:04.000,"{'latitude': '40.86422345279', 'longitude': '-73.892351460125', 'human_address': '{""address"": """", ""city"": """", ""state"": """", ""zip"": """"}'}",7,15,39901,2016800,University Heights (North)-Fordham,,
Compliance,14309003,PC8697249,2,2023810051,2,2381,51,462,EAST  160 STREET,10451,40.822915464012,-73.912056004876,Bronx,2026-05-26T11:20:05.000,Failed for Rat Activity,2026-05-27T10:44:46.000,"{'latitude': '40.822915464012', 'longitude': '-73.912056004876', 'human_address': '{""address"": """", ""city"": """", ""state"": """", ""zip"": """"}'}",3,17,141,2001483,Morrisania,1008587,239104
Treatments,3077663,PC8669785,4,2032610092,2,3261,92,3300,BAILEY AVENUE,10463,40.87944821476,-73.901251577282,Bronx,2026-05-26T11:20:34.000,Bait applied,2026-05-26T14:32:54.000,"{'latitude': '40.87944821476', 'longitude': '-73.901251577282', 'human_address': '{""address"": """", ""city"": """", ""state"": """", ""zip"": """"}'}",8,14,277,2015948,Kingsbridge Heights-Van Cortlandt Village,1011557,259702
Compliance,14310269,PC8681608,4,,1,1756,66,EAST,132 STREET,10037,,,Manhattan,2026-05-26T11:21:20.000,Failed for Rat Activity,2026-05-28T08:27:48.000,,,,,,,,
Treatments,3077619,PC8579438,7,3016440049,3,1644,49,631,PUTNAM AVENUE,11221,40.685600212478,-73.93641748306,Brooklyn,2026-05-26T11:22:00.000,Bait applied,2026-05-26T13:35:18.000,"{'latitude': '40.685600212478', 'longitude': '-73.93641748306', 'human_address': '{""address"": """", ""city"": """", ""state"": """", ""zip"": """"}'}",3,36,277,3045094,Bedford-Stuyvesant (East),,
Treatments,3077680,PC8634258,8,2031080004,2,3108,4,2052,MAPES AVENUE,10460,40.845792153822,-73.886226084817,Bronx,2026-05-26T11:22:22.000,Bait applied,2026-05-26T14:23:48.000,"{'latitude': '40.845792153822', 'longitude': '-73.886226084817', 'human_address': '{""address"": """", ""city"": """", ""state"": """", ""zip"": """"}'}",6,15,36501,2012954,Tremont,1015728,247445
Initial,14309237,PC8725018,1,1010590001,1,1059,1,714,10 AVENUE,10019,40.764249638227,-73.992083376522,Manhattan,2026-05-26T11:22:36.000,Failed for Rat Activity and Other Reason,2026-05-27T12:44:00.000,"{'latitude': '40.764249638227', 'longitude': '-73.992083376522', 'human_address': '{""address"": """", ""city"": """", ""state"": """", ""zip"": """"}'}",4,3,127,1026639,Hell's Kitchen,,
Compliance,14309577,PC8703259,2,3020740046,3,2074,46,192,CLERMONT AVENUE,11205,40.692094501943,-73.97065773556,Brooklyn,2026-05-26T11:22:39.000,Failed for Rat Activity,2026-05-27T11:27:33.000,"{'latitude': '40.692094501943', 'longitude': '-73.97065773556', 'human_address': '{""address"": """", ""city"": """", ""state"": """", ""zip"": """"}'}",2,35,183,3058380,Fort Greene,992387,191429
Initial,14309494,PC8718751,1,2032930062,2,3293,62,2599,BAINBRIDGE AVENUE,10458,40.864149382412,-73.892391349865,Bronx,2026-05-26T11:24:03.000,Failed for Rat Activity,2026-05-27T11:12:50.000,"{'latitude': '40.864149382412', 'longitude': '-73.892391349865', 'human_address': '{""address"": """", ""city"": """", ""state"": """", ""zip"": """"}'}",7,15,39901,2000000,University Heights (North)-Fordham,,
Initial,14309586,PC8720064,1,1016280171,1,1628,171,102,EAST  101 STREET,10029,40.789556563383,-73.949831416135,Manhattan,2026-05-26T11:24:17.000,Failed for Rat Activity,2026-05-28T08:00:04.000,"{'latitude': '40.789556563383', 'longitude': '-73.949831416135', 'human_address': '{""address"": """", ""city"": """", ""state"": """", ""zip"": """"}'}",11,8,166,1051830,East Harlem (South),998142,226940
Initial,14309684,PC8725356,1,1010600036,1,1060,36,755,9 AVENUE,10019,40.763958402199,-73.988614263164,Manhattan,2026-05-26T11:24:18.000,Failed for Other Reason,2026-05-28T10:03:32.000,"{'latitude': '40.763958402199', 'longitude': '-73.988614263164', 'human_address': '{""address"": """", ""city"": """", ""state"": """", ""zip"": """"}'}",4,3,133,1026690,Hell's Kitchen,,
Treatments,3077773,PC8673244,4,2029640029,2,2964,29,1402,BRISTOW STREET,10459,40.833377951596,-73.895144372794,Bronx,2026-05-26T11:25:00.000,Bait applied,2026-05-27T10:57:06.000,"{'latitude': '40.833377951596', 'longitude': '-73.895144372794', 'human_address': '{""address"": """", ""city"": """", ""state"": """", ""zip"": """"}'}",3,17,153,2114127,Crotona Park East,,
Treatments,3077595,PC8559582,9,1020500041,1,2050,41,349,Convent Avenue,10031,40.824339202625,-73.946433952673,Manhattan,2026-05-26T11:25:17.000,Bait applied,2026-05-28T08:11:41.000,"{'latitude': '40.824339202625', 'longitude': '-73.946433952673', 'human_address': '{""address"": """", ""city"": """", ""state"": """", ""zip"": """"}'}",9,9,227,1060947,Hamilton Heights-Sugar Hill,,
Compliance,14308924,PC8697722,2,1020250053,1,2025,53,222,WEST 140 STREET,10030,40.818847727143,-73.94232326804,Manhattan,2026-05-26T11:26:02.000,Failed for Other Reason,2026-05-27T15:04:38.000,"{'latitude': '40.818847727143', 'longitude': '-73.94232326804', 'human_address': '{""address"": """", ""city"": """", ""state"": """", ""zip"": """"}'}",10,9,230,1060383,Harlem (North),,
Initial,14309499,PC8718648,1,2032930068,2,3293,68,2587B,BAINBRIDGE AVENUE,10458,40.863666547176,-73.892645210174,Bronx,2026-05-26T11:26:03.000,Failed for Rat Activity,2026-05-27T11:11:47.000,"{'latitude': '40.863666547176', 'longitude': '-73.892645210174', 'human_address': '{""address"": """", ""city"": """", ""state"": """", ""zip"": """"}'}",7,15,39901,2116261,University Heights (North)-Fordham,,
Stoppage,3077635,PC8721844,1,2031540102,2,3154,102,271,EAST FORDHAM ROAD,10458,40.862159408374,-73.895315735959,Bronx,2026-05-26T11:27:00.000,Stoppage done,2026-05-27T11:55:53.000,"{'latitude': '40.862159408374', 'longitude': '-73.895315735959', 'human_address': '{""address"": """", ""city"": """", ""state"": """", ""zip"": """"}'}",7,15,39901,2013625,University Heights (North)-Fordham,,
Compliance,14310270,PC8419790,14,1017560050,1,1756,50,2093,MADISON AVENUE,10037,40.809944028829,-73.937558980017,Manhattan,2026-05-26T11:28:27.000,Failed for Rat Activity and Other Reason,2026-05-28T08:38:45.000,"{'latitude': '40.809944028829', 'longitude': '-73.937558980017', 'human_address': '{""address"": """", ""city"": """", ""state"": """", ""zip"": """"}'}",11,9,206,1054328,East Harlem (North),1001535,234370
Compliance,14309308,PC8706834,2,3033730024,3,3373,24,1118,PUTNAM AVENUE,11221,40.688618905865,-73.918219513222,Brooklyn,2026-05-26T11:30:00.000,Failed for Rat Activity,2026-05-27T12:14:16.000,"{'latitude': '40.688618905865', 'longitude': '-73.918219513222', 'human_address': '{""address"": """", ""city"": """", ""state"": """", ""zip"": """"}'}",4,37,397,3077139,Bushwick (East),,
Treatments,3077686,PC8302422,18,3067030035,3,6703,35,855,EAST   19 STREET,11230,40.629932453947,-73.958407311733,Brooklyn,2026-05-26T11:30:39.000,Bait applied,2026-05-26T14:37:06.000,"{'latitude': '40.629932453947', 'longitude': '-73.958407311733', 'human_address': '{""address"": """", ""city"": """", ""state"": """", ""zip"": """"}'}",14,45,764,3179451,Flatbush (West)-Ditmas Park-Parkville,995795,168783
Compliance,14309578,PC8608668,8,3019290047,3,1929,47,221,LAFAYETTE AVENUE,11238,40.687932782777,-73.968247291086,Brooklyn,2026-05-26T11:33:39.000,Failed for Rat Activity,2026-05-27T11:31:01.000,"{'latitude': '40.687932782777', 'longitude': '-73.968247291086', 'human_address': '{""address"": """", ""city"": """", ""state"": """", ""zip"": """"}'}",2,35,197,3055306,Clinton Hill,993056,189913
Treatments,3077657,PC8580473,10,2032600050,2,3260,50,147,WEST  230 STREET,10463,40.876055175818,-73.903831261644,Bronx,2026-05-26T11:35:02.000,Bait applied,2026-05-26T14:34:47.000,"{'latitude': '40.876055175818', 'longitude': '-73.903831261644', 'human_address': '{""address"": """", ""city"": """", ""state"": """", ""zip"": """"}'}",8,14,277,2015913,Kingsbridge Heights-Van Cortlandt Village,1010845,258465
Treatments,3077721,PC8672845,4,4015240004,4,1524,4,78-08,WOODSIDE AVE,11373,40.743682587658,-73.886913586452,Queens,2026-05-26T11:35:51.000,Bait applied,2026-05-29T10:56:21.000,"{'latitude': '40.743682587658', 'longitude': '-73.886913586452', 'human_address': '{""address"": """", ""city"": """", ""state"": """", ""zip"": """"}'}",4,25,481,4037916,Elmhurst,,
Initial,14309238,PC8724718,1,1010590162,1,1059,162,458,WEST 50 STREET,10019,40.764147966412,-73.990552771589,Manhattan,2026-05-26T11:37:00.000,Failed for Rat Activity,2026-05-27T12:47:37.000,"{'latitude': '40.764147966412', 'longitude': '-73.990552771589', 'human_address': '{""address"": """", ""city"": """", ""state"": """", ""zip"": """"}'}",4,3,127,1026664,Hell's Kitchen,,
Initial,14309471,PC8724536,1,1010600038,1,1060,38,406,WEST 51 STREET,10019,40.764328986615,-73.98904739426,Manhattan,2026-05-26T11:37:14.000,Failed for Rat Activity,2026-05-27T12:14:44.000,"{'latitude': '40.764328986615', 'longitude': '-73.98904739426', 'human_address': '{""address"": """", ""city"": """", ""state"": """", ""zip"": """"}'}",4,3,133,1026691,Hell's Kitchen,,
Initial,14309507,PC8718461,1,2032930077,2,3293,77,2571,BAINBRIDGE AVENUE,10458,40.863326369751,-73.892826529089,Bronx,2026-05-26T11:37:26.000,Failed for Rat Activity,2026-05-27T11:05:17.000,"{'latitude': '40.863326369751', 'longitude': '-73.892826529089', 'human_address': '{""address"": """", ""city"": """", ""state"": """", ""zip"": """"}'}",7,15,39901,2016807,University Heights (North)-Fordham,,
Compliance,14309364,PC8697256,2,3016220039,3,1622,39,990,GREENE AVENUE,11221,40.691005426869,-73.928385415842,Brooklyn,2026-05-26T11:38:00.000,Failed for Rat Activity and Other Reason,2026-05-28T16:06:57.000,"{'latitude': '40.691005426869', 'longitude': '-73.928385415842', 'human_address': '{""address"": """", ""city"": """", ""state"": """", ""zip"": """"}'}",3,36,387,3044154,Bedford-Stuyvesant (East),,
Compliance,14309229,PC8704039,2,1018600036,1,1860,36,934,COLUMBUS AVENUE,10025,40.799072118575,-73.962993013347,Manhattan,2026-05-26T11:38:00.000,Failed for Rat Activity,2026-05-28T07:39:39.000,"{'latitude': '40.799072118575', 'longitude': '-73.962993013347', 'human_address': '{""address"": """", ""city"": """", ""state"": """", ""zip"": """"}'}",7,7,189,1055942,Upper West Side-Manhattan Valley,,
Treatments,3077598,PC8561572,9,1020630029,1,2063,29,757,ST NICHOLAS AVENUE,10031,40.826055917227,-73.943321498412,Manhattan,2026-05-26T11:38:17.000,Bait applied,2026-05-28T08:12:56.000,"{'latitude': '40.826055917227', 'longitude': '-73.943321498412', 'human_address': '{""address"": """", ""city"": """", ""state"": """", ""zip"": """"}'}",9,9,231,1061510,Hamilton Heights-Sugar Hill,,
Initial,14308993,PC8719865,1,3071670083,3,7167,83,2928,86 STREET,11223,40.590848895312,-73.975509117652,Brooklyn,2026-05-26T11:39:32.000,Failed for Rat Activity,2026-05-27T11:15:01.000,"{'latitude': '40.590848895312', 'longitude': '-73.975509117652', 'human_address': '{""address"": """", ""city"": """", ""state"": """", ""zip"": """"}'}",13,47,386,3194292,Gravesend (East)-Homecrest,991052,154542
Treatments,3077706,PC8691829,3,1012290008,1,1229,8,2261,BROADWAY,10024,40.785248098613,-73.978940097761,Manhattan,2026-05-26T11:39:36.000,Bait applied,2026-05-27T14:27:48.000,"{'latitude': '40.785248098613', 'longitude': '-73.978940097761', 'human_address': '{""address"": """", ""city"": """", ""state"": """", ""zip"": """"}'}",7,6,167,1032679,Upper West Side (Central),,
Treatments,3077618,PC8679550,5,3018310032,3,1831,32,554,PUTNAM AVENUE,11221,40.685225850818,-73.9395078901,Brooklyn,2026-05-26T11:40:00.000,Bait applied,2026-05-26T13:35:53.000,"{'latitude': '40.685225850818', 'longitude': '-73.9395078901', 'human_address': '{""address"": """", ""city"": """", ""state"": """", ""zip"": """"}'}",3,36,275,3052148,Bedford-Stuyvesant (East),,
Initial,14309203,PC8724954,1,1010610060,1,1061,60,458,WEST 52 STREET,10019,40.765396752497,-73.989642870277,Manhattan,2026-05-26T11:40:06.000,Failed for Other Reason,2026-05-27T12:59:38.000,"{'latitude': '40.765396752497', 'longitude': '-73.989642870277', 'human_address': '{""address"": """", ""city"": """", ""state"": """", ""zip"": """"}'}",4,3,133,1085438,Hell's Kitchen,,
Treatments,3077673,PC8293082,13,2039080001,2,3908,1,362,BRONX PARK AVENUE,10460,40.839065338236,-73.87612919105,Bronx,2026-05-26T11:40:39.000,Bait applied,2026-05-26T14:26:07.000,"{'latitude': '40.839065338236', 'longitude': '-73.87612919105', 'human_address': '{""address"": """", ""city"": """", ""state"": """", ""zip"": """"}'}",6,15,60,2028370,West Farms,1018525,244998
Initial,14309061,PC8726454,1,4008220126,4,822,126,22-15,35 STREET,11105,40.774663223768,-73.909123242615,Queens,2026-05-26T11:41:00.000,Failed for Rat Activity,2026-05-28T11:25:30.000,"{'latitude': '40.774663223768', 'longitude': '-73.909123242615', 'human_address': '{""address"": """", ""city"": """", ""state"": """", ""zip"": """"}'}",1,22,117,4016462,Astoria (North)-Ditmars-Steinway,1009420,221523
Stoppage,3077652,PC8725966,1,1019410036,1,1941,36,200,W 136th st,10030,40.816169543136,-73.943705679795,Manhattan,2026-05-26T11:43:00.000,Stoppage done,2026-05-27T11:50:06.000,"{'latitude': '40.816169543136', 'longitude': '-73.943705679795', 'human_address': '{""address"": """", ""city"": """", ""state"": """", ""zip"": """"}'}",10,9,228,1058898,Harlem (North),,
Treatments,3077742,PC8700321,3,1017510056,1,1751,56,1984,MADISON AVENUE,10035,40.806791556099,-73.939884637467,Manhattan,2026-05-26T11:43:00.000,Bait applied,2026-05-28T08:00:02.000,"{'latitude': '40.806791556099', 'longitude': '-73.939884637467', 'human_address': '{""address"": """", ""city"": """", ""state"": """", ""zip"": """"}'}",11,9,206,1054115,East Harlem (North),,
Treatments,3077720,PC8675029,3,1019410026,1,1941,26,205,WEST 135 STREET,10030,40.815519278798,-73.944197565136,Manhattan,2026-05-26T11:44:00.000,Bait applied,2026-05-29T11:23:15.000,"{'latitude': '40.815519278798', 'longitude': '-73.944197565136', 'human_address': '{""address"": """", ""city"": """", ""state"": """", ""zip"": """"}'}",10,9,228,1058890,Harlem (North),,
Compliance,14309004,PC8685758,2,2024190120,2,2419,120,331,EAST  159 STREET,10451,40.823632588674,-73.916741357126,Bronx,2026-05-26T11:44:05.000,Failed for Rat Activity,2026-05-27T10:44:22.000,"{'latitude': '40.823632588674', 'longitude': '-73.916741357126', 'human_address': '{""address"": """", ""city"": """", ""state"": """", ""zip"": """"}'}",3,17,69,2100827,Melrose,1007293,239362
Compliance,14308925,PC8676004,2,1020240031,1,2024,31,2368,ADAM C POWELL BLVD,10030,40.817480741867,-73.942118524848,Manhattan,2026-05-26T11:44:31.000,Failed for Rat Activity and Other Reason,2026-05-27T15:07:23.000,"{'latitude': '40.817480741867', 'longitude': '-73.942118524848', 'human_address': '{""address"": """", ""city"": """", ""state"": """", ""zip"": """"}'}",10,9,230,1060292,Harlem (North),,
Compliance,14309579,PC8351804,15,3019330060,3,1933,60,309,LAFAYETTE AVENUE,11238,40.688461163021,-73.963664025073,Brooklyn,2026-05-26T11:44:39.000,Failed for Rat Activity,2026-05-27T11:38:10.000,"{'latitude': '40.688461163021', 'longitude': '-73.963664025073', 'human_address': '{""address"": """", ""city"": """", ""state"": """", ""zip"": """"}'}",2,35,193,3055375,Clinton Hill,994327,190106
Treatments,3077772,PC8673127,4,2029630030,2,2963,30,1385,BRISTOW STREET,10459,40.832664227706,-73.895044318895,Bronx,2026-05-26T11:45:00.000,Bait applied,2026-05-27T10:59:52.000,"{'latitude': '40.832664227706', 'longitude': '-73.895044318895', 'human_address': '{""address"": """", ""city"": """", ""state"": """", ""zip"": """"}'}",3,17,153,2010223,Crotona Park East,,
Compliance,14309621,PC8698286,2,1016300056,1,1630,56,1626,LEXINGTON AVENUE,10029,40.790052496143,-73.947884519819,Manhattan,2026-05-26T11:45:17.000,Failed for Rat Activity and Other Reason,2026-05-28T08:04:29.000,"{'latitude': '40.790052496143', 'longitude': '-73.947884519819', 'human_address': '{""address"": """", ""city"": """", ""state"": """", ""zip"": """"}'}",11,8,166,1051898,East Harlem (South),,
Treatments,3078076,PC8620884,14,1017110026,1,1711,26,329,PLEASANT AVENUE,10035,40.796019779857,-73.93245794931,Manhattan,2026-05-26T11:45:17.000,Bait applied,2026-05-29T14:18:13.000,"{'latitude': '40.796019779857', 'longitude': '-73.93245794931', 'human_address': '{""address"": """", ""city"": """", ""state"": """", ""zip"": """"}'}",11,8,178,1090455,East Harlem (North),,
Compliance,14309673,PC8562244,9,1009940016,1,994,16,141,WEST   41 STREET,10036,40.754749442264,-73.985955689956,Manhattan,2026-05-26T11:45:42.000,Failed for Rat Activity and Other Reason,2026-05-29T08:08:48.000,"{'latitude': '40.754749442264', 'longitude': '-73.985955689956', 'human_address': '{""address"": """", ""city"": """", ""state"": """", ""zip"": """"}'}",5,4,113,1022574,Midtown-Times Square,,
Initial,14309431,PC8724400,1,1010750022,1,1075,22,515,WEST 46 STREET,10036,40.762671556586,-73.994772914667,Manhattan,2026-05-26T11:50:04.000,Failed for Rat Activity and Other Reason,2026-05-27T12:08:12.000,"{'latitude': '40.762671556586', 'longitude': '-73.994772914667', 'human_address': '{""address"": """", ""city"": """", ""state"": """", ""zip"": """"}'}",4,3,12902,1026965,Hell's Kitchen,,
Compliance,14309597,PC8703880,2,2033200021,2,3320,21,2939,GRAND CONCOURSE,10468,40.871841581777,-73.888177273018,Bronx,2026-05-26T11:50:38.000,Failed for Rat Activity,2026-05-28T14:49:44.000,"{'latitude': '40.871841581777', 'longitude': '-73.888177273018', 'human_address': '{""address"": """", ""city"": """", ""state"": """", ""zip"": """"}'}",7,14,40701,2017615,Bedford Park,,
Treatments,3077664,PC8613073,3,2032390086,2,3239,86,2691,HEATH AVENUE,10463,40.871299972582,-73.90553035406,Bronx,2026-05-26T11:50:56.000,Bait applied,2026-05-26T14:32:37.000,"{'latitude': '40.871299972582', 'longitude': '-73.90553035406', 'human_address': '{""address"": """", ""city"": """", ""state"": """", ""zip"": """"}'}",7,14,269,2015183,University Heights (North)-Fordham,,
Compliance,14309230,PC8704040,2,1018600035,1,1860,35,932,COLUMBUS AVENUE,10025,40.799014491662,-73.963032775794,Manhattan,2026-05-26T11:52:00.000,Failed for Rat Activity and Other Reason,2026-05-28T07:40:25.000,"{'latitude': '40.799014491662', 'longitude': '-73.963032775794', 'human_address': '{""address"": """", ""city"": """", ""state"": """", ""zip"": """"}'}",7,7,189,1055941,Upper West Side-Manhattan Valley,,
Initial,14309458,PC8724234,1,2049030042,2,4903,42,3970,LACONIA AVENUE,10466,40.884129296784,-73.84933350451,Bronx,2026-05-26T11:52:37.000,Failed for Other Reason,2026-05-27T10:35:53.000,"{'latitude': '40.884129296784', 'longitude': '-73.84933350451', 'human_address': '{""address"": """", ""city"": """", ""state"": """", ""zip"": """"}'}",12,12,386,2065948,Eastchester-Edenwald-Baychester,1025911,261428
