rating,latitude,longitude,restaurant_name,address,inspection_type,inspection_date,result
3.0,40.703102,-73.91824,The Podunk Inquirer,"323 Stanhope St, Brooklyn, NY 11237, USA",Treatments,2025-01-26T14:10:00.000,Bait applied
5.0,40.702601,-73.918874,SPLASH NUTRITION,"303 Stanhope St, Brooklyn, NY 11237, USA",Treatments,2025-01-26T14:30:00.000,Bait applied
4.4,40.787022,-73.978129,Namazake Sushi,"2315 Broadway, New York, NY 10024, USA",Initial,2025-01-27T08:20:00.000,Rat Activity
4.4,40.787022,-73.978129,Namazake Sushi,"2315 Broadway, New York, NY 10024, USA",Initial,2025-01-27T08:20:00.000,Rat Activity
3.6,40.801942,-73.956899,Dragon Sushi,"2072 Frederick Douglass Blvd, New York, NY 10026, USA",Treatments,2025-01-27T08:32:31.000,Bait applied
3.6,40.804603,-73.955034,Kennedy Chicken & Burgers,"2150 Frederick Douglass Blvd, New York, NY 10026, USA",Treatments,2025-01-27T08:44:03.000,Bait applied
3.8,40.661749,-73.950985,Dragon King,"1078 Nostrand Ave, Brooklyn, NY 11225, USA",Treatments,2025-01-27T09:20:49.000,Bait applied
4.2,40.811455,-73.950228,Arnie & Ebony Catering LLC,"Frederick Douglass Blvd, W 127th St, New York, NY 10027, USA",Treatments,2025-01-27T09:26:12.000,Bait applied
5.0,40.717974,-73.999259,dinkies,"118 Baxter St, New York, NY 10013, USA",Treatments,2025-01-27T09:26:45.000,Bait applied
5.0,40.717974,-73.999259,dinkies,"118 Baxter St, New York, NY 10013, USA",Treatments,2025-01-27T09:26:45.000,Bait applied
4.5,40.846839,-73.897963,National Burger House,"470 E Tremont Ave, Bronx, NY 10457, USA",Treatments,2025-01-27T09:38:00.000,Bait applied
3.9,40.797385,-73.949085,Kennedy Fried Chicken,"1316 5th Ave, New York, NY 10026, USA",Treatments,2025-01-27T09:53:56.000,Bait applied
4.7,40.719806,-73.999084,161 Lafayette,"161 Lafayette St, New York, NY 10013, USA",Treatments,2025-01-27T09:56:45.000,Bait applied
N/A,40.701853,-73.919564,Diego's Gyros,"178 Irving Ave, Brooklyn, NY 11237, USA",Compliance,2025-01-27T10:02:40.000,Rat Activity
N/A,40.701853,-73.919564,Diego's Gyros,"178 Irving Ave, Brooklyn, NY 11237, USA",Compliance,2025-01-27T10:02:40.000,Rat Activity
5,40.702601,-73.918874,SPLASH NUTRITION,"303 Stanhope St, Brooklyn, NY 11237, USA",Compliance,2025-01-27T10:10:40.000,Rat Activity
N/A,40.720137,-73.996476,Acai Berry,"377 Broome St, New York, NY 10013, USA",Treatments,2025-01-27T10:11:45.000,Bait applied
5,40.700769,-73.903929,El Novillo 4,"8-95 Seneca Ave, Ridgewood, NY 11385, USA",Treatments,2025-01-27T10:16:47.000,Bait applied
3.7,40.734035,-73.990743,Lavazza,"850 Broadway, New York, NY 10003, USA",Treatments,2025-01-27T10:26:45.000,Bait applied
3.9,40.701827,-73.908879,El Fogón Costeño,"17-01 Palmetto St, Ridgewood, NY 11385, USA",Treatments,2025-01-27T10:29:27.000,Bait applied
4.8,40.852459,-73.889782,UNCHIN CHIN,"2276 Arthur Ave Ste #A, Bronx, NY 10457, USA",Initial,2025-01-27T10:35:00.000,Failed for Other R
1,40.842584,-73.885102,Chef G’s Kitchen,"881 E Tremont Ave, Bronx, NY 10460, USA",Initial,2025-01-27T10:36:49.000,Failed for Rat Act
4.9,40.786152,-73.975772,Honeybrains Upper West Side,"495 Amsterdam Ave, New York, NY 10024, USA",Treatments,2025-01-27T10:40:35.000,Bait applied
4.9,40.786152,-73.975772,Honeybrains Upper West Side,"495 Amsterdam Ave, New York, NY 10024, USA",Treatments,2025-01-27T10:40:35.000,Bait applied
4.5,40.683674,-73.932599,Rita & Maria,"558 Halsey St, Brooklyn, NY 11233, USA",Treatments,2025-01-27T10:41:00.000,Bait applied
4.1,40.792704,-73.945772,Great Hong Kong,"1703 Lexington Ave, New York, NY 10029, USA",Treatments,2025-01-27T10:43:00.000,Bait applied
4.7,40.71294,-73.996568,Jin Mei Dumpling,"25B Henry St B, New York, NY 10002, USA",Initial,2025-01-27T10:49:27.000,Rat Activity
4.4,40.7297,-73.988813,Hasaki,"210 E 9th St, New York, NY 10003, USA",Treatments,2025-01-27T10:57:25.000,Bait applied
4.5,40.790956,-73.94699,Alison,"1651 Lexington Ave, New York, NY 10029, USA",Treatments,2025-01-27T11:01:00.000,Bait applied
4.6,40.790411,-73.948226,Gold Deli,"126 E 103rd St, New York, NY 10029, USA",Treatments,2025-01-27T11:09:05.000,Monitoring visit
3.8,40.722117,-73.996386,Soupside,"51 Spring St, New York, NY 10012, USA",Treatments,2025-01-27T11:10:45.000,Bait applied
3.8,40.722117,-73.996386,Soupside,"51 Spring St, New York, NY 10012, USA",Treatments,2025-01-27T11:10:45.000,Bait applied
3.8,40.722117,-73.996386,Soupside,"51 Spring St, New York, NY 10012, USA",Treatments,2025-01-27T11:10:45.000,Bait applied
3.8,40.722117,-73.996386,Soupside,"51 Spring St, New York, NY 10012, USA",Treatments,2025-01-27T11:10:45.000,Bait applied
4.4,40.81435,-73.944053,Yatenga,"3023, 2269 Adam Clayton Powell Jr Blvd #1, New York, NY 10030, USA",Compliance,2025-01-27T11:18:22.000,Rat Activity
4.6,40.659893,-73.961085,Pomo BK,"2122 Beekman Pl, Brooklyn, NY 11225, USA",Treatments,2025-01-27T11:20:00.000,Bait applied
4,40.79033,-73.947419,Dunkin',"1631 Lexington Ave, New York, NY 10029, USA",Treatments,2025-01-27T11:21:00.000,Monitoring visit
4.4,40.720608,-73.996533,Deux Luxe,"384 Broome St, New York, NY 10012, USA",Treatments,2025-01-27T11:24:45.000,Bait applied
4.4,40.720608,-73.996533,Deux Luxe,"384 Broome St, New York, NY 10012, USA",Treatments,2025-01-27T11:24:45.000,Bait applied
3.7,40.732254,-73.98741,Market Sandwich,"4 Union Square S, New York, NY 10003, USA",Treatments,2025-01-27T11:30:25.000,Bait applied
3.7,40.732254,-73.98741,Market Sandwich,"4 Union Square S, New York, NY 10003, USA",Treatments,2025-01-27T11:41:25.000,Bait applied
4.6,40.656865,-73.960391,Ouma Bakery and All Day Cafe,"676 Flatbush Ave, Brooklyn, NY 11225, USA",Treatments,2025-01-27T11:50:24.000,Bait applied
3.5,40.842443,-73.885909,Bella Italia Pizza,"Bronx, NY 10460, USA",Initial,2025-01-27T11:51:44.000,Rat Activity
4.7,40.813955,-73.944016,Rejuvenate Juice bar,"171 W 133rd St, New York, NY 10030, USA",Compliance,2025-01-27T11:53:22.000,Failed for Rat Act
4.9,40.727033,-74.002032,Rei Restaurant,"142 Sullivan St, New York, NY 10012, USA",Treatments,2025-01-27T11:54:45.000,Bait applied
4.9,40.727033,-74.002032,Rei Restaurant,"142 Sullivan St, New York, NY 10012, USA",Treatments,2025-01-27T11:54:45.000,Bait applied
4.7,40.788428,-73.97715,"Crossbar - Coffee, Food, Soccer","250 W 86th St, New York, NY 10024, USA",Initial,2025-01-27T11:55:00.000,Failed for Other R
4.5,40.790956,-73.94699,Alison,"1651 Lexington Ave, New York, NY 10029, USA",Treatments,2025-01-27T11:55:05.000,Bait applied
4.2,40.842986,-73.885888,Kennedy Chicken,"879 E Tremont Ave, Bronx, NY 10460, USA",Initial,2025-01-27T12:04:44.000,Failed for Other R
2.3,40.769295,-73.95223,Subway,"1427 York Ave, New York, NY 10021, USA",Initial,2025-01-27T12:05:00.000,Failed for Rat Act
4.2,40.843016,-73.886567,Yaque River Lounge,"860 E Tremont Ave, Bronx, NY 10460, USA",Initial,2025-01-27T12:09:44.000,Rat Activity
4.3,40.858692,-73.898665,Meat Market Jazmin Corporation,"2356 Grand Concourse, Bronx, NY 10458, USA",Compliance,2025-01-27T12:18:00.000,Rat Activity
4.5,40.790328,-73.946074,G&J's Pizzeria,"188 E 104th St, New York, NY 10029, USA",Treatments,2025-01-27T12:19:05.000,Bait applied
5,40.812701,-73.941595,Lenox Deli & Salad,"New York, NY 10037, USA",Compliance,2025-01-27T12:19:22.000,Failed for Rat Act
3.9,40.681,-73.994127,Bagels By the Park,"323 Smith St, Brooklyn, NY 11231, USA",Compliance,2025-01-27T12:27:00.000,Rat Activity
3.9,40.681,-73.994127,Bagels By the Park,"323 Smith St, Brooklyn, NY 11231, USA",Compliance,2025-01-27T12:27:00.000,Rat Activity
4.3,40.768186,-73.955024,The Sweet Shop NYC,"404 E 73rd St, New York, NY 10021, USA",Initial,2025-01-27T12:30:00.000,Rat Activity
4.5,40.76017,-73.878498,Nana's Kitchen New York 🇨🇴,"90-01 31st Ave, East Elmhurst, NY 11369, USA",Compliance,2025-01-27T12:36:00.000,Rat Activity
3.3,40.789679,-73.942802,Apollo Pizza,"2036 2nd Ave Store 1, New York, NY 10029, USA",Treatments,2025-01-27T12:39:05.000,Bait applied
3.3,40.789679,-73.942802,Apollo Pizza,"2036 2nd Ave Store 1, New York, NY 10029, USA",Treatments,2025-01-27T12:39:05.000,Bait applied
3.3,40.789679,-73.942802,Apollo Pizza,"2036 2nd Ave Store 1, New York, NY 10029, USA",Treatments,2025-01-27T12:39:05.000,Bait applied
4.6,40.689847,-73.972327,Los Dos Hermanos,"264 Carlton Ave, Brooklyn, NY 11205, USA",Compliance,2025-01-27T12:50:00.000,Rat Activity
4.3,40.699837,-73.92062,Ugly Donuts & Corn Dogs Bushwick,"398 Knickerbocker Ave, Brooklyn, NY 11237, USA",Compliance,2025-01-27T13:07:56.000,Rat Activity
3.6,40.806333,-73.942641,Kennedy fried chicken burger and shake,"2 W 125th St, New York, NY 10027, USA",Treatments,2025-01-27T13:28:22.000,Bait applied
3.6,40.806333,-73.942641,Kennedy fried chicken burger and shake,"2 W 125th St, New York, NY 10027, USA",Treatments,2025-01-27T13:28:22.000,Bait applied
3.6,40.806333,-73.942641,Kennedy fried chicken burger and shake,"2 W 125th St, New York, NY 10027, USA",Treatments,2025-01-27T13:28:22.000,Bait applied
4.3,40.825152,-73.940022,Tulcimexico,"2798 Frederick Douglass Blvd, New York, NY 10039, USA",Compliance,2025-01-27T13:34:59.000,Rat Activity
4.5,40.65504,-73.960986,BROOKLYN PERK Coffee,"206 Parkside Ave, Brooklyn, NY 11226, USA",Treatments,2025-01-27T13:35:24.000,Bait applied
5,40.658312,-73.96063,Red Chaconia Cafe,"616 Flatbush Ave, Brooklyn, NY 11225, USA",Treatments,2025-01-27T13:55:24.000,Bait applied
N/A,40.695154,-73.901813,Escapade,"16-22 Summerfield St, Ridgewood, NY 11385, USA",Initial,2025-01-28T08:00:00.000,Rat Activity
4.7,40.660391,-73.980095,Roast Coffee,"211 Prospect Park W, Brooklyn, NY 11215, USA",Treatments,2025-01-28T08:19:21.000,Bait applied
4.7,40.79236,-73.945924,Perch,"1693 Lexington Ave, New York, NY 10029, USA",Treatments,2025-01-28T08:53:00.000,Bait applied
4.1,40.844122,-73.887917,El Nuevo Bohío,"791 E Tremont Ave, Bronx, NY 10460, USA",Initial,2025-01-28T09:04:41.000,Rat Activity
4.3,40.768186,-73.955024,The Sweet Shop NYC,"404 E 73rd St, New York, NY 10021, USA",Treatments,2025-01-28T09:06:00.000,Bait applied
4.1,40.844122,-73.887917,El Nuevo Bohío,"791 E Tremont Ave, Bronx, NY 10460, USA",Initial,2025-01-28T09:08:30.000,Rat Activity
5,40.844577,-73.890224,La Casa de la Empanada,"1952 Clinton Ave, Bronx, NY 10457, USA",Initial,2025-01-28T09:08:41.000,Failed for Other R
4.1,40.844122,-73.887917,El Nuevo Bohío,"791 E Tremont Ave, Bronx, NY 10460, USA",Initial,2025-01-28T09:10:21.000,Rat Activity
3.3,40.789679,-73.942802,Apollo Pizza,"2036 2nd Ave Store 1, New York, NY 10029, USA",Treatments,2025-01-28T09:12:00.000,Bait applied
3.3,40.789679,-73.942802,Apollo Pizza,"2036 2nd Ave Store 1, New York, NY 10029, USA",Treatments,2025-01-28T09:12:00.000,Bait applied
3.3,40.789679,-73.942802,Apollo Pizza,"2036 2nd Ave Store 1, New York, NY 10029, USA",Treatments,2025-01-28T09:12:00.000,Bait applied
4.1,40.844122,-73.887917,El Nuevo Bohío,"791 E Tremont Ave, Bronx, NY 10460, USA",Initial,2025-01-28T09:12:51.000,Rat Activity
4.1,40.844122,-73.887917,El Nuevo Bohío,"791 E Tremont Ave, Bronx, NY 10460, USA",Initial,2025-01-28T09:14:00.000,Rat Activity
4.7,40.701641,-73.958074,Spitzer's Kosher Grocery,"657 Bedford Ave, Brooklyn, NY 11211, USA",Initial,2025-01-28T09:19:00.000,Rat Activity
2.7,40.62836,-74.01328,大拇指功夫厨房 Thumbs-Up KongFu Kitchen,"894 70th St, Brooklyn, NY 11228, USA",Initial,2025-01-28T09:27:38.000,Rat Activity
4.8,40.734965,-73.934779,Wonton Food Inc.,"52-10 37th St, Long Island City, NY 11101, USA",Treatments,2025-01-28T09:41:16.000,Bait applied
3.8,40.637526,-74.007181,Uncle Ng's Recipe,"5603 8th Ave, Brooklyn, NY 11220, USA",Treatments,2025-01-28T09:53:00.000,Bait applied
4.5,40.708278,-73.89763,Minitalia Pizzeria Restaurant,"66-25 Fresh Pond Rd, Ridgewood, NY 11385, USA",Initial,2025-01-28T09:57:00.000,Failed for Other R
5,40.698837,-73.916822,La Huequita El autentico manabita,"1450 Myrtle Ave, Brooklyn, NY 11237, USA",Compliance,2025-01-28T10:03:39.000,Rat Activity
5,40.698837,-73.916822,La Huequita El autentico manabita,"1450 Myrtle Ave, Brooklyn, NY 11237, USA",Compliance,2025-01-28T10:03:39.000,Rat Activity
5,40.698837,-73.916822,La Huequita El autentico manabita,"1450 Myrtle Ave, Brooklyn, NY 11237, USA",Compliance,2025-01-28T10:03:39.000,Rat Activity
N/A,40.727519,-73.98275,BABA DONER,"147 Avenue A, New York, NY 10009, USA",Stoppage,2025-01-28T10:04:00.000,Stoppage done
N/A,40.727519,-73.98275,BABA DONER,"147 Avenue A, New York, NY 10009, USA",Stoppage,2025-01-28T10:04:00.000,Stoppage done
N/A,40.727519,-73.98275,BABA DONER,"147 Avenue A, New York, NY 10009, USA",Stoppage,2025-01-28T10:04:00.000,Stoppage done
N/A,40.727519,-73.98275,BABA DONER,"147 Avenue A, New York, NY 10009, USA",Stoppage,2025-01-28T10:04:00.000,Stoppage done
N/A,40.727519,-73.98275,BABA DONER,"147 Avenue A, New York, NY 10009, USA",Stoppage,2025-01-28T10:04:00.000,Stoppage done
N/A,40.727519,-73.98275,BABA DONER,"147 Avenue A, New York, NY 10009, USA",Stoppage,2025-01-28T10:04:00.000,Stoppage done
4.1,40.726837,-73.987674,Malai Marke,"318 E 6th St, New York, NY 10003, USA",Treatments,2025-01-28T10:06:24.000,Bait applied
5,40.698837,-73.916822,La Huequita El autentico manabita,"1450 Myrtle Ave, Brooklyn, NY 11237, USA",Compliance,2025-01-28T10:11:39.000,Rat Activity
5,40.698837,-73.916822,La Huequita El autentico manabita,"1450 Myrtle Ave, Brooklyn, NY 11237, USA",Compliance,2025-01-28T10:11:39.000,Rat Activity
5,40.698837,-73.916822,La Huequita El autentico manabita,"1450 Myrtle Ave, Brooklyn, NY 11237, USA",Compliance,2025-01-28T10:11:39.000,Rat Activity
3.9,40.843745,-73.938114,Popeyes Louisiana Kitchen,"601 W 172nd St, New York, NY 10032, USA",Treatments,2025-01-28T10:13:16.000,Bait applied
4.7,40.729132,-73.983714,Mama's Kitchen,"400 E 11th St, New York, NY 10009, USA",Stoppage,2025-01-28T10:16:00.000,Stoppage done
4.7,40.729132,-73.983714,Mama's Kitchen,"400 E 11th St, New York, NY 10009, USA",Stoppage,2025-01-28T10:16:00.000,Stoppage done
N/A,40.699196,-73.915927,Bar blanquita,"1493 Myrtle Ave, Brooklyn, NY 11237, USA",Compliance,2025-01-28T10:19:39.000,Rat Activity
4.2,40.784281,-73.977244,Spice (Upper West Side),"435 AMSTERDAM AVENUE AT, W 81st St, New York, NY 10024, USA",Initial,2025-01-28T10:21:00.000,Rat Activity
5,40.847584,-73.935397,El Pirata Street Food,"601 W 178th St, New York, NY 10033, USA",Treatments,2025-01-28T10:21:16.000,Bait applied
4.3,40.849588,-73.933868,Chick-fil-A,"601 W 181st St, NWQ of 181 St. &, St Nicholas Ave, New York, NY 10033, USA",Treatments,2025-01-28T10:27:16.000,Bait applied
N/A,40.699196,-73.915927,Bar blanquita,"1493 Myrtle Ave, Brooklyn, NY 11237, USA",Compliance,2025-01-28T10:27:39.000,Rat Activity
5,40.70961,-73.952571,Social Cues SLAY!,"369 Hooper St, Brooklyn, NY 11211, USA",Compliance,2025-01-28T10:28:00.000,Failed for Rat Act
N/A,40.803089,-73.952576,Billy Harper,"New York, NY 10026, USA",Treatments,2025-01-28T10:28:49.000,Bait applied
N/A,40.690603,-73.943456,Jose’ taco shop,"744 Lafayette Ave, Brooklyn, NY 11221, USA",Compliance,2025-01-28T10:30:00.000,Rat Activity
3.7,40.848947,-73.934235,Los Munchies St Nicholas Ave,"1405 St Nicholas Ave, New York, NY 10033, USA",Treatments,2025-01-28T10:31:01.000,Bait applied
4.7,40.770836,-73.902968,Mi Cielito Colombiano,"45-01 Ditmars Blvd, Astoria, NY 11105, USA",Treatments,2025-01-28T10:35:00.000,Bait applied
4.7,40.725344,-73.98321,Pineapple Club,"509 E 6th St, New York, NY 10009, USA",Treatments,2025-01-28T10:37:24.000,Bait applied
3.7,40.849686,-73.933236,Silver Palace,"1430 St Nicholas Ave, New York, NY 10033, USA",Treatments,2025-01-28T10:45:16.000,Bait applied
4,40.852745,-73.904975,Madison Cafe,"126 E Burnside Ave, Bronx, NY 10453, USA",Compliance,2025-01-28T10:45:52.000,Rat Activity
N/A,40.792674,-73.971572,ביליס הוט דוג,"698 Amsterdam Ave, New York, NY 10025, USA",Treatments,2025-01-28T10:47:06.000,Bait applied
4.6,40.725436,-73.944751,Greta - Greenpoint neighborhood coffee shop,"204 Nassau Ave, Brooklyn, NY 11222, USA",Compliance,2025-01-28T10:49:00.000,Rat Activity
N/A,40.784097,-73.978702,Julie's Beet,"210 W 80th St, New York, NY 10024, USA",Initial,2025-01-28T10:52:00.000,Rat Activity
4.6,40.84963,-73.932884,Habichuelas con Dulce,"570-598 W 182nd St, New York, NY 10033, USA",Treatments,2025-01-28T10:56:16.000,Bait applied
N/A,40.740753,-73.9242,Samurai Sushi LLC,"47-32 41st St, Sunnyside, NY 11104, USA",Treatments,2025-01-28T10:57:39.000,Bait applied
5,40.864376,-73.896805,Fantasia Cakes,"ONLINE ONLY, 2564 Creston Ave, Bronx, NY 10468, USA",Initial,2025-01-28T10:59:09.000,Rat Activity
4.7,40.804639,-73.951185,The Monkey Cup,"1965 Adam Clayton Powell Jr Blvd, New York, NY 10026, USA",Treatments,2025-01-28T11:01:49.000,Bait applied
N/A,40.792674,-73.971572,ביליס הוט דוג,"698 Amsterdam Ave, New York, NY 10025, USA",Treatments,2025-01-28T11:02:06.000,Bait applied
4.9,40.68759,-73.954515,STUPIDROMANS,"1063 Bedford Ave, Brooklyn, NY 11216, USA",Compliance,2025-01-28T11:06:29.000,Rat Activity
4.7,40.681551,-73.950066,Coffee With Milk,"504 Nostrand Ave, Brooklyn, NY 11216, USA",Compliance,2025-01-28T11:06:59.000,Rat Activity
N/A,40.864398,-73.890856,Casa de papo ramonsito,"2640 Marion Ave, Bronx, NY 10458, USA",Treatments,2025-01-28T11:10:00.000,Bait applied
N/A,40.788254,-73.980796,Lenwhich,"460 Columbus Ave, New York, NY 10024, USA",Treatments,2025-01-28T11:17:06.000,Bait applied
4.8,40.732457,-73.954312,BLND Coffee Studio,"141 India St, Brooklyn, NY 11222, USA",Compliance,2025-01-28T11:20:00.000,Rat Activity
4.8,40.732457,-73.954312,BLND Coffee Studio,"141 India St, Brooklyn, NY 11222, USA",Compliance,2025-01-28T11:20:00.000,Rat Activity
3.8,40.790298,-73.945394,LA ISLA RESTAURANT,"1883 3rd Ave, New York, NY 10029, USA",Treatments,2025-01-28T11:21:00.000,Bait applied
4.8,40.762955,-73.989844,LumLum,"404 W 49th St, New York, NY 10019, USA",Initial,2025-01-28T11:24:20.000,Rat Activity
4.4,40.711396,-73.945484,Desy's Clam,"672 Grand St, Brooklyn, NY 11211, USA",Initial,2025-01-28T11:25:00.000,Failed for Rat Act
5,40.727483,-73.985694,Tin Parlour,"127 1st Ave, New York, NY 10003, USA",Treatments,2025-01-28T11:25:24.000,Bait applied
5,40.791049,-73.9448,Fansway Japanese Grill,"1911 3rd Ave, New York, NY 10029, USA",Treatments,2025-01-28T11:28:00.000,Bait applied
4,40.858194,-73.904219,Running Cool Restaurant,"2263 Jerome Ave, Bronx, NY 10453, USA",Initial,2025-01-28T11:46:00.000,Rat Activity
3.9,40.799163,-73.967024,Papa Johns Pizza,"896 Amsterdam Ave, New York, NY 10025, USA",Treatments,2025-01-28T11:47:06.000,Bait applied
4.1,40.718544,-73.997583,La Nonna,"134 Mulberry St, New York, NY 10013, USA",Compliance,2025-01-28T11:48:00.000,Rat Activity
4.6,40.793314,-73.943635,109 Pizzeria,"1976 3rd Ave, New York, NY 10029, USA",Treatments,2025-01-28T11:50:00.000,Bait applied
N/A,40.762492,-73.988229,Golden Juice,"355 W 49th St, New York, NY 10019, USA",Compliance,2025-01-28T11:51:20.000,Rat Activity
3,40.85864,-73.904303,Best China House Chinese Restaurant,"9 W 183rd St, Bronx, NY 10453, USA",Initial,2025-01-28T11:55:09.000,Failed for Other R
N/A,40.844476,-73.893796,Sammy's sweets,"630 E 176th St, Bronx, NY 10457, USA",Initial,2025-01-28T11:55:52.000,Failed for Other R
3.9,40.799163,-73.967024,Papa Johns Pizza,"896 Amsterdam Ave, New York, NY 10025, USA",Treatments,2025-01-28T11:57:06.000,Bait applied
4.3,40.813522,-73.944706,Chez Maty Et Sokhna (Keur Sokhna),"2249 Adam Clayton Powell Jr Blvd, New York, NY 10027, USA",Treatments,2025-01-28T11:57:49.000,Bait applied
4.7,40.755906,-73.967325,HACHE,"300 E 52nd St, New York, NY 10022, USA",Initial,2025-01-28T11:58:08.000,Failed for Rat Act
N/A,40.844476,-73.893796,Sammy's sweets,"630 E 176th St, Bronx, NY 10457, USA",Initial,2025-01-28T11:59:52.000,Rat Activity
4,40.794075,-73.943117,El Chevere,"2000 3rd Ave, New York, NY 10029, USA",Treatments,2025-01-28T12:01:00.000,Monitoring visit
4.7,40.727245,-73.984901,Physical Graffitea,"96 St Marks Pl, New York, NY 10009, USA",Compliance,2025-01-28T12:02:25.000,Rat Activity
4,40.7192,-73.995381,Coffee,"118 Elizabeth St, New York, NY 10013, USA",Compliance,2025-01-28T12:03:00.000,Rat Activity
5,40.706001,-73.921756,Sazon De Abuela Food Truck,"41 Wyckoff Ave, Brooklyn, NY 11237, USA",Compliance,2025-01-28T12:03:35.000,Rat Activity
5,40.706001,-73.921756,Sazon De Abuela Food Truck,"41 Wyckoff Ave, Brooklyn, NY 11237, USA",Compliance,2025-01-28T12:03:35.000,Rat Activity
4.7,40.784065,-73.97803,Willet's Corner,"420 Amsterdam Ave, New York, NY 10024, USA",Initial,2025-01-28T12:12:00.000,Rat Activity
4.1,40.800098,-73.965747,Grain House 尚禾坊,"929 Amsterdam Ave, New York, NY 10025, USA",Treatments,2025-01-28T12:12:06.000,Bait applied
3.9,40.756162,-73.969344,Carol's Cafe,"217 E 51st St, New York, NY 10022, USA",Compliance,2025-01-28T12:16:08.000,Failed for Rat Act
4.8,40.729021,-73.98451,HAGS,"163 1st Ave, New York, NY 10003, USA",Compliance,2025-01-28T12:16:36.000,Rat Activity
5,40.85523,-73.889015,Afro Italiano,"2368 Hoffman St, Bronx, NY 10458, USA",Compliance,2025-01-28T12:23:52.000,Failed for Other R
5,40.85523,-73.889015,Afro Italiano,"2368 Hoffman St, Bronx, NY 10458, USA",Compliance,2025-01-28T12:23:52.000,Failed for Other R
5,40.85523,-73.889015,Afro Italiano,"2368 Hoffman St, Bronx, NY 10458, USA",Compliance,2025-01-28T12:23:52.000,Failed for Other R
5,40.85523,-73.889015,Afro Italiano,"2368 Hoffman St, Bronx, NY 10458, USA",Compliance,2025-01-28T12:23:52.000,Failed for Other R
5,40.85523,-73.889015,Afro Italiano,"2368 Hoffman St, Bronx, NY 10458, USA",Compliance,2025-01-28T12:23:52.000,Failed for Other R
5,40.85523,-73.889015,Afro Italiano,"2368 Hoffman St, Bronx, NY 10458, USA",Compliance,2025-01-28T12:23:52.000,Failed for Other R
5,40.85523,-73.889015,Afro Italiano,"2368 Hoffman St, Bronx, NY 10458, USA",Compliance,2025-01-28T12:23:52.000,Failed for Other R
5,40.85523,-73.889015,Afro Italiano,"2368 Hoffman St, Bronx, NY 10458, USA",Compliance,2025-01-28T12:23:52.000,Failed for Other R
5,40.85523,-73.889015,Afro Italiano,"2368 Hoffman St, Bronx, NY 10458, USA",Compliance,2025-01-28T12:23:52.000,Failed for Other R
5,40.85523,-73.889015,Afro Italiano,"2368 Hoffman St, Bronx, NY 10458, USA",Compliance,2025-01-28T12:23:52.000,Failed for Other R
4.7,40.784065,-73.97803,Willet's Corner,"420 Amsterdam Ave, New York, NY 10024, USA",Initial,2025-01-28T12:24:00.000,Rat Activity
4.2,40.705699,-73.910423,Lucy's Vietnamese - Ridgewood,"5-52 Onderdonk Ave, Ridgewood, NY 11385, USA",Initial,2025-01-28T12:27:00.000,Rat Activity
4.1,40.723756,-73.996936,MatchaBar,"70 Prince St, New York, NY 10012, USA",Compliance,2025-01-28T12:29:00.000,Rat Activity
4.1,40.723756,-73.996936,MatchaBar,"70 Prince St, New York, NY 10012, USA",Compliance,2025-01-28T12:29:00.000,Rat Activity
4.6,40.679654,-73.964752,Formosa,"43 Underhill Ave, Brooklyn, NY 11238, USA",Compliance,2025-01-28T12:30:00.000,Rat Activity
N/A,40.784097,-73.978702,Julie's Beet,"210 W 80th St, New York, NY 10024, USA",Initial,2025-01-28T12:39:00.000,Failed for Other R
N/A,40.700495,-73.923272,Chidocos Mexican Bar and Grill,"1433 Dekalb Ave, Brooklyn, NY 11237, USA",Compliance,2025-01-28T12:40:35.000,Rat Activity
4.6,40.678468,-73.96436,The BAKERY on Bergen,"740 Bergen St, Brooklyn, NY 11238, USA",Compliance,2025-01-28T12:41:38.000,Failed for Rat Act
4.2,40.637233,-73.897276,Richard's Restaurant and Bar,"9404 Avenue L, Brooklyn, NY 11236, USA",Compliance,2025-01-28T12:45:33.000,Rat Activity
4.3,40.762581,-73.796759,D'Anna's Deli & Pizzeria,"169-08 Crocheron Ave, Flushing, NY 11358, USA",Compliance,2025-01-28T13:00:00.000,Rat Activity
N/A,40.700495,-73.923272,Chidocos Mexican Bar and Grill,"1433 Dekalb Ave, Brooklyn, NY 11237, USA",Initial,2025-01-28T13:00:35.000,Rat Activity
5,40.729872,-73.991051,Francesca's Bakery - Astor Place,"E 8th St &, Lafayette St, New York, NY 10003, USA",Compliance,2025-01-28T13:02:00.000,Rat Activity
3.7,40.622084,-74.027343,My Teriyaki Food Cart,"Between 4th and 5th Ave, 86th St, Brooklyn, NY 11209, USA",Treatments,2025-01-28T13:35:00.000,Bait applied
4.4,40.671472,-73.98464,Mura Sushi,"370 5th Ave, Brooklyn, NY 11215, USA",Treatments,2025-01-28T13:47:46.000,Bait applied
4.3,40.670629,-73.982034,Park Slope Ale House,"356 6th Ave, Brooklyn, NY 11215, USA",Treatments,2025-01-28T14:02:00.000,Bait applied
4.9,40.712015,-73.96274,Sump Coffee Brooklyn,"347A Bedford Ave, Brooklyn, NY 11211, USA",Initial,2025-01-28T14:15:00.000,Rat Activity
4.2,40.754684,-73.97056,Bukhara Grill Catering : Indian Weddings & Events ( Nationwide Catering),"216 E 49th St, New York, NY 10017, USA",Compliance,2025-01-28T14:32:08.000,Failed for Other R
4.6,40.851834,-73.93394,DONplinada,"645 W 184th St, New York, NY 10033, USA",Compliance,2025-01-28T14:35:17.000,Rat Activity
4.4,40.753556,-73.973625,Joy Curry & Tandoor,"148 E 46th St, New York, NY 10017, USA",Initial,2025-01-28T14:47:08.000,Failed for Rat Act
4.4,40.753556,-73.973625,Joy Curry & Tandoor,"148 E 46th St, New York, NY 10017, USA",Initial,2025-01-28T15:09:08.000,Failed for Rat Act
5,40.777749,-73.953801,Spoonable Spirits,"214 E 85th St, New York, NY 10028, USA",Compliance,2025-01-29T08:33:33.000,Rat Activity
4.9,40.727161,-73.984631,The Avenue Cafe NYC,"102 St Marks Pl, New York, NY 10009, USA",Compliance,2025-01-29T08:56:37.000,Rat Activity
4.9,40.727161,-73.984631,The Avenue Cafe NYC,"102 St Marks Pl, New York, NY 10009, USA",Compliance,2025-01-29T08:56:37.000,Rat Activity
4.9,40.727161,-73.984631,The Avenue Cafe NYC,"102 St Marks Pl, New York, NY 10009, USA",Compliance,2025-01-29T08:56:37.000,Rat Activity
4.5,40.751587,-73.825904,Nurlan Uyghur Restaurant,"43-39 Main St, Flushing, NY 11355, USA",Compliance,2025-01-29T08:59:00.000,Failed for Other R
4.3,40.734432,-73.998076,Alta,"64 W 10th St, New York, NY 10011, USA",Compliance,2025-01-29T08:59:00.000,Rat Activity
5,40.791049,-73.9448,Fansway Japanese Grill,"1911 3rd Ave, New York, NY 10029, USA",Treatments,2025-01-29T09:15:46.000,Bait applied
4.9,40.727161,-73.984631,The Avenue Cafe NYC,"102 St Marks Pl, New York, NY 10009, USA",Compliance,2025-01-29T09:16:43.000,Rat Activity
4.9,40.727161,-73.984631,The Avenue Cafe NYC,"102 St Marks Pl, New York, NY 10009, USA",Compliance,2025-01-29T09:16:43.000,Rat Activity
4.9,40.727161,-73.984631,The Avenue Cafe NYC,"102 St Marks Pl, New York, NY 10009, USA",Compliance,2025-01-29T09:16:43.000,Rat Activity
3.9,40.753869,-73.822433,Amazing Asia,"44-05 Kissena Blvd, Flushing, NY 11355, USA",Compliance,2025-01-29T09:21:00.000,Failed for Rat Act
5,40.724952,-73.978419,Gramwich LES,"131 Loisaida Ave, New York, NY 10009, USA",Stoppage,2025-01-29T09:30:00.000,Stoppage done
5,40.724952,-73.978419,Gramwich LES,"131 Loisaida Ave, New York, NY 10009, USA",Stoppage,2025-01-29T09:30:00.000,Stoppage done
4.8,40.733623,-73.999325,ANDIAMO PIZZA,"402 6th Ave, New York, NY 10011, USA",Compliance,2025-01-29T09:30:00.000,Rat Activity
N/A,40.693608,-73.828543,Soup kettle,"118-06 Atlantic Ave, South Richmond Hill, NY 11419, USA",Compliance,2025-01-29T09:33:00.000,Rat Activity
N/A,40.693608,-73.828543,Soup kettle,"118-06 Atlantic Ave, South Richmond Hill, NY 11419, USA",Compliance,2025-01-29T09:33:00.000,Rat Activity
4.6,40.749299,-73.889787,K&L Delicatessen,"76-01 37th Ave, Jackson Heights, NY 11372, USA",Initial,2025-01-29T09:37:00.000,Failed for Other R
5,40.715341,-73.991428,Clubhouse Sandos & Suds,"22 Orchard St, New York, NY 10002, USA",Treatments,2025-01-29T09:45:04.000,Bait applied
5,40.715341,-73.991428,Clubhouse Sandos & Suds,"22 Orchard St, New York, NY 10002, USA",Treatments,2025-01-29T09:45:04.000,Bait applied
5,40.715341,-73.991428,Clubhouse Sandos & Suds,"22 Orchard St, New York, NY 10002, USA",Treatments,2025-01-29T09:45:04.000,Bait applied
5,40.728582,-73.988113,Pizzeria By The Slice 36,"36 St Marks Pl, New York, NY 10003, USA",Stoppage,2025-01-29T09:49:00.000,Stoppage done
5,40.728582,-73.988113,Pizzeria By The Slice 36,"36 St Marks Pl, New York, NY 10003, USA",Stoppage,2025-01-29T09:49:00.000,Stoppage done
4.4,40.719653,-73.842579,The Cottage restaurant bar,"108-07 72nd Ave, Forest Hills, NY 11375, USA",Treatments,2025-01-29T09:50:53.000,Bait applied
N/A,40.728584,-73.987907,NYC Best Burgers,"St Marks Pl, 2nd Ave, New York, NY 10003, USA",Stoppage,2025-01-29T09:52:00.000,Stoppage done
5,40.728896,-73.980451,The Community Boutique & Cafe,"515 E 12th St, New York, NY 10009, USA",Initial,2025-01-29T09:56:09.000,Rat Activity
5,40.728896,-73.980451,The Community Boutique & Cafe,"515 E 12th St, New York, NY 10009, USA",Initial,2025-01-29T09:56:09.000,Rat Activity
5,40.728896,-73.980451,The Community Boutique & Cafe,"515 E 12th St, New York, NY 10009, USA",Initial,2025-01-29T09:56:32.000,Rat Activity
5,40.728896,-73.980451,The Community Boutique & Cafe,"515 E 12th St, New York, NY 10009, USA",Initial,2025-01-29T09:56:32.000,Rat Activity
5,40.728896,-73.980451,The Community Boutique & Cafe,"515 E 12th St, New York, NY 10009, USA",Initial,2025-01-29T09:56:33.000,Rat Activity
5,40.728896,-73.980451,The Community Boutique & Cafe,"515 E 12th St, New York, NY 10009, USA",Initial,2025-01-29T09:56:33.000,Rat Activity
5,40.728896,-73.980451,The Community Boutique & Cafe,"515 E 12th St, New York, NY 10009, USA",Initial,2025-01-29T09:56:45.000,Rat Activity
5,40.728896,-73.980451,The Community Boutique & Cafe,"515 E 12th St, New York, NY 10009, USA",Initial,2025-01-29T09:56:45.000,Rat Activity
4.3,40.744357,-73.986098,Bourke Street Bakery,"15 E 28th St, New York, NY 10016, USA",Initial,2025-01-29T10:00:58.000,Failed for Other R
4.3,40.805406,-73.951326,The Ultimate Krave,"1980 Adam Clayton Powell Jr Blvd, New York, NY 10026, USA",Compliance,2025-01-29T10:14:00.000,Failed for Other R
4.3,40.805406,-73.951326,The Ultimate Krave,"1980 Adam Clayton Powell Jr Blvd, New York, NY 10026, USA",Compliance,2025-01-29T10:14:00.000,Failed for Other R
4.1,40.689473,-73.936507,Soul Food & Sea Food,"208 Lewis Ave, Brooklyn, NY 11221, USA",Compliance,2025-01-29T10:21:27.000,Rat Activity
4.1,40.689473,-73.936507,Soul Food & Sea Food,"208 Lewis Ave, Brooklyn, NY 11221, USA",Compliance,2025-01-29T10:21:27.000,Rat Activity
3.9,40.841431,-73.883278,Big Apple,"936 E Tremont Ave, Bronx, NY 10460, USA",Initial,2025-01-29T10:23:51.000,Failed for Other R
4.4,40.658575,-73.9507,HasenStüble,"1184 Nostrand Ave, Brooklyn, NY 11225, USA",Compliance,2025-01-29T10:28:59.000,Rat Activity
4.1,40.689473,-73.936507,Soul Food & Sea Food,"208 Lewis Ave, Brooklyn, NY 11221, USA",Compliance,2025-01-29T10:30:27.000,Rat Activity
4.1,40.689473,-73.936507,Soul Food & Sea Food,"208 Lewis Ave, Brooklyn, NY 11221, USA",Compliance,2025-01-29T10:30:27.000,Rat Activity
4.8,40.728959,-73.98061,House of Pasta NYC,"511 E 12th St, New York, NY 10009, USA",Compliance,2025-01-29T10:35:42.000,Rat Activity
5,40.731278,-74.000494,W4 NOODLE HOUSE,"144 W 4th St, New York, NY 10012, USA",Initial,2025-01-29T10:37:00.000,Rat Activity
5,40.731278,-74.000494,W4 NOODLE HOUSE,"144 W 4th St, New York, NY 10012, USA",Initial,2025-01-29T10:37:00.000,Rat Activity
4.3,40.82745,-73.920718,ASAP SNACK BAR,"909 Sheridan Ave, Bronx, NY 10451, USA",Treatments,2025-01-29T10:38:57.000,Bait applied
4.3,40.805406,-73.951326,The Ultimate Krave,"1980 Adam Clayton Powell Jr Blvd, New York, NY 10026, USA",Initial,2025-01-29T10:40:00.000,Failed for Rat Act
4.3,40.805406,-73.951326,The Ultimate Krave,"1980 Adam Clayton Powell Jr Blvd, New York, NY 10026, USA",Initial,2025-01-29T10:40:00.000,Failed for Rat Act
4.1,40.722058,-73.850618,Austin Street Bar & Grill (formerly Rotana Cafe & Grill),"68-60 Austin St Store 3, Forest Hills, NY 11375, USA",Treatments,2025-01-29T10:40:53.000,Bait applied
4.1,40.722058,-73.850618,Austin Street Bar & Grill (formerly Rotana Cafe & Grill),"68-60 Austin St Store 3, Forest Hills, NY 11375, USA",Treatments,2025-01-29T10:40:53.000,Bait applied
3.5,40.685285,-73.920704,Bed-Stuy Fish Fry,"801 Halsey St #1, Brooklyn, NY 11233, USA",Compliance,2025-01-29T10:49:33.000,Failed for Other R
4.7,40.791754,-73.972365,Sushi Tokyo Manhattan,"660 Amsterdam Ave, New York, NY 10025, USA",Initial,2025-01-29T10:52:00.000,Failed for Other R
N/A,40.718967,-73.98725,Den Kushi Flori,"107 Norfolk St, New York, NY 10002, USA",Stoppage,2025-01-29T10:55:00.000,Stoppage done
4.5,40.725357,-73.983301,Nowon East Village,"507 E 6th St, New York, NY 10009, USA",Treatments,2025-01-29T10:57:04.000,Bait applied
4.3,40.82745,-73.920718,ASAP SNACK BAR,"909 Sheridan Ave, Bronx, NY 10451, USA",Treatments,2025-01-29T10:58:57.000,Bait applied
4.2,40.717328,-73.958476,Real Mexican (Food Truck),"124-160 N 6th St, Brooklyn, NY 11249, USA",Compliance,2025-01-29T11:00:00.000,Rat Activity
4.1,40.724138,-73.855352,Wholesome Organic Foods Russian Delicatessen and Live Fresh Fish Grocery Store,"67-05 Austin St, Forest Hills, NY 11375, USA",Treatments,2025-01-29T11:06:53.000,Bait applied
4.8,40.73199,-74.003996,West village cafe & restaurant,"70 7th Ave S, New York, NY 10014, USA",Compliance,2025-01-29T11:09:00.000,Rat Activity
4.7,40.693547,-73.998509,Laundry & Latte,"6 Columbia Pl, Brooklyn, NY 11201, USA",Compliance,2025-01-29T11:09:00.000,Rat Activity
4.8,40.724894,-73.983026,Terra Thai,"518 E 6th St, New York, NY 10009, USA",Treatments,2025-01-29T11:12:04.000,Bait applied
4.4,40.681561,-73.929001,Nana Ramen,"330 Malcolm X Blvd, Brooklyn, NY 11233, USA",Compliance,2025-01-29T11:19:33.000,Rat Activity
N/A,40.864398,-73.890856,Casa de papo ramonsito,"2640 Marion Ave, Bronx, NY 10458, USA",Treatments,2025-01-29T11:20:00.000,Bait applied
5,40.716492,-73.959032,Simply Natural Grill House,"217 Bedford Ave, Brooklyn, NY 11211, USA",Initial,2025-01-29T11:20:00.000,Rat Activity
